store_name,store_number,address,address2,city,state,zip_code,country,phone_number,latitude,longitude,store_hours,store_type,other_fields,coming_soon
Firestone Complete Auto Care,345100,1558 S WABASH AVE,,CHICAGO,IL,60605-2809,United States,3126621553,41.860591,-87.625663,Mon: - ; Tue: - ; Wed: - ; Thu: - ; Fri: - ; Sat: - ; Sun: - ; ,,,0
Firestone Complete Auto Care,26514,909 W NORTH AVE,,CHICAGO,IL,60642-2507,United States,3127878828,41.910839,-87.65128,Mon: - ; Tue: - ; Wed: - ; Thu: - ; Fri: - ; Sat: - ; Sun: - ; ,,,0
Firestone Complete Auto Care,5185,3650 N ELSTON AVE,,CHICAGO,IL,60618-4316,United States,7734633444,41.947784,-87.710491,Mon: - ; Tue: - ; Wed: - ; Thu: - ; Fri: - ; Sat: - ; Sun: - ; ,,,0
Firestone Complete Auto Care,9113,226 LAKE ST,,OAK PARK,IL,60302-2609,United States,7083868241,41.888214,-87.780969,Mon: - ; Tue: - ; Wed: - ; Thu: - ; Fri: - ; Sat: - ; Sun: - ; ,,,0
Firestone Complete Auto Care,9261,5811 W BELMONT AVE,,CHICAGO,IL,60634-5203,United States,7738894363,41.938513,-87.771801,Mon: - ; Tue: - ; Wed: - ; Thu: - ; Fri: - ; Sat: - ; Sun: - ; ,,,0
Firestone Complete Auto Care,26506,5945 S ARCHER AVE,,CHICAGO,IL,60638-2802,United States,7737358887,41.795313,-87.764678,Mon: - ; Tue: - ; Wed: - ; Thu: - ; Fri: - ; Sat: - ; Sun: - ; ,,,0
Firestone Complete Auto Care,547484,6211 N LINCOLN AVE,,CHICAGO,IL,60659-2205,United States,7735390700,41.995065,-87.714971,Mon: - ; Tue: - ; Wed: - ; Thu: - ; Fri: - ; Sat: - ; Sun: - ; ,,,0
Firestone Complete Auto Care,280,5215 N MILWAUKEE AVE,,CHICAGO,IL,60630-4623,United States,7732861017,41.975045,-87.767083,Mon: - ; Tue: - ; Wed: - ; Thu: - ; Fri: - ; Sat: - ; Sun: - ; ,,,0
Firestone Complete Auto Care,9148,7615 S CICERO AVE,,CHICAGO,IL,60652-1020,United States,7735812900,41.75409,-87.741427,Mon: - ; Tue: - ; Wed: - ; Thu: - ; Fri: - ; Sat: - ; Sun: - ; ,,,0
Firestone Complete Auto Care,9210,4515 N HARLEM AVE,,NORRIDGE,IL,60706-4711,United States,7084571650,41.962961,-87.807185,Mon: - ; Tue: - ; Wed: - ; Thu: - ; Fri: - ; Sat: - ; Sun: - ; ,,,0
Firestone Complete Auto Care,9202,9549 S WESTERN AVE,,CHICAGO,IL,60643-1013,United States,7732980570,41.720048,-87.681978,Mon: - ; Tue: - ; Wed: - ; Thu: - ; Fri: - ; Sat: - ; Sun: - ; ,,,0
Firestone Complete Auto Care,9180,8801 SKOKIE BLVD,,SKOKIE,IL,60077-2225,United States,8476779550,42.040776,-87.747022,Mon: - ; Tue: - ; Wed: - ; Thu: - ; Fri: - ; Sat: - ; Sun: - ; ,,,0
Firestone Complete Auto Care,7757,8501 S HARLEM AVE,,BRIDGEVIEW,IL,60455-1722,United States,7084300180,41.737147,-87.799281,Mon: - ; Tue: - ; Wed: - ; Thu: - ; Fri: - ; Sat: - ; Sun: - ; ,,,0
Firestone Complete Auto Care,15520,10327 S CICERO AVE,,OAK LAWN,IL,60453-4701,United States,7084252997,41.704853,-87.740149,Mon: - ; Tue: - ; Wed: - ; Thu: - ; Fri: - ; Sat: - ; Sun: - ; ,,,0
Firestone Complete Auto Care,353223,7237 W DEMPSTER,,NILES,IL,60714-0000,United States,8479661470,42.040692,-87.807152,Mon: - ; Tue: - ; Wed: - ; Thu: - ; Fri: - ; Sat: - ; Sun: - ; ,,,0
Carson Tire Service,765809,1005 W Huron,,Chicago,IL,60642-5952,United States,3122260868,41.894212,-87.652805,Mon: - ; Tue: - ; Wed: - ; Thu: - ; Fri: - ; Sat: - ; Sun: - ; ,,,0
River West Automotive,782824,1314 West Grand Avenue,,Chicago,IL,60642-6443,United States,3122437499,41.89134,-87.65966,Mon: - ; Tue: - ; Wed: - ; Thu: - ; Fri: - ; Sat: - ; Sun: - ; ,,,0
City Tire,216569,452 West 47th St.,,Chicago,IL,60609-3517,United States,7732687400,41.80928,-87.63787,Mon: - ; Tue: - ; Wed: - ; Thu: - ; Fri: - ; Sat: - ; Sun: - ; ,,,0
Swift Car Care,249817,4456 S. Ashland Ave.,,Chicago,IL,60609,United States,7738904300,41.813008,-87.665102,Mon: - ; Tue: - ; Wed: - ; Thu: - ; Fri: - ; Sat: - ; Sun: - ; ,,,0
Swift Car Care,780244,4465 W Grand Ave,,Chicago,IL,60639-4708,United States,7732271300,41.910756615211,-87.7381774711666,Mon: - ; Tue: - ; Wed: - ; Thu: - ; Fri: - ; Sat: - ; Sun: - ; ,,,0
Associated Tire & Battery,771493,6212 Roosevelt Road,,Oak Park,IL,60304-2302,United States,7083836673,41.865415,-87.779714,Mon: - ; Tue: - ; Wed: - ; Thu: - ; Fri: - ; Sat: - ; Sun: - ; ,,,0
Central Chicago Tire & Wheel Co.,349223,7829 W. Grand Ave.,,Elmwood Park,IL,60707-1823,United States,7084563354,41.92625,-87.82241,Mon: - ; Tue: - ; Wed: - ; Thu: - ; Fri: - ; Sat: - ; Sun: - ; ,,,0
Brad's Tire,607037,9100 S. Chicago Ave.,,Chicago,IL,60617-4227,United States,7739783900,41.7298551295896,-87.5555716254374,Mon: - ; Tue: - ; Wed: - ; Thu: - ; Fri: - ; Sat: - ; Sun: - ; ,,,0
Norwood Auto Service Center,771129,6055 N Northwest Hwy,,Chicago,IL,60631-2542,United States,7737747333,41.99163,-87.797205,Mon: - ; Tue: - ; Wed: - ; Thu: - ; Fri: - ; Sat: - ; Sun: - ; ,,,0
Wentworth Tire Service,67075,11130 S.  Corliss,,Chicago,IL,60628-4672,United States,7738214802,41.6922196485838,-87.6007632810737,Mon: - ; Tue: - ; Wed: - ; Thu: - ; Fri: - ; Sat: - ; Sun: - ; ,,,0
Cars Of America,776866,2650 Green Bay Road,,Evanston,IL,60201-1422,United States,2243075000,42.06597,-87.70057,Mon: - ; Tue: - ; Wed: - ; Thu: - ; Fri: - ; Sat: - ; Sun: - ; ,,,0
Morton Grove Auto and Truck,772089,9440 Waukegan Rd.,,Morton Grove,IL,60053-1352,United States,8479668045,42.052336,-87.799479,Mon: - ; Tue: - ; Wed: - ; Thu: - ; Fri: - ; Sat: - ; Sun: - ; ,,,0
Firestone Complete Auto Care,320672,2305 SCHOFIELD RD BLDG 2610,,FORT SAM HOUSTON,TX,78234-0723,United States,2102240209,29.455021,-98.446228,Mon: - ; Tue: - ; Wed: - ; Thu: - ; Fri: - ; Sat: - ; Sun: - ; ,,,0
Firestone Complete Auto Care,7870,4800 BROADWAY,,ALAMO HTS,TX,78209-5704,United States,2108247547,29.470252,-98.463355,Mon: - ; Tue: - ; Wed: - ; Thu: - ; Fri: - ; Sat: - ; Sun: - ; ,,,0
Firestone Complete Auto Care,655287,1311 GOLIAD RD,,SAN ANTONIO,TX,78223-2768,United States,2105328473,29.374721,-98.447731,Mon: - ; Tue: - ; Wed: - ; Thu: - ; Fri: - ; Sat: - ; Sun: - ; ,,,0
Firestone Complete Auto Care,654795,2415 PLEASANTON RD,,SAN ANTONIO,TX,78221-1504,United States,2109219444,29.355076,-98.503881,Mon: - ; Tue: - ; Wed: - ; Thu: - ; Fri: - ; Sat: - ; Sun: - ; ,,,0
Firestone Complete Auto Care,20397,2400 SW MILITARY DR,,SAN ANTONIO,TX,78224-1411,United States,2109271172,29.356587,-98.533385,Mon: - ; Tue: - ; Wed: - ; Thu: - ; Fri: - ; Sat: - ; Sun: - ; ,,,0
Firestone Complete Auto Care,8001,200 CROSSROADS BLVD,,SAN ANTONIO,TX,78201-6513,United States,2107361572,29.491642,-98.549717,Mon: - ; Tue: - ; Wed: - ; Thu: - ; Fri: - ; Sat: - ; Sun: - ; ,,,0
Firestone Complete Auto Care,7943,7203 SAN PEDRO,,SAN ANTONIO,TX,78216-6223,United States,2103449766,29.51384,-98.499687,Mon: - ; Tue: - ; Wed: - ; Thu: - ; Fri: - ; Sat: - ; Sun: - ; ,,,0
Wentworth Tire Service,135208,1549 W. 127th St.,,Calumet Park,IL,60827-6030,United States,7085979909,41.662819,-87.668135,Mon: - ; Tue: - ; Wed: - ; Thu: - ; Fri: - ; Sat: - ; Sun: - ; ,,,0
Wentworth Tire Service,103799,6465 W. 111th,,Worth,IL,60482-1635,United States,7083616060,41.690293,-87.780546,Mon: - ; Tue: - ; Wed: - ; Thu: - ; Fri: - ; Sat: - ; Sun: - ; ,,,0
Firestone Complete Auto Care,328317,2250 KELLY DR BLDG 2306,,SAN ANTONIO,TX,78236-5125,United States,2106451837,29.387355,-98.606711,Mon: - ; Tue: - ; Wed: - ; Thu: - ; Fri: - ; Sat: - ; Sun: - ; ,,,0
Firestone Complete Auto Care,678872,6531 NW LOOP 410,,SAN ANTONIO,TX,78238-4204,United States,2106814564,29.463468,-98.621885,Mon: - ; Tue: - ; Wed: - ; Thu: - ; Fri: - ; Sat: - ; Sun: - ; ,,,0
Firestone Complete Auto Care,8346,4906 WALZEM RD,,SAN ANTONIO,TX,78218-2115,United States,2106541560,29.510196,-98.39496,Mon: - ; Tue: - ; Wed: - ; Thu: - ; Fri: - ; Sat: - ; Sun: - ; ,,,0
Firestone Complete Auto Care,18244,11754 WEST AVE,,SAN ANTONIO,TX,78216-2524,United States,2103663375,29.548141,-98.506957,Mon: - ; Tue: - ; Wed: - ; Thu: - ; Fri: - ; Sat: - ; Sun: - ; ,,,0
Firestone Complete Auto Care,8125,5500 BABCOCK RD,,SAN ANTONIO,TX,78240-1845,United States,2106906033,29.517565,-98.594977,Mon: - ; Tue: - ; Wed: - ; Thu: - ; Fri: - ; Sat: - ; Sun: - ; ,,,0
Firestone Complete Auto Care,316729,6730 FM 78,,SAN ANTONIO,TX,78244-1358,United States,2106611356,29.483148,-98.355314,Mon: - ; Tue: - ; Wed: - ; Thu: - ; Fri: - ; Sat: - ; Sun: - ; ,,,0
Firestone Complete Auto Care,654825,6901 BANDERA RD,,SAN ANTONIO,TX,78238-1361,United States,2105208473,29.498154,-98.622394,Mon: - ; Tue: - ; Wed: - ; Thu: - ; Fri: - ; Sat: - ; Sun: - ; ,,,0
Firestone Complete Auto Care,29440,1375 SW 410 LOOP,,SAN ANTONIO,TX,78227-1621,United States,2106752000,29.420767,-98.649949,Mon: - ; Tue: - ; Wed: - ; Thu: - ; Fri: - ; Sat: - ; Sun: - ; ,,,0
Firestone Complete Auto Care,678899,11540 PERRIN BEITEL RD,,SAN ANTONIO,TX,78217-2113,United States,2106541592,29.545005,-98.410908,Mon: - ; Tue: - ; Wed: - ; Thu: - ; Fri: - ; Sat: - ; Sun: - ; ,,,0
Firestone Complete Auto Care,678856,16633 SAN PEDRO AVE,,HOLLYWOOD PARK,TX,78232-2222,United States,2104963668,29.593425,-98.473336,Mon: - ; Tue: - ; Wed: - ; Thu: - ; Fri: - ; Sat: - ; Sun: - ; ,,,0
Firestone Complete Auto Care,6610,14111 NACOGDOCHES RD,,SAN ANTONIO,TX,78247-1920,United States,2106574073,29.569641,-98.38324,Mon: - ; Tue: - ; Wed: - ; Thu: - ; Fri: - ; Sat: - ; Sun: - ; ,,,0
Firestone Complete Auto Care,316730,10635 CULEBRA RD,,SAN ANTONIO,TX,78251-1346,United States,2106471586,29.492301,-98.700187,Mon: - ; Tue: - ; Wed: - ; Thu: - ; Fri: - ; Sat: - ; Sun: - ; ,,,0
Firestone Complete Auto Care,654841,2017 UNIVERSAL CITY BLVD,,UNIVERSAL CITY,TX,78148-3440,United States,2106594166,29.554302,-98.309063,Mon: - ; Tue: - ; Wed: - ; Thu: - ; Fri: - ; Sat: - ; Sun: - ; ,,,0
Firestone Complete Auto Care,10901,1136 C ST,,SAN DIEGO,CA,92101-5605,United States,6192337121,32.716796,-117.154193,Mon: - ; Tue: - ; Wed: - ; Thu: - ; Fri: - ; Sat: - ; Sun: - ; ,,,0
Firestone Complete Auto Care,29971,6977 FRIARS RD,,SAN DIEGO,CA,92108-1100,United States,6192976440,32.769276,-117.170081,Mon: - ; Tue: - ; Wed: - ; Thu: - ; Fri: - ; Sat: - ; Sun: - ; ,,,0
Firestone Complete Auto Care,10898,943 HIGHLAND AVE,,NATIONAL CITY,CA,91950-3513,United States,6194772109,32.676813,-117.098133,Mon: - ; Tue: - ; Wed: - ; Thu: - ; Fri: - ; Sat: - ; Sun: - ; ,,,0
Firestone Complete Auto Care,29106,2531 E PLAZA BLVD,,NATIONAL CITY,CA,91950-4016,United States,6194756171,32.68009,-117.07952,Mon: - ; Tue: - ; Wed: - ; Thu: - ; Fri: - ; Sat: - ; Sun: - ; ,,,0
Firestone Complete Auto Care,25550,4161 CONVOY ST,,SAN DIEGO,CA,92111-3701,United States,8582797472,32.818278,-117.154915,Mon: - ; Tue: - ; Wed: - ; Thu: - ; Fri: - ; Sat: - ; Sun: - ; ,,,0
Firestone Complete Auto Care,15644,1245 GARNET AVE,,SAN DIEGO,CA,92109-2913,United States,8582729232,32.798399,-117.247162,Mon: - ; Tue: - ; Wed: - ; Thu: - ; Fri: - ; Sat: - ; Sun: - ; ,,,0
Firestone Complete Auto Care,17671,830 BROADWAY,,CHULA VISTA,CA,91911-1103,United States,6194251515,32.61954,-117.085006,Mon: - ; Tue: - ; Wed: - ; Thu: - ; Fri: - ; Sat: - ; Sun: - ; ,,,0
Firestone Complete Auto Care,328509,611 HARMON DR BLDG 1070,,UNIVERSAL CITY,TX,78150-4900,United States,2106596955,29.533891,-98.287179,Mon: - ; Tue: - ; Wed: - ; Thu: - ; Fri: - ; Sat: - ; Sun: - ; ,,,0
Gil's Tire and Wheel,765610,6239 San Pedro Ave,,San Antonio,TX,78216-7207,United States,2107330156,29.493946,-98.499679,Mon: - ; Tue: - ; Wed: - ; Thu: - ; Fri: - ; Sat: - ; Sun: - ; ,,,0
Espino Tire & Wheel,771333,7046 San Pedro Ave,,San Antonio,TX,78216-6208,United States,2108283888,29.509616,-98.498858,Mon: - ; Tue: - ; Wed: - ; Thu: - ; Fri: - ; Sat: - ; Sun: - ; ,,,0
Beasley Tire Service,773010,1015 SE Loop 410,,San Antonio,TX,78220,United States,2016672365,29.4184164625449,-98.3896844316767,Mon: - ; Tue: - ; Wed: - ; Thu: - ; Fri: - ; Sat: - ; Sun: - ; ,,,0
Southern Tire Mart,290869,"6081 I-10, E.",,San Antonio,TX,78219,United States,2106666100,29.444613,-98.366028,Mon: - ; Tue: - ; Wed: - ; Thu: - ; Fri: - ; Sat: - ; Sun: - ; ,,,0
Martinez Tire & Muffler Shop,770990,3303 Nacogdoches Rd,,San Antonio,TX,78217-3305,United States,2105908108,29.529676,-98.432029,Mon: - ; Tue: - ; Wed: - ; Thu: - ; Fri: - ; Sat: - ; Sun: - ; ,,,0
MCDONALD TIRE COMPANY,354955,4130 S LOOP 1604 E,,SAN ANTONIO,TX,78264-9567,United States,0,29.21767,-98.41563,Mon: - ; Tue: - ; Wed: - ; Thu: - ; Fri: - ; Sat: - ; Sun: - ; ,,,0
Firestone Complete Auto Care,19445,5577 LAKE MURRAY BLVD,,LA MESA,CA,91942-4212,United States,6194623280,32.780721,-117.033908,Mon: - ; Tue: - ; Wed: - ; Thu: - ; Fri: - ; Sat: - ; Sun: - ; ,,,0
Firestone Complete Auto Care,344703,BLDG 6214 MIRAMAR CT,,SAN DIEGO,CA,92145-0000,United States,8586931113,32.88381,-117.121086,Mon: - ; Tue: - ; Wed: - ; Thu: - ; Fri: - ; Sat: - ; Sun: - ; ,,,0
Firestone Complete Auto Care,16705,9763 MISSION GORGE RD,,SANTEE,CA,92071-3809,United States,6194499440,32.838611,-116.984575,Mon: - ; Tue: - ; Wed: - ; Thu: - ; Fri: - ; Sat: - ; Sun: - ; ,,,0
Firestone Complete Auto Care,20451,9690 REAGAN RD,,MIRA MESA,CA,92126-2633,United States,8582710260,32.912807,-117.149283,Mon: - ; Tue: - ; Wed: - ; Thu: - ; Fri: - ; Sat: - ; Sun: - ; ,,,0
Firestone Complete Auto Care,25380,435 N 2ND ST,,EL CAJON,CA,92021-6447,United States,6194402626,32.799436,-116.935631,Mon: - ; Tue: - ; Wed: - ; Thu: - ; Fri: - ; Sat: - ; Sun: - ; ,,,0
El Amigo Tires,782964,2995 Imperial Avenue,,San Diego,CA,92102-4125,United States,6196968656,32.70611,-117.1297,Mon: - ; Tue: - ; Wed: - ; Thu: - ; Fri: - ; Sat: - ; Sun: - ; ,,,0
Express Tire Auto Service Centers,785381,3112 Midway,,San Diego,CA,92110-4500,United States,6192200457,32.75053,-117.20726,Mon: - ; Tue: - ; Wed: - ; Thu: - ; Fri: - ; Sat: - ; Sun: - ; ,,,0
Express Tire Auto Service Centers,785367,820 Highland Ave,,National City,CA,91950-3512,United States,6194747071,32.67748,-117.09887,Mon: - ; Tue: - ; Wed: - ; Thu: - ; Fri: - ; Sat: - ; Sun: - ; ,,,0
Express Tire Auto Service Centers,785371,3690 Murphy Canyon Rd,,San Diego,CA,92123-4455,United States,8588743109,32.8085,-117.11641,Mon: - ; Tue: - ; Wed: - ; Thu: - ; Fri: - ; Sat: - ; Sun: - ; ,,,0
Express Tire Auto Service Centers,785380,430 Broadway,,Chula Vista,CA,91910-4304,United States,6195857266,32.63312,-117.09099,Mon: - ; Tue: - ; Wed: - ; Thu: - ; Fri: - ; Sat: - ; Sun: - ; ,,,0
Express Tire Auto Service Centers,785370,4464 Convoy Street,,San Diego,CA,92111-3708,United States,8585650524,32.82096,-117.15558,Mon: - ; Tue: - ; Wed: - ; Thu: - ; Fri: - ; Sat: - ; Sun: - ; ,,,0
Express Tire Auto Service Centers,785372,1011 Grand Ave,,San Diego,CA,92109-4179,United States,8582707605,32.79523,-117.25069,Mon: - ; Tue: - ; Wed: - ; Thu: - ; Fri: - ; Sat: - ; Sun: - ; ,,,0
Parkhouse Tire,275867,4660 Ruffner St.,,San Diego,CA,92111-2220,United States,8585658473,32.825773,-117.15777,Mon: - ; Tue: - ; Wed: - ; Thu: - ; Fri: - ; Sat: - ; Sun: - ; ,,,0
PARKHOUSE TIRE INC,336844,4660 RUFFNER ST,,SAN DIEGO,CA,92111-2220,United States,0,32.826088,-117.15781,Mon: - ; Tue: - ; Wed: - ; Thu: - ; Fri: - ; Sat: - ; Sun: - ; ,,,0
Express Tire Auto Service Centers,785349,950 Palm Ave,,Imperial Beach,CA,91932-1534,United States,6194293600,32.58431,-117.11271,Mon: - ; Tue: - ; Wed: - ; Thu: - ; Fri: - ; Sat: - ; Sun: - ; ,,,0
Lee Rollins Firestone,347032,5760 Miramar Rd.,,San Diego,CA,92121-2523,United States,8584573133,32.8768774003787,-117.185161463868,Mon: - ; Tue: - ; Wed: - ; Thu: - ; Fri: - ; Sat: - ; Sun: - ; ,,,0
Victors Automotive Center,783058,7052 Caroll Rd.,,San Diego,CA,92121-2213,United States,8585524191,32.88646,-117.16973,Mon: - ; Tue: - ; Wed: - ; Thu: - ; Fri: - ; Sat: - ; Sun: - ; ,,,0
Express Tire Auto Service Centers,785376,9135 Mission Gorge Road,,Santee,CA,92071-0000,United States,6194492155,32.83782,-116.99974,Mon: - ; Tue: - ; Wed: - ; Thu: - ; Fri: - ; Sat: - ; Sun: - ; ,,,0
Premier,MX80959,Paseo Pedregal 1151,,Tijuana,Baja California Norte,22500,United States,6646318666,32.525476,-117.112488,Mon: - ; Tue: - ; Wed: - ; Thu: - ; Fri: - ; Sat: - ; Sun: - ; ,,,0
Centro Llantero Del Noroeste / Matriz,MX81275,Jose Ma.Velasco 2440,,Tijuana,Baja California Norte,22010,United States,6646342696,32.531112,-117.01772,Mon: - ; Tue: - ; Wed: - ; Thu: - ; Fri: - ; Sat: - ; Sun: - ; ,,,0
Superllantas Tijuana,MX79838,Av. Eusebio Kino 18128,,Tijuana,Baja California Norte,22509,United States,6646243673,32.537398,-116.997582,Mon: - ; Tue: - ; Wed: - ; Thu: - ; Fri: - ; Sat: - ; Sun: - ; ,,,0
Express Tire Auto Service Centers,785373,13181 Black Mountain Road,,San Diego,CA,92129-2767,United States,8585382333,32.95767,-117.12739,Mon: - ; Tue: - ; Wed: - ; Thu: - ; Fri: - ; Sat: - ; Sun: - ; ,,,0
Firestone Complete Auto Care,2569,2651 E GAGE AVE,,HUNTINGTON PARK,CA,90255-4140,United States,3235876214,33.981645,-118.22336,Mon: - ; Tue: - ; Wed: - ; Thu: - ; Fri: - ; Sat: - ; Sun: - ; ,,,0
Firestone Complete Auto Care,11428,401 S BRAND BLVD,,GLENDALE,CA,91204-1703,United States,8182415161,34.141562,-118.255039,Mon: - ; Tue: - ; Wed: - ; Thu: - ; Fri: - ; Sat: - ; Sun: - ; ,,,0
Firestone Complete Auto Care,11657,1410 N HIGHLAND AVE,,HOLLYWOOD,CA,90028-7611,United States,3234667241,34.096535,-118.338643,Mon: - ; Tue: - ; Wed: - ; Thu: - ; Fri: - ; Sat: - ; Sun: - ; ,,,0
Firestone Complete Auto Care,356720,1975 S LA CIENEGA,,LOS ANGELES,CA,90041-1601,United States,3102871579,34.040821,-118.37684,Mon: - ; Tue: - ; Wed: - ; Thu: - ; Fri: - ; Sat: - ; Sun: - ; ,,,0
Firestone Complete Auto Care,11304,837 E MAIN ST,,ALHAMBRA,CA,91801-4055,United States,6262829184,34.099167,-118.118472,Mon: - ; Tue: - ; Wed: - ; Thu: - ; Fri: - ; Sat: - ; Sun: - ; ,,,0
Firestone Complete Auto Care,11576,1110 E COLORADO BLVD,,PASADENA,CA,91106-1403,United States,6265780351,34.145928,-118.127481,Mon: - ; Tue: - ; Wed: - ; Thu: - ; Fri: - ; Sat: - ; Sun: - ; ,,,0
Firestone Complete Auto Care,11533,4835 LANKERSHIM BLVD,,NORTH HOLLYWOOD,CA,91601-4526,United States,8187635173,34.158835,-118.370963,Mon: - ; Tue: - ; Wed: - ; Thu: - ; Fri: - ; Sat: - ; Sun: - ; ,,,0
Firestone Complete Auto Care,11088,11905 VENTURA BLVD,,STUDIO CITY,CA,91604-2607,United States,8185059950,34.142866,-118.391191,Mon: - ; Tue: - ; Wed: - ; Thu: - ; Fri: - ; Sat: - ; Sun: - ; ,,,0
Firestone Complete Auto Care,3964,9030 CECILIA ST,,DOWNEY,CA,90241-3921,United States,5628691597,33.938317,-118.120434,Mon: - ; Tue: - ; Wed: - ; Thu: - ; Fri: - ; Sat: - ; Sun: - ; ,,,0
Firestone Complete Auto Care,599611,6100 W MANCHESTER AVE,,LOS ANGELES,CA,90045-3908,United States,3106455555,33.959815,-118.391408,Mon: - ; Tue: - ; Wed: - ; Thu: - ; Fri: - ; Sat: - ; Sun: - ; ,,,0
Firestone Complete Auto Care,26093,10785 SANTA MONICA BLVD,,LOS ANGELES,CA,90025-4718,United States,3104704171,34.050788,-118.434026,Mon: - ; Tue: - ; Wed: - ; Thu: - ; Fri: - ; Sat: - ; Sun: - ; ,,,0
Firestone Complete Auto Care,2593,11230 WASHINGTON BLVD,,WHITTIER,CA,90606-3139,United States,5626920801,33.971958,-118.071747,Mon: - ; Tue: - ; Wed: - ; Thu: - ; Fri: - ; Sat: - ; Sun: - ; ,,,0
Firestone Complete Auto Care,11320,1500 S BALDWIN AVE,,ARCADIA,CA,91007-7924,United States,6264462164,34.122184,-118.055131,Mon: - ; Tue: - ; Wed: - ; Thu: - ; Fri: - ; Sat: - ; Sun: - ; ,,,0
Firestone Complete Auto Care,14710,1830 W REDONDO BEACH BLVD,,GARDENA,CA,90247-3650,United States,3103296342,33.888109,-118.310408,Mon: - ; Tue: - ; Wed: - ; Thu: - ; Fri: - ; Sat: - ; Sun: - ; ,,,0
Firestone Complete Auto Care,5126,6440 LAUREL CANYON BLVD,,NORTH HOLLYWOOD,CA,91606-1519,United States,8189802060,34.187497,-118.396464,Mon: - ; Tue: - ; Wed: - ; Thu: - ; Fri: - ; Sat: - ; Sun: - ; ,,,0
Firestone Complete Auto Care,1716,1817 LINCOLN BLVD,,SANTA MONICA,CA,90404-4505,United States,3103997171,34.013424,-118.484264,Mon: - ; Tue: - ; Wed: - ; Thu: - ; Fri: - ; Sat: - ; Sun: - ; ,,,0
Firestone Complete Auto Care,11819,1701 N SEPULVEDA BLVD,,MANHATTAN BEACH,CA,90266-5014,United States,3105458575,33.89031,-118.396093,Mon: - ; Tue: - ; Wed: - ; Thu: - ; Fri: - ; Sat: - ; Sun: - ; ,,,0
Firestone Complete Auto Care,3700,20707 AVALON BLVD,,CARSON,CA,90746-3313,United States,3103241708,33.843559,-118.2633,Mon: - ; Tue: - ; Wed: - ; Thu: - ; Fri: - ; Sat: - ; Sun: - ; ,,,0
Firestone Complete Auto Care,11711,6530 VAN NUYS BLVD,,VAN NUYS,CA,91401-1424,United States,8187865421,34.189416,-118.448729,Mon: - ; Tue: - ; Wed: - ; Thu: - ; Fri: - ; Sat: - ; Sun: - ; ,,,0
Firestone Complete Auto Care,15180,11524 SOUTH ST,,CERRITOS,CA,90703-6612,United States,5629245546,33.858349,-118.087962,Mon: - ; Tue: - ; Wed: - ; Thu: - ; Fri: - ; Sat: - ; Sun: - ; ,,,0
Firestone Complete Auto Care,3921,500 N PACIFIC COAST HWY,,REDONDO BEACH,CA,90277-2103,United States,3103792421,33.849495,-118.388653,Mon: - ; Tue: - ; Wed: - ; Thu: - ; Fri: - ; Sat: - ; Sun: - ; ,,,0
Castellons Tire,777798,1920 S San Pedro St,,Los Angeles,CA,90011-1122,United States,2137499171,34.0268732540212,-118.257852510626,Mon: - ; Tue: - ; Wed: - ; Thu: - ; Fri: - ; Sat: - ; Sun: - ; ,,,0
7 Dias Tire Co Inc,770968,1305 S. Western Ave,,Los Angeles,CA,90006-4225,United States,3237327817,34.046444,-118.30956,Mon: - ; Tue: - ; Wed: - ; Thu: - ; Fri: - ; Sat: - ; Sun: - ; ,,,0
Vernon Tire,354192,3366 Leonis Blvd.,,Vernon,CA,90058-3014,United States,3235831561,33.99997,-118.20602,Mon: - ; Tue: - ; Wed: - ; Thu: - ; Fri: - ; Sat: - ; Sun: - ; ,,,0
Gold Coast Tire Co.,661929,1471 W. Martin Luther King,,Los Angeles,CA,90062,United States,3232995660,34.01101,-118.30267,Mon: - ; Tue: - ; Wed: - ; Thu: - ; Fri: - ; Sat: - ; Sun: - ; ,,,0
American Tire Centers,783117,5206 Hollywood Blvd.,,Los Angeles,CA,90027-4909,United States,3236618473,34.10141,-118.3037,Mon: - ; Tue: - ; Wed: - ; Thu: - ; Fri: - ; Sat: - ; Sun: - ; ,,,0
Tom Finch Automotive,348551,1025 W Walnut St,,Jacksonville,IL,62650-1250,United States,2172454778,34.098098,-118.31582,Mon: - ; Tue: - ; Wed: - ; Thu: - ; Fri: - ; Sat: - ; Sun: - ; ,,,0
King's Tire and Wheel,782963,701 S. Glendale Avenue,,Glendale,CA,91205-2317,United States,8185475482,34.13853,-118.25135,Mon: - ; Tue: - ; Wed: - ; Thu: - ; Fri: - ; Sat: - ; Sun: - ; ,,,0
Davis Brothers Tires,776320,5931 W. Washington Blvd.,,Culver City,CA,90232-7324,United States,3102765932,34.03252,-118.37495,Mon: - ; Tue: - ; Wed: - ; Thu: - ; Fri: - ; Sat: - ; Sun: - ; ,,,0
Globe Tire & Motorsports,780288,2450 S La Cienega Blvd,,Los Angeles,CA,90034-2216,United States,3108396080,34.03581,-118.37748,Mon: - ; Tue: - ; Wed: - ; Thu: - ; Fri: - ; Sat: - ; Sun: - ; ,,,0
Montebello Tire Pro,281313,830 West Whittier Blvd.,,Montebello,CA,90640,United States,3237287274,34.010172,-118.108628,Mon: - ; Tue: - ; Wed: - ; Thu: - ; Fri: - ; Sat: - ; Sun: - ; ,,,0
Parkhouse Tire,266507,5960 Shull St.,,Bell Gardens,CA,90201-6235,United States,5629278333,33.954437,-118.160082,Mon: - ; Tue: - ; Wed: - ; Thu: - ; Fri: - ; Sat: - ; Sun: - ; ,,,0
PARKHOUSE TIRE INC,266493,5960 SHULL ST,,BELL GARDENS,CA,90201-6235,United States,5629278333,33.9542,-118.16012,Mon: - ; Tue: - ; Wed: - ; Thu: - ; Fri: - ; Sat: - ; Sun: - ; ,,,0
Western Tire of Burbank,290847,801 S. Victory Blvd.,,Burbank,CA,91502-2428,United States,8188422401,34.168032,-118.309655,Mon: - ; Tue: - ; Wed: - ; Thu: - ; Fri: - ; Sat: - ; Sun: - ; ,,,0
Ron's Tire and Wheel,756568,4301 Lankershim Blvd.,,N. Hollywood,CA,91602-2705,United States,8189801404,34.148319,-118.364952,Mon: - ; Tue: - ; Wed: - ; Thu: - ; Fri: - ; Sat: - ; Sun: - ; ,,,0
Tire Central,346598,125 S Pine Street,,San Gabriel,CA,91776-1551,United States,6266981182,34.09476,-118.083687,Mon: - ; Tue: - ; Wed: - ; Thu: - ; Fri: - ; Sat: - ; Sun: - ; ,,,0
K & E Tires Warehouse,784030,2307 LOMA AVE,,EL MONTE,CA,91733-2519,United States,6264530491,34.05461,-118.06919,Mon: - ; Tue: - ; Wed: - ; Thu: - ; Fri: - ; Sat: - ; Sun: - ; ,,,0
Pacific Tire Pros,773930,3862 W. Imperial Highway,,Inglewood,CA,90303-2618,United States,3106771544,33.930495,-118.341494,Mon: - ; Tue: - ; Wed: - ; Thu: - ; Fri: - ; Sat: - ; Sun: - ; ,,,0
A & M BANDAG INC,336717,9642 RUSH ST,,SOUTH EL MONTE,CA,91733-1733,United States,6264420297,34.05117,-118.05838,Mon: - ; Tue: - ; Wed: - ; Thu: - ; Fri: - ; Sat: - ; Sun: - ; ,,,0
La Canada Firestone,661961,459 Foothill Blvd.,,La Canada,CA,91011-3505,United States,8187901228,34.1990848228408,-118.188261993749,Mon: - ; Tue: - ; Wed: - ; Thu: - ; Fri: - ; Sat: - ; Sun: - ; ,,,0
California Tire & Service,784693,10950 W Pico Blvd,,Los Angeles,CA,90064-2115,United States,3102348473,34.03857,-118.43105,Mon: - ; Tue: - ; Wed: - ; Thu: - ; Fri: - ; Sat: - ; Sun: - ; ,,,0
KING'S DISCOUNT BRAKE & TIRE,782962,4007 Baldwin Ave,,El Monte,CA,91731-1750,United States,6264438937,34.08056,-118.05258,Mon: - ; Tue: - ; Wed: - ; Thu: - ; Fri: - ; Sat: - ; Sun: - ; ,,,0
GCR TIRES & SERVICE 826,385999,7801 ROSECRANS AVE,,PARAMOUNT,CA,90723-2232,United States,5625313038,33.903693,-118.163748,Mon: - ; Tue: - ; Wed: - ; Thu: - ; Fri: - ; Sat: - ; Sun: - ; ,,,0
Pacific Coast Tire & Service,784692,2445 Santa Monica Blvd,,Santa Monica,CA,90404-2038,United States,3108282555,34.03245,-118.47585,Mon: - ; Tue: - ; Wed: - ; Thu: - ; Fri: - ; Sat: - ; Sun: - ; ,,,0
Ron's Tire and Wheel,756569,12830 Sherman Way,,N. Hollywood,CA,91605-5033,United States,8187641560,34.200862,-118.412622,Mon: - ; Tue: - ; Wed: - ; Thu: - ; Fri: - ; Sat: - ; Sun: - ; ,,,0
Stokes Tire Service,757785,1117 Santa Monica Blvd.,,Santa Monica,CA,90401-3001,United States,3103930767,34.022297,-118.488327,Mon: - ; Tue: - ; Wed: - ; Thu: - ; Fri: - ; Sat: - ; Sun: - ; ,,,0
Huntington Tires Auto Center Inc,355310,511 W Huntington Drive,,Monrovia,CA,91016-3203,United States,6263037666,34.14039,-118.009802,Mon: - ; Tue: - ; Wed: - ; Thu: - ; Fri: - ; Sat: - ; Sun: - ; ,,,0
Japanese Auto Center,782965,1846 Del Amo Blvd,,Torrance,CA,90501-1366,United States,3106180777,33.84657,-118.31078,Mon: - ; Tue: - ; Wed: - ; Thu: - ; Fri: - ; Sat: - ; Sun: - ; ,,,0
Parkhouse Tire,108405,11764 Sheldon St.,,Sun Valley,CA,91352-1505,United States,8187674929,34.243256,-118.388326,Mon: - ; Tue: - ; Wed: - ; Thu: - ; Fri: - ; Sat: - ; Sun: - ; ,,,0
Performance Plus Tires,254956,3910 Cherry Ave.,,Long Beach,CA,90806,United States,5629880211,33.829165,-118.167499,Mon: - ; Tue: - ; Wed: - ; Thu: - ; Fri: - ; Sat: - ; Sun: - ; ,,,0
Firestone Complete Auto Care,7528,1502 WASHINGTON AVE,,HOUSTON,TX,77007-7750,United States,7132241733,29.767304,-95.372465,Mon: - ; Tue: - ; Wed: - ; Thu: - ; Fri: - ; Sat: - ; Sun: - ; ,,,0
Firestone Complete Auto Care,7552,5719 KIRBY DR,,HOUSTON,TX,77005-2407,United States,7135262925,29.72121,-95.418511,Mon: - ; Tue: - ; Wed: - ; Thu: - ; Fri: - ; Sat: - ; Sun: - ; ,,,0
Firestone Complete Auto Care,7536,6901 HARRISBURG BLVD,,HOUSTON,TX,77011-4627,United States,7139217166,29.736196,-95.303889,Mon: - ; Tue: - ; Wed: - ; Thu: - ; Fri: - ; Sat: - ; Sun: - ; ,,,0
Firestone Complete Auto Care,7722,5300 WESTHEIMER RD,,HOUSTON,TX,77056-5403,United States,7136236145,29.739679,-95.469457,Mon: - ; Tue: - ; Wed: - ; Thu: - ; Fri: - ; Sat: - ; Sun: - ; ,,,0
Firestone Complete Auto Care,679259,4630 DACOMA ST,,HOUSTON,TX,77092-8121,United States,7136819205,29.80677,-95.458333,Mon: - ; Tue: - ; Wed: - ; Thu: - ; Fri: - ; Sat: - ; Sun: - ; ,,,0
Firestone Complete Auto Care,12777,9413 S MAIN ST,,HOUSTON,TX,77025-4553,United States,7136612967,29.682178,-95.423882,Mon: - ; Tue: - ; Wed: - ; Thu: - ; Fri: - ; Sat: - ; Sun: - ; ,,,0
Firestone Complete Auto Care,7641,5300 BELLAIRE BLVD,,BELLAIRE,TX,77401-3904,United States,7136677411,29.705743,-95.472494,Mon: - ; Tue: - ; Wed: - ; Thu: - ; Fri: - ; Sat: - ; Sun: - ; ,,,0
Firestone Complete Auto Care,594423,2620 S VOSS RD,,HOUSTON,TX,77057-4100,United States,7137898887,29.738418,-95.500981,Mon: - ; Tue: - ; Wed: - ; Thu: - ; Fri: - ; Sat: - ; Sun: - ; ,,,0
Firestone Complete Auto Care,28215,5620 W LITTLE YORK RD,,HOUSTON,TX,77091-1123,United States,2814452678,29.86329,-95.471915,Mon: - ; Tue: - ; Wed: - ; Thu: - ; Fri: - ; Sat: - ; Sun: - ; ,,,0
Firestone Complete Auto Care,13226,302 W VAN BUREN ST,,PHOENIX,AZ,85003-1627,United States,6022586427,33.451412,-112.077748,Mon: - ; Tue: - ; Wed: - ; Thu: - ; Fri: - ; Sat: - ; Sun: - ; ,,,0
Firestone Complete Auto Care,29602,241 W OSBORN RD,,PHOENIX,AZ,85013-3942,United States,6022411893,33.487551,-112.077648,Mon: - ; Tue: - ; Wed: - ; Thu: - ; Fri: - ; Sat: - ; Sun: - ; ,,,0
Firestone Complete Auto Care,13587,5449 S CENTRAL AVE,,PHOENIX,AZ,85040-3050,United States,6022681421,33.396366,-112.073251,Mon: - ; Tue: - ; Wed: - ; Thu: - ; Fri: - ; Sat: - ; Sun: - ; ,,,0
Firestone Complete Auto Care,13315,3638 E THOMAS RD,,PHOENIX,AZ,85018-7506,United States,6029552750,33.480446,-112.003373,Mon: - ; Tue: - ; Wed: - ; Thu: - ; Fri: - ; Sat: - ; Sun: - ; ,,,0
Firestone Complete Auto Care,784303,4301 E THOMAS RD,,PHOENIX,AZ,85018-0000,United States,6028327497,33.479928,-111.988794,Mon: - ; Tue: - ; Wed: - ; Thu: - ; Fri: - ; Sat: - ; Sun: - ; ,,,0
Firestone Complete Auto Care,13412,3424 W BETHANY HOME RD,,PHOENIX,AZ,85017-1918,United States,6029731545,33.523979,-112.132242,Mon: - ; Tue: - ; Wed: - ; Thu: - ; Fri: - ; Sat: - ; Sun: - ; ,,,0
Firestone Complete Auto Care,13307,5045 W INDIAN SCHOOL RD,,PHOENIX,AZ,85031-2714,United States,6232476861,33.494872,-112.167711,Mon: - ; Tue: - ; Wed: - ; Thu: - ; Fri: - ; Sat: - ; Sun: - ; ,,,0
Firestone Complete Auto Care,679119,9529 WESTHEIMER RD,,HOUSTON,TX,77063-3369,United States,7137849600,29.737155,-95.534261,Mon: - ; Tue: - ; Wed: - ; Thu: - ; Fri: - ; Sat: - ; Sun: - ; ,,,0
Firestone Complete Auto Care,7714,9823 KATY FWY,,HOUSTON,TX,77024-1201,United States,7134642688,29.783895,-95.536985,Mon: - ; Tue: - ; Wed: - ; Thu: - ; Fri: - ; Sat: - ; Sun: - ; ,,,0
Firestone Complete Auto Care,7706,1191 EDGEBROOK DR,,HOUSTON,TX,77034-1803,United States,7139447440,29.641412,-95.242792,Mon: - ; Tue: - ; Wed: - ; Thu: - ; Fri: - ; Sat: - ; Sun: - ; ,,,0
Firestone Complete Auto Care,353236,13714 I 10 E FREEWAY,,HOUSTON,TX,77015-5929,United States,7134501849,29.770662,-95.181133,Mon: - ; Tue: - ; Wed: - ; Thu: - ; Fri: - ; Sat: - ; Sun: - ; ,,,0
Firestone Complete Auto Care,7854,14710 WALLISVILLE RD,,HOUSTON,TX,77049-4438,United States,7134557810,29.805876,-95.185144,Mon: - ; Tue: - ; Wed: - ; Thu: - ; Fri: - ; Sat: - ; Sun: - ; ,,,0
Firestone Complete Auto Care,12270,620 ALMEDA MALL,,HOUSTON,TX,77075-3512,United States,7139448741,29.624,-95.2595,Mon: - ; Tue: - ; Wed: - ; Thu: - ; Fri: - ; Sat: - ; Sun: - ; ,,,0
Firestone Complete Auto Care,679232,11318 NORTH FWY,,HOUSTON,TX,77037-1014,United States,2814484305,29.929896,-95.411361,Mon: - ; Tue: - ; Wed: - ; Thu: - ; Fri: - ; Sat: - ; Sun: - ; ,,,0
Firestone Complete Auto Care,8990,4006 FAIRMONT PKWY,,PASADENA,TX,77504-3016,United States,2814875507,29.650782,-95.184677,Mon: - ; Tue: - ; Wed: - ; Thu: - ; Fri: - ; Sat: - ; Sun: - ; ,,,0
Firestone Complete Auto Care,13560,14003 STATE HIGHWAY 249,,HOUSTON,TX,77086-2711,United States,2814450912,29.922779,-95.497742,Mon: - ; Tue: - ; Wed: - ; Thu: - ; Fri: - ; Sat: - ; Sun: - ; ,,,0
Firestone Complete Auto Care,13439,11930 WILCREST DR,,HOUSTON,TX,77031-1922,United States,2814952474,29.649213,-95.566172,Mon: - ; Tue: - ; Wed: - ; Thu: - ; Fri: - ; Sat: - ; Sun: - ; ,,,0
Firestone Complete Auto Care,317133,9530 BROADWAY ST,,PEARLAND,TX,77584-7726,United States,7133401061,29.556333,-95.368856,Mon: - ; Tue: - ; Wed: - ; Thu: - ; Fri: - ; Sat: - ; Sun: - ; ,,,0
Firestone Complete Auto Care,351022,9715 N SAM HOUSTON PKWY E,,HUMBLE,TX,77396-4482,United States,2813482507,29.935148,-95.245659,Mon: - ; Tue: - ; Wed: - ; Thu: - ; Fri: - ; Sat: - ; Sun: - ; ,,,0
Firestone Complete Auto Care,321260,5125 W SOUTHERN AVE,,LAVEEN,AZ,85339-6303,United States,6022374909,33.39199,-112.169425,Mon: - ; Tue: - ; Wed: - ; Thu: - ; Fri: - ; Sat: - ; Sun: - ; ,,,0
Firestone Complete Auto Care,784296,5015 W BASELINE RD,,LAVEEN,AZ,85339-0000,United States,6028923359,33.376912,-112.165204,Mon: - ; Tue: - ; Wed: - ; Thu: - ; Fri: - ; Sat: - ; Sun: - ; ,,,0
Firestone Complete Auto Care,784274,1839 W DUNLAP AVE,,PHOENIX,AZ,85021-0000,United States,6026269946,33.56714,-112.098847,Mon: - ; Tue: - ; Wed: - ; Thu: - ; Fri: - ; Sat: - ; Sun: - ; ,,,0
Firestone Complete Auto Care,784299,2605 S 83RD AVE,,PHOENIX,AZ,85043-0000,United States,4234329413,33.42483,-112.237949,Mon: - ; Tue: - ; Wed: - ; Thu: - ; Fri: - ; Sat: - ; Sun: - ; ,,,0
Firestone Complete Auto Care,20389,2858 W PEORIA AVE,,PHOENIX,AZ,85029-5214,United States,6028661050,33.582006,-112.12126,Mon: - ; Tue: - ; Wed: - ; Thu: - ; Fri: - ; Sat: - ; Sun: - ; ,,,0
Firestone Complete Auto Care,24929,7531 E CAMELBACK RD,,SCOTTSDALE,AZ,85251-3510,United States,4809945463,33.5022,-111.918876,Mon: - ; Tue: - ; Wed: - ; Thu: - ; Fri: - ; Sat: - ; Sun: - ; ,,,0
Firestone Complete Auto Care,20516,930 E BASELINE RD,,TEMPE,AZ,85283-1315,United States,4808316684,33.378251,-111.927062,Mon: - ; Tue: - ; Wed: - ; Thu: - ; Fri: - ; Sat: - ; Sun: - ; ,,,0
Firestone Complete Auto Care,22071,8301 W INDIAN SCHOOL RD,,PHOENIX,AZ,85037-2125,United States,6238498738,33.494273,-112.237742,Mon: - ; Tue: - ; Wed: - ; Thu: - ; Fri: - ; Sat: - ; Sun: - ; ,,,0
Firestone Complete Auto Care,11894,12433 N CAVE CREEK RD,,PHOENIX,AZ,85022-5830,United States,6029929360,33.599646,-112.037254,Mon: - ; Tue: - ; Wed: - ; Thu: - ; Fri: - ; Sat: - ; Sun: - ; ,,,0
Firestone Complete Auto Care,784287,4009 E CHANDLER BLVD,,PHOENIX,AZ,85044-0000,United States,4805358232,33.30471,-111.99603,Mon: - ; Tue: - ; Wed: - ; Thu: - ; Fri: - ; Sat: - ; Sun: - ; ,,,0
Firestone Complete Auto Care,784304,4719 E CACTUS RD,,PHOENIX,AZ,85032-0000,United States,6028421073,33.597653,-111.977936,Mon: - ; Tue: - ; Wed: - ; Thu: - ; Fri: - ; Sat: - ; Sun: - ; ,,,0
Firestone Complete Auto Care,314640,9970 W LOWER BUCKEYE RD,,TOLLESON,AZ,85353-1461,United States,6239363133,33.421116,-112.274829,Mon: - ; Tue: - ; Wed: - ; Thu: - ; Fri: - ; Sat: - ; Sun: - ; ,,,0
Firestone Complete Auto Care,317134,6944 W CHANDLER BLVD,,CHANDLER,AZ,85226-3327,United States,4807532597,33.305331,-111.962054,Mon: - ; Tue: - ; Wed: - ; Thu: - ; Fri: - ; Sat: - ; Sun: - ; ,,,0
Firestone Complete Auto Care,784272,1141 E BELL RD,,PHOENIX,AZ,85022-0000,United States,6028327738,33.63984,-112.057251,Mon: - ; Tue: - ; Wed: - ; Thu: - ; Fri: - ; Sat: - ; Sun: - ; ,,,0
Firestone Complete Auto Care,12890,2910 S DAIRY ASHFORD ST,,HOUSTON,TX,77082-2306,United States,2815311200,29.73202,-95.605867,Mon: - ; Tue: - ; Wed: - ; Thu: - ; Fri: - ; Sat: - ; Sun: - ; ,,,0
Firestone Complete Auto Care,356481,8920 W SAM HOUSTON PKWY N,,HOUSTON,TX,77040-0000,United States,2814777320,29.900293,-95.549613,Mon: - ; Tue: - ; Wed: - ; Thu: - ; Fri: - ; Sat: - ; Sun: - ; ,,,0
Firestone Complete Auto Care,305612,2908 BROADWAY ST,,PEARLAND,TX,77581-4507,United States,2819978541,29.556553,-95.265076,Mon: - ; Tue: - ; Wed: - ; Thu: - ; Fri: - ; Sat: - ; Sun: - ; ,,,0
Firestone Complete Auto Care,29211,515 MURPHY RD,,STAFFORD,TX,77477-5417,United States,2814991811,29.612301,-95.564534,Mon: - ; Tue: - ; Wed: - ; Thu: - ; Fri: - ; Sat: - ; Sun: - ; ,,,0
"Gene Williamson Tire Co, Inc",765121,4610 Canal Street,,Houston,TX,77011,United States,7139237077,29.747761,-95.32769,Mon: - ; Tue: - ; Wed: - ; Thu: - ; Fri: - ; Sat: - ; Sun: - ; ,,,0
River Oaks Tire,769938,3701 Westheimer,,Houston,TX,77027-5221,United States,7136212040,29.74112,-95.43748,Mon: - ; Tue: - ; Wed: - ; Thu: - ; Fri: - ; Sat: - ; Sun: - ; ,,,0
Pro Tire Service,321276,4319 Telephone Rd.,,Houston,TX,77087-1403,United States,7136491900,29.70243,-95.30356,Mon: - ; Tue: - ; Wed: - ; Thu: - ; Fri: - ; Sat: - ; Sun: - ; ,,,0
Southern Tire Mart,334508,9009 Glesby St. #125,,Houston,TX,77029-1301,United States,2818221818,29.78798,-95.26983,Mon: - ; Tue: - ; Wed: - ; Thu: - ; Fri: - ; Sat: - ; Sun: - ; ,,,0
Houston Texas Auto Care,780234,9413 Main St,,Houston,TX,77025-4553,United States,8323686348,29.6819978824839,-95.4239533160784,Mon: - ; Tue: - ; Wed: - ; Thu: - ; Fri: - ; Sat: - ; Sun: - ; ,,,0
Southern Tire Mart,290872,9300 Currency St.,,Houston,TX,77013-6112,United States,7136722200,29.779396,-95.262308,Mon: - ; Tue: - ; Wed: - ; Thu: - ; Fri: - ; Sat: - ; Sun: - ; ,,,0
Southern Tire Mart,782828,9252 Wallisville Road,,Houston,TX,77013-3638,United States,7136722200,29.791757481138,-95.265648011789,Mon: - ; Tue: - ; Wed: - ; Thu: - ; Fri: - ; Sat: - ; Sun: - ; ,,,0
GCR TIRES & SERVICE 632,171034,299 GELLHORN DR,,HOUSTON,TX,77013-6103,United States,7136914571,29.78542,-95.26013,Mon: - ; Tue: - ; Wed: - ; Thu: - ; Fri: - ; Sat: - ; Sun: - ; ,,,0
American Wheel and Tire,751168,11350 Northwest Frwy,,Houston,TX,77092-6516,United States,7136821085,29.82161,-95.46969,Mon: - ; Tue: - ; Wed: - ; Thu: - ; Fri: - ; Sat: - ; Sun: - ; ,,,0
Firestone Complete Auto Care,679712,311 S CONGRESS AVE,,AUSTIN,TX,78704-1200,United States,5124431782,30.258912,-97.746238,Mon: - ; Tue: - ; Wed: - ; Thu: - ; Fri: - ; Sat: - ; Sun: - ; ,,,0
Firestone Complete Auto Care,679690,1323 W BEN WHITE BLVD,,AUSTIN,TX,78704-7601,United States,5124444821,30.227466,-97.78106,Mon: - ; Tue: - ; Wed: - ; Thu: - ; Fri: - ; Sat: - ; Sun: - ; ,,,0
Firestone Complete Auto Care,679666,6401 AIRPORT BLVD,,AUSTIN,TX,78752-4215,United States,5124678017,30.327907,-97.715987,Mon: - ; Tue: - ; Wed: - ; Thu: - ; Fri: - ; Sat: - ; Sun: - ; ,,,0
Firestone Complete Auto Care,21520,6412 S IH 35,,AUSTIN,TX,78745-4523,United States,5124429388,30.192512,-97.769399,Mon: - ; Tue: - ; Wed: - ; Thu: - ; Fri: - ; Sat: - ; Sun: - ; ,,,0
Firestone Complete Auto Care,320278,7806 CLOCK TOWER DR,,AUSTIN,TX,78753-6617,United States,5123393582,30.337809,-97.694811,Mon: - ; Tue: - ; Wed: - ; Thu: - ; Fri: - ; Sat: - ; Sun: - ; ,,,0
Firestone Complete Auto Care,679674,7806 NORTHCROSS DR,,AUSTIN,TX,78757-1120,United States,5124588118,30.35708,-97.736369,Mon: - ; Tue: - ; Wed: - ; Thu: - ; Fri: - ; Sat: - ; Sun: - ; ,,,0
Firestone Complete Auto Care,285927,3609 W WILLIAM CANNON DR,,AUSTIN,TX,78749-1525,United States,5128990550,30.215015,-97.832674,Mon: - ; Tue: - ; Wed: - ; Thu: - ; Fri: - ; Sat: - ; Sun: - ; ,,,0
Firestone Complete Auto Care,304427,9900 S-IH 35 SVRD BLDG R,,AUSTIN,TX,78748-0000,United States,5122911618,30.156117,-97.791078,Mon: - ; Tue: - ; Wed: - ; Thu: - ; Fri: - ; Sat: - ; Sun: - ; ,,,0
Firestone Complete Auto Care,679585,7010 W HIGHWAY 71,,AUSTIN,TX,78735-8336,United States,5122885414,30.23528,-97.876673,Mon: - ; Tue: - ; Wed: - ; Thu: - ; Fri: - ; Sat: - ; Sun: - ; ,,,0
Firestone Complete Auto Care,352687,10515 N MOPAC EXPY,,AUSTIN,TX,78759-5324,United States,5123428270,30.392147,-97.733029,Mon: - ; Tue: - ; Wed: - ; Thu: - ; Fri: - ; Sat: - ; Sun: - ; ,,,0
Firestone Complete Auto Care,17981,3161 LANCASTER AVE,,PHILADELPHIA,PA,19104-2807,United States,2152226821,40.004705,-75.181678,Mon: - ; Tue: - ; Wed: - ; Thu: - ; Fri: - ; Sat: - ; Sun: - ; ,,,0
Firestone Complete Auto Care,22594,31 W CITY LINE AVE,,BALA CYNWYD,PA,19004-3112,United States,6106689448,39.9997,-75.229708,Mon: - ; Tue: - ; Wed: - ; Thu: - ; Fri: - ; Sat: - ; Sun: - ; ,,,0
Firestone Complete Auto Care,1317,305 E LANCASTER AVE,,WYNNEWOOD,PA,19096-1916,United States,6106496500,39.990972,-75.261718,Mon: - ; Tue: - ; Wed: - ; Thu: - ; Fri: - ; Sat: - ; Sun: - ; ,,,0
Firestone Complete Auto Care,17221,900 BLACK HORSE PIKE,,MOUNT EPHRAIM,NJ,08059-1815,United States,8564561773,39.8906,-75.08998,Mon: - ; Tue: - ; Wed: - ; Thu: - ; Fri: - ; Sat: - ; Sun: - ; ,,,0
TIRES PLUS TOTAL CAR CARE 8019,378046,660 W CUTHBERT BLVD,,WESTMONT,NJ,08108-3642,United States,8568587892,39.902344,-75.063415,Mon: - ; Tue: - ; Wed: - ; Thu: - ; Fri: - ; Sat: - ; Sun: - ; ,,,0
Firestone Complete Auto Care,283401,7320 ELGIN ST,,PHILADELPHIA,PA,19111-3818,United States,2157256550,40.052229,-75.066206,Mon: - ; Tue: - ; Wed: - ; Thu: - ; Fri: - ; Sat: - ; Sun: - ; ,,,0
TIRES PLUS TOTAL CAR CARE 8016,292788,820 BALTIMORE PIKE,,SPRINGFIELD,PA,19064-2916,United States,6103287200,39.916663,-75.334302,Mon: - ; Tue: - ; Wed: - ; Thu: - ; Fri: - ; Sat: - ; Sun: - ; ,,,0
TIRES PLUS TOTAL CAR CARE 8003,377864,900 W LANCASTER AVE,,BRYN MAWR,PA,19010-2610,United States,6105252500,40.022766,-75.320985,Mon: - ; Tue: - ; Wed: - ; Thu: - ; Fri: - ; Sat: - ; Sun: - ; ,,,0
Firestone Complete Auto Care,11932,10661 N 84TH AVE,,PEORIA,AZ,85345-6501,United States,6239794529,33.582451,-112.239636,Mon: - ; Tue: - ; Wed: - ; Thu: - ; Fri: - ; Sat: - ; Sun: - ; ,,,0
Firestone Complete Auto Care,27022,1239 W GUADALUPE RD,,MESA,AZ,85202-9101,United States,4808317857,33.364229,-111.860373,Mon: - ; Tue: - ; Wed: - ; Thu: - ; Fri: - ; Sat: - ; Sun: - ; ,,,0
Firestone Complete Auto Care,11940,3540 W BELL RD,,GLENDALE,AZ,85308-4314,United States,6029380211,33.639643,-112.135805,Mon: - ; Tue: - ; Wed: - ; Thu: - ; Fri: - ; Sat: - ; Sun: - ; ,,,0
Firestone Complete Auto Care,11959,13802 N SCOTTSDALE RD,,SCOTTSDALE,AZ,85254-3458,United States,4809984840,33.6113,-111.925894,Mon: - ; Tue: - ; Wed: - ; Thu: - ; Fri: - ; Sat: - ; Sun: - ; ,,,0
Firestone Complete Auto Care,12874,731 E UNION HILLS DR,,PHOENIX,AZ,85024-2900,United States,6029923949,33.654838,-112.063429,Mon: - ; Tue: - ; Wed: - ; Thu: - ; Fri: - ; Sat: - ; Sun: - ; ,,,0
Firestone Complete Auto Care,784285,9396 N 90TH STREET,,SCOTTSDALE,AZ,85258-0000,United States,6234329616,33.65512,-112.133958,Mon: - ; Tue: - ; Wed: - ; Thu: - ; Fri: - ; Sat: - ; Sun: - ; ,,,0
Firestone Complete Auto Care,784286,3440 W UNION HILLS RD,,PHOENIX,AZ,85027-0000,United States,6234329616,33.65512,-112.133958,Mon: - ; Tue: - ; Wed: - ; Thu: - ; Fri: - ; Sat: - ; Sun: - ; ,,,0
Community Tire Pros & Auto Repair C-8,355005,123 E Durango St.,,Phoenix,AZ,85004-2911,United States,6022508650,33.429524,-112.072333,Mon: - ; Tue: - ; Wed: - ; Thu: - ; Fri: - ; Sat: - ; Sun: - ; ,,,0
Arrowhead Tire,770970,2525 E Jefferson,,Phoenix,AZ,85034-6962,United States,6029095683,33.447511,-112.032224,Mon: - ; Tue: - ; Wed: - ; Thu: - ; Fri: - ; Sat: - ; Sun: - ; ,,,0
Community Tire Pros & Auto Repair C-4,294070,2424 E Buckeye Rd,,Phoenix,AZ,85034,United States,6022319090,33.436754,-112.029323,Mon: - ; Tue: - ; Wed: - ; Thu: - ; Fri: - ; Sat: - ; Sun: - ; ,,,0
GCR TIRES & SERVICE 825,463124,2815 N 32ND AVE,,PHOENIX,AZ,85009-1514,United States,6022729308,33.47929,-112.01102,Mon: - ; Tue: - ; Wed: - ; Thu: - ; Fri: - ; Sat: - ; Sun: - ; ,,,0
REDBURN TIRE CO,372609,3801 W CLARENDON AVE,,PHOENIX,AZ,85019-3717,United States,6022727601,33.49179,-112.14003,Mon: - ; Tue: - ; Wed: - ; Thu: - ; Fri: - ; Sat: - ; Sun: - ; ,,,0
B & D Automotive Car Care,250002,8500 Gulf Freeway,,Houston,TX,77017-5004,United States,7136441113,29.66965,-95.26413,Mon: - ; Tue: - ; Wed: - ; Thu: - ; Fri: - ; Sat: - ; Sun: - ; ,,,0
CARROLL TIRE CO,314511,7170 W 43RD ST,,HOUSTON,TX,77092-5735,United States,8006128419,29.83656,-95.50046,Mon: - ; Tue: - ; Wed: - ; Thu: - ; Fri: - ; Sat: - ; Sun: - ; ,,,0
Beasley Tire Service Inc.,776775,209 Park Place,,Kenedy,TX,78119-5380,United States,8305830470,29.893813,-95.315836,Mon: - ; Tue: - ; Wed: - ; Thu: - ; Fri: - ; Sat: - ; Sun: - ; ,,,0
Beasley Tire Service,403768,11802 Eastex Frwy.,,Houston,TX,77039-6122,United States,2814492365,29.8939,-95.31511,Mon: - ; Tue: - ; Wed: - ; Thu: - ; Fri: - ; Sat: - ; Sun: - ; ,,,0
Beasley Tire Service,235932,11802 Eastex Frwy.,,Houston,TX,77293-1556,United States,2814492365,29.8939,-95.31511,Mon: - ; Tue: - ; Wed: - ; Thu: - ; Fri: - ; Sat: - ; Sun: - ; ,,,0
TERRAPIN TIRE,303389,1922 RANKIN RD,,HOUSTON,TX,77073-5110,United States,7136889500,29.9653805207798,-95.3668415235689,Mon: - ; Tue: - ; Wed: - ; Thu: - ; Fri: - ; Sat: - ; Sun: - ; ,,,0
One Stop Car Care,778105,12578 Bellaire Blvd,,Houston,TX,77072-2206,United States,2819334789,29.7036387956074,-95.6034945782749,Mon: - ; Tue: - ; Wed: - ; Thu: - ; Fri: - ; Sat: - ; Sun: - ; ,,,0
Bercher Tire & Service,43486,1250-A Texas Parkway,,Stafford,TX,77477-6467,United States,2812610926,29.627906,-95.569673,Mon: - ; Tue: - ; Wed: - ; Thu: - ; Fri: - ; Sat: - ; Sun: - ; ,,,0
Firestone Complete Auto Care,19917,2500 W PARMER LN,,AUSTIN,TX,78727-4227,United States,5123886060,30.419063,-97.70216,Mon: - ; Tue: - ; Wed: - ; Thu: - ; Fri: - ; Sat: - ; Sun: - ; ,,,0
Firestone Complete Auto Care,357894,5145 RANCH RD 620 N BLDG E,,AUSTIN,TX,78732-0000,United States,5122665755,30.390002,-97.883712,Mon: - ; Tue: - ; Wed: - ; Thu: - ; Fri: - ; Sat: - ; Sun: - ; ,,,0
Firestone Complete Auto Care,21601,13450 N HIGHWAY 183,,AUSTIN,TX,78750-3228,United States,5123311177,30.447718,-97.790658,Mon: - ; Tue: - ; Wed: - ; Thu: - ; Fri: - ; Sat: - ; Sun: - ; ,,,0
Firestone Complete Auto Care,29548,15101 IH 35,,PFLUGERVILLE,TX,78660-3202,United States,5122529200,30.44374,-97.667434,Mon: - ; Tue: - ; Wed: - ; Thu: - ; Fri: - ; Sat: - ; Sun: - ; ,,,0
Firestone Complete Auto Care,298792,13300 N FM 620,,AUSTIN,TX,78717-1012,United States,5122571947,30.470897,-97.790831,Mon: - ; Tue: - ; Wed: - ; Thu: - ; Fri: - ; Sat: - ; Sun: - ; ,,,0
GCR TIRES & SERVICE 625,170909,2201 AIRPORT BLVD,,AUSTIN,TX,78722-1404,United States,5124783412,30.285503,-97.705238,Mon: - ; Tue: - ; Wed: - ; Thu: - ; Fri: - ; Sat: - ; Sun: - ; ,,,0
Southern Tire Mart,290871,9665 E. Highway 290,,Austin,TX,78724,United States,5124161010,30.212688,-97.728938,Mon: - ; Tue: - ; Wed: - ; Thu: - ; Fri: - ; Sat: - ; Sun: - ; ,,,0
Klingemann Car Care #1,251483,5635 Highway 290 W,,Austin,TX,78735-8805,United States,5128923737,30.236722,-97.845647,Mon: - ; Tue: - ; Wed: - ; Thu: - ; Fri: - ; Sat: - ; Sun: - ; ,,,0
GCR TIRES & SERVICE 626,55441,2939 W PECAN ST,,PFLUGERVILLE,TX,78660-3134,United States,5122517551,30.4496588830958,-97.6597122586308,Mon: - ; Tue: - ; Wed: - ; Thu: - ; Fri: - ; Sat: - ; Sun: - ; ,,,0
Youngblood Auto & Tire,760085,375 W Louis Henna Blvd.,,Austin,TX,78728-1277,United States,5127195700,30.478429794,-97.67772674,Mon: - ; Tue: - ; Wed: - ; Thu: - ; Fri: - ; Sat: - ; Sun: - ; ,,,0
Firestone Complete Auto Care,20508,476 S LENOLA RD,,MAPLE SHADE,NJ,08052-1601,United States,8568020336,39.940399,-74.967378,Mon: - ; Tue: - ; Wed: - ; Thu: - ; Fri: - ; Sat: - ; Sun: - ; ,,,0
TIRES PLUS TOTAL CAR CARE 8012,377880,1877 MARLTON PIKE E,,CHERRY HILL,NJ,08003-2013,United States,8564246494,39.90392,-74.970001,Mon: - ; Tue: - ; Wed: - ; Thu: - ; Fri: - ; Sat: - ; Sun: - ; ,,,0
TIRES PLUS TOTAL CAR CARE 8096,278633,741 BETHLEHEM PIKE,,FLOURTOWN,PA,19031-1108,United States,2158365167,40.113367,-75.214512,Mon: - ; Tue: - ; Wed: - ; Thu: - ; Fri: - ; Sat: - ; Sun: - ; ,,,0
Firestone Complete Auto Care,10499,9602 BUSTLETON AVE,,PHILADELPHIA,PA,19115-3105,United States,2156735500,40.087017,-75.035764,Mon: - ; Tue: - ; Wed: - ; Thu: - ; Fri: - ; Sat: - ; Sun: - ; ,,,0
Firestone Complete Auto Care,594997,4037 ROUTE 130,,DELRAN,NJ,08075-2415,United States,8567646970,40.01413,-74.957898,Mon: - ; Tue: - ; Wed: - ; Thu: - ; Fri: - ; Sat: - ; Sun: - ; ,,,0
Firestone Complete Auto Care,23795,1475 OLD YORK RD,,ABINGTON,PA,19001-1917,United States,2158855913,40.124322,-75.117246,Mon: - ; Tue: - ; Wed: - ; Thu: - ; Fri: - ; Sat: - ; Sun: - ; ,,,0
Firestone Complete Auto Care,21709,1375 BLACKWOOD CLEMENTON RD,,CLEMENTON,NJ,08021-5661,United States,8567821558,39.803566,-75.036145,Mon: - ; Tue: - ; Wed: - ; Thu: - ; Fri: - ; Sat: - ; Sun: - ; ,,,0
Firestone Complete Auto Care,17000,910 RT 70 & MARLTON PIKE,,MARLTON,NJ,08053-1648,United States,8564245770,39.89573,-74.943509,Mon: - ; Tue: - ; Wed: - ; Thu: - ; Fri: - ; Sat: - ; Sun: - ; ,,,0
TIRES PLUS TOTAL CAR CARE8006,377910,1500 W RIDGE PIKE,,CONSHOHOCKEN,PA,19428-1026,United States,6102792333,40.104797,-75.313347,Mon: - ; Tue: - ; Wed: - ; Thu: - ; Fri: - ; Sat: - ; Sun: - ; ,,,0
TIRES PLUS TOTAL CAR CARE 8020,378054,622 DAVISVILLE RD,,WILLOW GROVE,PA,19090-1515,United States,2156598500,40.150888,-75.106439,Mon: - ; Tue: - ; Wed: - ; Thu: - ; Fri: - ; Sat: - ; Sun: - ; ,,,0
TIRES PLUS TOTAL CAR CARE 8010,377945,152 E DEKALB PIKE,,KING OF PRUSSIA,PA,19406-2138,United States,6102659300,40.095281,-75.36091,Mon: - ; Tue: - ; Wed: - ; Thu: - ; Fri: - ; Sat: - ; Sun: - ; ,,,0
Firestone Complete Auto Care,361,5200 ROUTE 42,,BLACKWOOD,NJ,08012-1760,United States,8562286703,39.752685,-75.046164,Mon: - ; Tue: - ; Wed: - ; Thu: - ; Fri: - ; Sat: - ; Sun: - ; ,,,0
Firestone Complete Auto Care,10014,14 W GERMANTOWN PIKE,,NORRISTOWN,PA,19401-1514,United States,6102755660,40.142319,-75.313465,Mon: - ; Tue: - ; Wed: - ; Thu: - ; Fri: - ; Sat: - ; Sun: - ; ,,,0
Redburn Tire Company,440361,3801 W. Clarendon Ave.,,Phoenix,AZ,85019-3717,United States,6022727601,33.4922,-112.139931,Mon: - ; Tue: - ; Wed: - ; Thu: - ; Fri: - ; Sat: - ; Sun: - ; ,,,0
Community Tire Pros & Auto Repair C-5,294072,4139 E University Dr,,Phoenix,AZ,85034,United States,6024700677,33.421816,-111.992447,Mon: - ; Tue: - ; Wed: - ; Thu: - ; Fri: - ; Sat: - ; Sun: - ; ,,,0
Eco-Friendly Auto Center Inc,347350,1139 E. Commercial Blvd,,Oakland Park,FL,33334-3920,United States,9545811747,33.436822,-112.163297,Mon: - ; Tue: - ; Wed: - ; Thu: - ; Fri: - ; Sat: - ; Sun: - ; ,,,0
SUNSTATE EQUIPMENT CO LLC,302760,5552 E WASHINGTON ST,,PHOENIX,AZ,85034-2134,United States,6022200089,33.44615,-111.96165,Mon: - ; Tue: - ; Wed: - ; Thu: - ; Fri: - ; Sat: - ; Sun: - ; ,,,0
"Peaslee Service Center, LLC",749642,16548 Veterans Memorial Hwy.,,Kingwood,WV,26537-8034,United States,3043292117,33.377435,-112.16951,Mon: - ; Tue: - ; Wed: - ; Thu: - ; Fri: - ; Sat: - ; Sun: - ; ,,,0
Community Tire Pros & Auto Repair C-3,294068,12251 N 51st ST,,Glendale,AZ,85304,United States,6029780251,33.584132,-112.169574,Mon: - ; Tue: - ; Wed: - ; Thu: - ; Fri: - ; Sat: - ; Sun: - ; ,,,0
Community Tire Pros & Auto Repair C-2,294069,15812 North 32nd Street,,Phoenix,AZ,85032,United States,6029922830,33.6304,-112.013463,Mon: - ; Tue: - ; Wed: - ; Thu: - ; Fri: - ; Sat: - ; Sun: - ; ,,,0
Redburn Tire Company,256164,2339 N. Country Club Dr.,,Mesa,AZ,85201-1209,United States,6022880630,33.456791,-111.839599,Mon: - ; Tue: - ; Wed: - ; Thu: - ; Fri: - ; Sat: - ; Sun: - ; ,,,0
Firebird Tire,782961,22444 N 19th Ave,,Phoenix,AZ,85027-0385,United States,6235829212,33.69045,-112.10061,Mon: - ; Tue: - ; Wed: - ; Thu: - ; Fri: - ; Sat: - ; Sun: - ; ,,,0
Firestone Complete Auto Care,11797,690 DELSEA DR N,,GLASSBORO,NJ,08028-1448,United States,8568817474,39.718341,-75.113836,Mon: - ; Tue: - ; Wed: - ; Thu: - ; Fri: - ; Sat: - ; Sun: - ; ,,,0
Blatt Tire,256497,1000 Ridge Avenue,,Philadelphia,PA,19123,United States,2159225525,39.95883,-75.155024,Mon: - ; Tue: - ; Wed: - ; Thu: - ; Fri: - ; Sat: - ; Sun: - ; ,,,0
Road Mart,498033,482 S. Union Ave.,,Ozark,AL,36360-0836,United States,3347749345,39.957577,-75.205415,Mon: - ; Tue: - ; Wed: - ; Thu: - ; Fri: - ; Sat: - ; Sun: - ; ,,,0
PAUL J DOOLING TIRE CO INC,31135,2820 E TIOGA ST,,PHILADELPHIA,PA,19134-6104,United States,2154256400,39.9860399153198,-75.0939646501285,Mon: - ; Tue: - ; Wed: - ; Thu: - ; Fri: - ; Sat: - ; Sun: - ; ,,,0
SOMERSET TIRE SERVICE INC,774545,121 W CITY AVE,,BALA CYNWYD,PA,19004-3103,United States,6106680849,39.9983,-75.23381,Mon: - ; Tue: - ; Wed: - ; Thu: - ; Fri: - ; Sat: - ; Sun: - ; ,,,0
SOMERSET TIRE SERVICE,774571,3755 ARAMINGO AVE,,PHILADELPHIA,PA,19124-1001,United States,0,39.99543,-75.09231,Mon: - ; Tue: - ; Wed: - ; Thu: - ; Fri: - ; Sat: - ; Sun: - ; ,,,0
Jay's Tire Service,772165,7015 Westfield Ave,,Pennsauken,NJ,08110-2633,United States,8564884552,39.967654,-75.05074,Mon: - ; Tue: - ; Wed: - ; Thu: - ; Fri: - ; Sat: - ; Sun: - ; ,,,0
SOMERSET TIRE SERVICE,774572,776 ADAMS AVE,,PHILADELPHIA,PA,19124-2330,United States,2152890829,40.0309989699557,-75.1044955800742,Mon: - ; Tue: - ; Wed: - ; Thu: - ; Fri: - ; Sat: - ; Sun: - ; ,,,0
Odyssey Automotive,745126,3107 Wilson Rd.,,Humble,TX,77396-3634,United States,2815408473,39.972231,-75.286164,Mon: - ; Tue: - ; Wed: - ; Thu: - ; Fri: - ; Sat: - ; Sun: - ; ,,,0
Fountain Street Auto Service Inc,776762,6501 Ridge Avenue,,Philadelphia,PA,19128-2426,United States,2154876422,40.03846,-75.22268,Mon: - ; Tue: - ; Wed: - ; Thu: - ; Fri: - ; Sat: - ; Sun: - ; ,,,0
CUSTOM BANDAG INC,305374,8181 N ROUTE 130,,PENNSAUKEN,NJ,08110-1404,United States,8564861113,39.976544,-75.0323396,Mon: - ; Tue: - ; Wed: - ; Thu: - ; Fri: - ; Sat: - ; Sun: - ; ,,,0
SOMERSET TIRE SERVICE,774570,6301 FRANKFORD AVE 10,,PHILADELPHIA,PA,19135-3013,United States,2156244090,40.0278281995604,-75.0599436765716,Mon: - ; Tue: - ; Wed: - ; Thu: - ; Fri: - ; Sat: - ; Sun: - ; ,,,0
Tires Etc,330438,515 West Baltimore Pike,,Clifton Heights,PA,19018-1808,United States,6102598801,39.925679,-75.307884,Mon: - ; Tue: - ; Wed: - ; Thu: - ; Fri: - ; Sat: - ; Sun: - ; ,,,0
Royal Tire & Auto of Magnolia,648140,301 N. White Horse Pike,,Magnolia,NJ,08049-1438,United States,8567834364,39.8581441518661,-75.0298587814281,Mon: - ; Tue: - ; Wed: - ; Thu: - ; Fri: - ; Sat: - ; Sun: - ; ,,,0
Werbany Tire Town,648132,1337 N. Black Horse Pike,,Hilltop,NJ,08012-4820,United States,8562270049,39.823595,-75.06752,Mon: - ; Tue: - ; Wed: - ; Thu: - ; Fri: - ; Sat: - ; Sun: - ; ,,,0
Roadmaster Tire,591211,1670 Lynn Street,,Monroe,NC,28110,United States,7042827493,39.907108,-74.9786,Mon: - ; Tue: - ; Wed: - ; Thu: - ; Fri: - ; Sat: - ; Sun: - ; ,,,0
STS TIRE & AUTO CENTERS,774557,1731 MARLTON PIKE E,,CHERRY HILL,NJ,08003-2320,United States,8564891648,39.906164,-74.97727,Mon: - ; Tue: - ; Wed: - ; Thu: - ; Fri: - ; Sat: - ; Sun: - ; ,,,0
3J's Discount Tires,322494,523 South Chester Road,,Swarthmore,PA,19081-2304,United States,6103282850,39.8922,-75.352889,Mon: - ; Tue: - ; Wed: - ; Thu: - ; Fri: - ; Sat: - ; Sun: - ; ,,,0
Dempsey's Tire Service,318703,175 Bridgeton Pike,,Mantua,NJ,8051,United States,8564681400,39.792846,-75.173457,Mon: - ; Tue: - ; Wed: - ; Thu: - ; Fri: - ; Sat: - ; Sun: - ; ,,,0
Mill Street Tire,278826,300 N. Church St.,,Moorestown,NJ,08057-2419,United States,8562351591,39.964174,-74.953166,Mon: - ; Tue: - ; Wed: - ; Thu: - ; Fri: - ; Sat: - ; Sun: - ; ,,,0
Vecchiones Fleet Service,329785,80 Pennsylvania Ave,,Oreland,PA,19075-1199,United States,2158855029,40.115496,-75.176451,Mon: - ; Tue: - ; Wed: - ; Thu: - ; Fri: - ; Sat: - ; Sun: - ; ,,,0
Eppie's Tire,782643,9409 Bustleton Avenue,,Philadelphia,PA,19115-4301,United States,2154648200,40.0847885193435,-75.037982500439,Mon: - ; Tue: - ; Wed: - ; Thu: - ; Fri: - ; Sat: - ; Sun: - ; ,,,0
STS TIRE & AUTO CENTERS,774477,4007 ROUTE 130,,DELRAN,NJ,08075-2402,United States,8568249799,40.01371,-74.95986,Mon: - ; Tue: - ; Wed: - ; Thu: - ; Fri: - ; Sat: - ; Sun: - ; ,,,0
STS TIRE & AUTO CENTERS,774530,1424 OLD YORK RD,,ABINGTON,PA,19001-2606,United States,2158817170,40.12199,-75.11806,Mon: - ; Tue: - ; Wed: - ; Thu: - ; Fri: - ; Sat: - ; Sun: - ; ,,,0
STS TIRE & AUTO CENTERS,774469,1650 LIMEKILN PIKE,,DRESHER,PA,19025-1114,United States,0,40.1443596855604,-75.1682258220666,Mon: - ; Tue: - ; Wed: - ; Thu: - ; Fri: - ; Sat: - ; Sun: - ; ,,,0
Blatt Tire,256499,2001 Byberry Road,,Philadelphia,PA,19116,United States,2156730750,40.110897,-75.003332,Mon: - ; Tue: - ; Wed: - ; Thu: - ; Fri: - ; Sat: - ; Sun: - ; ,,,0
American Discount Tire,772166,241 Route 168,,Turnersville,NJ,08012-1467,United States,8562281100,39.768894,-75.050146,Mon: - ; Tue: - ; Wed: - ; Thu: - ; Fri: - ; Sat: - ; Sun: - ; ,,,0
STS TIRE & AUTO CENTERS,774488,306 GREENTREE RD,,SEWELL,NJ,08080-1866,United States,8562187117,39.750126027109,-75.0773466850419,Mon: - ; Tue: - ; Wed: - ; Thu: - ; Fri: - ; Sat: - ; Sun: - ; ,,,0
"Bobby Henard, Inc.",743950,308 E Cypress,,Brinkley,AR,72021-2917,United States,8707341044,39.764334,-75.305242,Mon: - ; Tue: - ; Wed: - ; Thu: - ; Fri: - ; Sat: - ; Sun: - ; ,,,0
STS TIRE & AUTO CENTERS,774497,24 W GERMANTOWN PIKE,,NORRISTOWN,PA,19401-1514,United States,7323568500,40.1434718712439,-75.3152315197984,Mon: - ; Tue: - ; Wed: - ; Thu: - ; Fri: - ; Sat: - ; Sun: - ; ,,,0
STS TIRE & AUTO CENTERS,774470,915 JAYMOR RD,,SOUTHAMPTON,PA,18966-3819,United States,2153558086,40.164933,-75.048008,Mon: - ; Tue: - ; Wed: - ; Thu: - ; Fri: - ; Sat: - ; Sun: - ; ,,,0
Firestone Complete Auto Care,6688,425 N DELAWARE ST,,INDIANAPOLIS,IN,46204-1802,United States,3176341346,39.773629,-86.154194,Mon: - ; Tue: - ; Wed: - ; Thu: - ; Fri: - ; Sat: - ; Sun: - ; ,,,0
Firestone Complete Auto Care,25208,3506 S EAST ST,,INDIANAPOLIS,IN,46227-1237,United States,3177876034,39.715174,-86.148943,Mon: - ; Tue: - ; Wed: - ; Thu: - ; Fri: - ; Sat: - ; Sun: - ; ,,,0
Firestone Complete Auto Care,6831,6522 E WASHINGTON ST,,INDIANAPOLIS,IN,46219-6633,United States,3173566301,39.771543,-86.055805,Mon: - ; Tue: - ; Wed: - ; Thu: - ; Fri: - ; Sat: - ; Sun: - ; ,,,0
Firestone Complete Auto Care,23906,5814 CRAWFORDSVILLE RD,,INDIANAPOLIS,IN,46224-3706,United States,3172433733,39.797163,-86.262511,Mon: - ; Tue: - ; Wed: - ; Thu: - ; Fri: - ; Sat: - ; Sun: - ; ,,,0
Firestone Complete Auto Care,27553,6305 N KEYSTONE AVE,,INDIANAPOLIS,IN,46220-2156,United States,3172541548,39.871267,-86.122117,Mon: - ; Tue: - ; Wed: - ; Thu: - ; Fri: - ; Sat: - ; Sun: - ; ,,,0
Firestone Complete Auto Care,28606,5002 SOUTHPORT CROSSING PL,,INDIANAPOLIS,IN,46237-8624,United States,3178823840,39.664726,-86.083625,Mon: - ; Tue: - ; Wed: - ; Thu: - ; Fri: - ; Sat: - ; Sun: - ; ,,,0
Firestone Complete Auto Care,6882,1295 US 31 N,,GREENWOOD,IN,46142-4502,United States,3178816735,39.635082,-86.126367,Mon: - ; Tue: - ; Wed: - ; Thu: - ; Fri: - ; Sat: - ; Sun: - ; ,,,0
Firestone Complete Auto Care,6858,1300 E 86 ST,,INDIANAPOLIS,IN,46240-1997,United States,3178466516,39.912577,-86.138419,Mon: - ; Tue: - ; Wed: - ; Thu: - ; Fri: - ; Sat: - ; Sun: - ; ,,,0
Firestone Complete Auto Care,23965,8583 MICHIGAN RD,,INDIANAPOLIS,IN,46268-3657,United States,3178763983,39.911352,-86.222391,Mon: - ; Tue: - ; Wed: - ; Thu: - ; Fri: - ; Sat: - ; Sun: - ; ,,,0
Firestone Complete Auto Care,15873,6020 E 82ND ST,,INDIANAPOLIS,IN,46250-4746,United States,3178499120,39.905333,-86.0644,Mon: - ; Tue: - ; Wed: - ; Thu: - ; Fri: - ; Sat: - ; Sun: - ; ,,,0
Firestone Complete Auto Care,358039,260 S STATE RD 135,,GREENWOOD,IN,46143-0000,United States,3178881478,39.611315,-86.158419,Mon: - ; Tue: - ; Wed: - ; Thu: - ; Fri: - ; Sat: - ; Sun: - ; ,,,0
TIRES PLUS TOTAL CAR CARE 7069,249565,2520 E MAIN ST,,PLAINFIELD,IN,46168-2704,United States,3178380666,39.715789,-86.362519,Mon: - ; Tue: - ; Wed: - ; Thu: - ; Fri: - ; Sat: - ; Sun: - ; ,,,0
Firestone Complete Auto Care,328241,11035 N MICHIGAN RD,,ZIONSVILLE,IN,46077-7725,United States,3177332821,39.94661,-86.239382,Mon: - ; Tue: - ; Wed: - ; Thu: - ; Fri: - ; Sat: - ; Sun: - ; ,,,0
Firestone Complete Auto Care,20753,1314 S RANGE LINE RD,,CARMEL,IN,46032-2932,United States,3178485886,39.959741,-86.12682,Mon: - ; Tue: - ; Wed: - ; Thu: - ; Fri: - ; Sat: - ; Sun: - ; ,,,0
TIRES PLUS TOTAL CAR CARE 7101,260112,531 RANGELINE RD,,CARMEL,IN,46032-1343,United States,3178468203,39.973792,-86.127043,Mon: - ; Tue: - ; Wed: - ; Thu: - ; Fri: - ; Sat: - ; Sun: - ; ,,,0
Firestone Complete Auto Care,330293,11663 FISHERS CORNER BLVD,,FISHERS,IN,46038-1804,United States,3178410624,39.959279,-86.008313,Mon: - ; Tue: - ; Wed: - ; Thu: - ; Fri: - ; Sat: - ; Sun: - ; ,,,0
All Star Tire & Auto Service,647853,534 N. Capitol Ave.,,Indianapolis,IN,46204-1204,United States,3172690500,39.77528,-86.16191,Mon: - ; Tue: - ; Wed: - ; Thu: - ; Fri: - ; Sat: - ; Sun: - ; ,,,0
BAUER BUILT TIRE & SERVICE,82872,"5719 Kopetsky Dr., Suite A",,Indianapolis,IN,46217-9285,United States,3177869223,39.683549,-86.191489,Mon: - ; Tue: - ; Wed: - ; Thu: - ; Fri: - ; Sat: - ; Sun: - ; ,,,0
Huelsman Automotive Inc.,744621,10 W. Franklin St.,,Chickasaw,OH,45826-9998,United States,4199254711,39.867877,-86.122339,Mon: - ; Tue: - ; Wed: - ; Thu: - ; Fri: - ; Sat: - ; Sun: - ; ,,,0
Neal Tire & Auto Service,321562,9465 Counselors Row Suite 112,,Indianapolis,IN,46240-3816,United States,2178493331,39.92489,-86.10055,Mon: - ; Tue: - ; Wed: - ; Thu: - ; Fri: - ; Sat: - ; Sun: - ; ,,,0
Firestone Complete Auto Care,7285,1720 GREENVILLE AVE,,DALLAS,TX,75206-7417,United States,2148215188,32.812157,-96.770191,Mon: - ; Tue: - ; Wed: - ; Thu: - ; Fri: - ; Sat: - ; Sun: - ; ,,,0
Firestone Complete Auto Care,7226,4370 LOVERS LN,,DALLAS,TX,75225-6921,United States,2143634316,32.851281,-96.810054,Mon: - ; Tue: - ; Wed: - ; Thu: - ; Fri: - ; Sat: - ; Sun: - ; ,,,0
Firestone Complete Auto Care,19259,6615 E NORTHWEST HWY,,DALLAS,TX,75231-8011,United States,2143618423,32.855909,-96.745171,Mon: - ; Tue: - ; Wed: - ; Thu: - ; Fri: - ; Sat: - ; Sun: - ; ,,,0
Firestone Complete Auto Care,7382,10502 GARLAND RD,,DALLAS,TX,75218-2637,United States,2143283217,32.843357,-96.690288,Mon: - ; Tue: - ; Wed: - ; Thu: - ; Fri: - ; Sat: - ; Sun: - ; ,,,0
Firestone Complete Auto Care,20079,3720 W CAMP WISDOM RD,,DALLAS,TX,75237-2510,United States,9722963235,32.661935,-96.880418,Mon: - ; Tue: - ; Wed: - ; Thu: - ; Fri: - ; Sat: - ; Sun: - ; ,,,0
Firestone Complete Auto Care,19313,9070 FOREST LN,,DALLAS,TX,75243-4115,United States,2143401122,32.909046,-96.748235,Mon: - ; Tue: - ; Wed: - ; Thu: - ; Fri: - ; Sat: - ; Sun: - ; ,,,0
Firestone Complete Auto Care,17183,3501 GUS THOMASON,,MESQUITE,TX,75150-3699,United States,9722707693,32.812768,-96.634939,Mon: - ; Tue: - ; Wed: - ; Thu: - ; Fri: - ; Sat: - ; Sun: - ; ,,,0
Firestone Complete Auto Care,7447,11888 MARSH LANE,,DALLAS,TX,75234-8060,United States,9722417651,32.910862,-96.855944,Mon: - ; Tue: - ; Wed: - ; Thu: - ; Fri: - ; Sat: - ; Sun: - ; ,,,0
Firestone Complete Auto Care,18643,210 E CAMP WISDOM RD,,DUNCANVILLE,TX,75116-2704,United States,9722988971,32.661836,-96.903777,Mon: - ; Tue: - ; Wed: - ; Thu: - ; Fri: - ; Sat: - ; Sun: - ; ,,,0
Firestone Complete Auto Care,19984,903 W CENTERVILLE RD,,GARLAND,TX,75041-5824,United States,9722706483,32.859621,-96.644517,Mon: - ; Tue: - ; Wed: - ; Thu: - ; Fri: - ; Sat: - ; Sun: - ; ,,,0
Firestone Complete Auto Care,10588,2221 N GALLOWAY AVE,,MESQUITE,TX,75150-5700,United States,9722888522,32.795991,-96.611826,Mon: - ; Tue: - ; Wed: - ; Thu: - ; Fri: - ; Sat: - ; Sun: - ; ,,,0
Firestone Complete Auto Care,26492,14010 MONTFORT DR,,DALLAS,TX,75240-4308,United States,9724581717,32.938884,-96.813839,Mon: - ; Tue: - ; Wed: - ; Thu: - ; Fri: - ; Sat: - ; Sun: - ; ,,,0
Firestone Complete Auto Care,679011,7831 SPRING VALLEY RD,,DALLAS,TX,75254-2841,United States,9723865100,32.939981,-96.770619,Mon: - ; Tue: - ; Wed: - ; Thu: - ; Fri: - ; Sat: - ; Sun: - ; ,,,0
Firestone Complete Auto Care,29319,4570 W BUCKINGHAM RD,,GARLAND,TX,75042-4514,United States,9722350543,32.931205,-96.701841,Mon: - ; Tue: - ; Wed: - ; Thu: - ; Fri: - ; Sat: - ; Sun: - ; ,,,0
Firestone Complete Auto Care,26425,5410 N MACARTHUR BLVD,,IRVING,TX,75038-3103,United States,9725500122,32.883902,-96.964041,Mon: - ; Tue: - ; Wed: - ; Thu: - ; Fri: - ; Sat: - ; Sun: - ; ,,,0
Firestone Complete Auto Care,20257,2401 N BELT LINE RD,,IRVING,TX,75062-5115,United States,9726591631,32.840831,-96.993489,Mon: - ; Tue: - ; Wed: - ; Thu: - ; Fri: - ; Sat: - ; Sun: - ; ,,,0
Firestone Complete Auto Care,21997,1001 N BECKLEY AVE,,DESOTO,TX,75115-4261,United States,9722282173,32.599924,-96.855538,Mon: - ; Tue: - ; Wed: - ; Thu: - ; Fri: - ; Sat: - ; Sun: - ; ,,,0
Firestone Complete Auto Care,22756,7550 N MACARTHUR BLVD,,IRVING,TX,75063-7510,United States,9725068585,32.909199,-96.958595,Mon: - ; Tue: - ; Wed: - ; Thu: - ; Fri: - ; Sat: - ; Sun: - ; ,,,0
Firestone Complete Auto Care,21431,1005 S JOSEY LN,,CARROLLTON,TX,75006-7600,United States,9724161155,32.953009,-96.89015,Mon: - ; Tue: - ; Wed: - ; Thu: - ; Fri: - ; Sat: - ; Sun: - ; ,,,0
Firestone Complete Auto Care,29300,1325 W BUCKINGHAM RD,,GARLAND,TX,75040-4535,United States,9725306231,32.931135,-96.647362,Mon: - ; Tue: - ; Wed: - ; Thu: - ; Fri: - ; Sat: - ; Sun: - ; ,,,0
Firestone Complete Auto Care,9199,1321 W CAMPBELL RD,,RICHARDSON,TX,75080-2815,United States,9726802996,32.978124,-96.765334,Mon: - ; Tue: - ; Wed: - ; Thu: - ; Fri: - ; Sat: - ; Sun: - ; ,,,0
Firestone Complete Auto Care,4561,17415 PRESTON RD,,DALLAS,TX,75252-5729,United States,9723808831,32.990408,-96.8017,Mon: - ; Tue: - ; Wed: - ; Thu: - ; Fri: - ; Sat: - ; Sun: - ; ,,,0
Firestone Complete Auto Care,9164,2631 MARSH LN,,CARROLLTON,TX,75007-5927,United States,9724161280,32.988877,-96.854858,Mon: - ; Tue: - ; Wed: - ; Thu: - ; Fri: - ; Sat: - ; Sun: - ; ,,,0
Firestone Complete Auto Care,9954,3443 W CAMPBELL RD,,GARLAND,TX,75044-8145,United States,9725305322,32.973281,-96.681538,Mon: - ; Tue: - ; Wed: - ; Thu: - ; Fri: - ; Sat: - ; Sun: - ; ,,,0
Firestone Complete Auto Care,10146,2540-4 OLD DENTON RD,,CARROLLTON,TX,75006-1352,United States,9722451512,32.981189,-96.909789,Mon: - ; Tue: - ; Wed: - ; Thu: - ; Fri: - ; Sat: - ; Sun: - ; ,,,0
Firestone Complete Auto Care,9989,19021 MIDWAY RD,,DALLAS,TX,75287-2632,United States,9723068988,33.011308,-96.843772,Mon: - ; Tue: - ; Wed: - ; Thu: - ; Fri: - ; Sat: - ; Sun: - ; ,,,0
Southern Tire Mart,291089,610 W. Mockingbird Ln.,,Dallas,TX,75247-6026,United States,2146317990,32.808537,-96.873256,Mon: - ; Tue: - ; Wed: - ; Thu: - ; Fri: - ; Sat: - ; Sun: - ; ,,,0
Southern Tire Mart,291088,5051 Sharp St.,,Dallas,TX,75247-6017,United States,2146317900,32.808544,-96.873459,Mon: - ; Tue: - ; Wed: - ; Thu: - ; Fri: - ; Sat: - ; Sun: - ; ,,,0
SOUTHERN TIRE MART,336851,816 W MOCKINGBIRD LN,,DALLAS,TX,75247-6012,United States,0,32.81257,-96.87357,Mon: - ; Tue: - ; Wed: - ; Thu: - ; Fri: - ; Sat: - ; Sun: - ; ,,,0
GCR TIRES & SERVICE 601,170925,3034 E GRAUWYLER RD,,IRVING,TX,75061-3421,United States,9724386104,32.832349,-96.896878,Mon: - ; Tue: - ; Wed: - ; Thu: - ; Fri: - ; Sat: - ; Sun: - ; ,,,0
Will's Discount Tire,778016,1428 E Irving Blvd.,,Irving,TX,75060-4309,United States,2148598131,32.808,-96.92824,Mon: - ; Tue: - ; Wed: - ; Thu: - ; Fri: - ; Sat: - ; Sun: - ; ,,,0
Will's Discount Tire,778017,1204 E Shady Grove Rd,,Irving,TX,75060-6220,United States,2148598131,32.80068,-96.93221,Mon: - ; Tue: - ; Wed: - ; Thu: - ; Fri: - ; Sat: - ; Sun: - ; ,,,0
"Star Tire Sales & Service, Inc.",752318,10952 Harry Hines Blvd.,,Dallas,TX,75220-1316,United States,2143575400,32.879299,-96.884323,Mon: - ; Tue: - ; Wed: - ; Thu: - ; Fri: - ; Sat: - ; Sun: - ; ,,,0
CARROLL TIRE CO,314519,4130 PORT BLVD,,DALLAS,TX,75241-7634,United States,8004421629,32.64924,-96.75668,Mon: - ; Tue: - ; Wed: - ; Thu: - ; Fri: - ; Sat: - ; Sun: - ; ,,,0
Hot Wheels Complete Auto Care,776368,2420 W. Miller Rd.,,Garland,TX,75041-0000,United States,9728406666,32.89409,-96.66517,Mon: - ; Tue: - ; Wed: - ; Thu: - ; Fri: - ; Sat: - ; Sun: - ; ,,,0
Sami & Bob Automotive,329587,120 E. Davis,,Mesquite,TX,75149-4623,United States,9722880200,32.76571,-96.59812,Mon: - ; Tue: - ; Wed: - ; Thu: - ; Fri: - ; Sat: - ; Sun: - ; ,,,0
Quality Tire & Service,767690,1401 N Dallas Ave,,Lancaster,TX,75134-3261,United States,9722278933,32.605465,-96.759651,Mon: - ; Tue: - ; Wed: - ; Thu: - ; Fri: - ; Sat: - ; Sun: - ; ,,,0
WHEEL WORKS 8208,117005,802 S 1ST ST,,SAN JOSE,CA,95110-3122,United States,4082975700,37.324027,-121.881526,Mon: - ; Tue: - ; Wed: - ; Thu: - ; Fri: - ; Sat: - ; Sun: - ; ,,,0
WHEEL WORKS 8234,240722,1033 THE ALAMEDA,,SAN JOSE,CA,95126-3142,United States,4089719900,37.331644,-121.909896,Mon: - ; Tue: - ; Wed: - ; Thu: - ; Fri: - ; Sat: - ; Sun: - ; ,,,0
WHEEL WORKS  8204,117358,47 S CAPITOL AVE,,SAN JOSE,CA,95127-2839,United States,4089267200,37.36169,-121.834819,Mon: - ; Tue: - ; Wed: - ; Thu: - ; Fri: - ; Sat: - ; Sun: - ; ,,,0
Firestone Complete Auto Care,22845,1895 TULLY RD,,SAN JOSE,CA,95122-1843,United States,4089261616,37.323853,-121.823835,Mon: - ; Tue: - ; Wed: - ; Thu: - ; Fri: - ; Sat: - ; Sun: - ; ,,,0
WHEEL WORKS 8233,241420,1905 TULLY RD,,SAN JOSE,CA,95122-1844,United States,4082587200,37.324055,-121.823539,Mon: - ; Tue: - ; Wed: - ; Thu: - ; Fri: - ; Sat: - ; Sun: - ; ,,,0
WHEEL WORKS  8207,117706,2955 S KING RD,,SAN JOSE,CA,95122-1500,United States,4082708400,37.310817,-121.814214,Mon: - ; Tue: - ; Wed: - ; Thu: - ; Fri: - ; Sat: - ; Sun: - ; ,,,0
WHEEL WORKS  8210,118869,3510 PEARL AVE,,SAN JOSE,CA,95136-1524,United States,4087232500,37.273782,-121.869712,Mon: - ; Tue: - ; Wed: - ; Thu: - ; Fri: - ; Sat: - ; Sun: - ; ,,,0
WHEEL WORKS  8211,119407,350 KIELY BLVD,,SAN JOSE,CA,95129-1362,United States,4082464400,37.321214,-121.975548,Mon: - ; Tue: - ; Wed: - ; Thu: - ; Fri: - ; Sat: - ; Sun: - ; ,,,0
Firestone Complete Auto Care,598763,2120 WINCHESTER BLVD,,CAMPBELL,CA,95008-3427,United States,4088719042,37.285234,-121.949813,Mon: - ; Tue: - ; Wed: - ; Thu: - ; Fri: - ; Sat: - ; Sun: - ; ,,,0
Firestone Complete Auto Care,15911,1379 S PARK VICTORIA DR,,MILPITAS,CA,95035-6976,United States,4089453911,37.416958,-121.875381,Mon: - ; Tue: - ; Wed: - ; Thu: - ; Fri: - ; Sat: - ; Sun: - ; ,,,0
Firestone Complete Auto Care,12882,3161 EL CAMINO REAL,,SANTA CLARA,CA,95051-2818,United States,4082439644,37.352437,-121.984647,Mon: - ; Tue: - ; Wed: - ; Thu: - ; Fri: - ; Sat: - ; Sun: - ; ,,,0
AER SALES LP,766119,1605 SURVEYOR BLVD,,CARROLLTON,TX,75006-5103,United States,9724184884,32.959,-96.84742,Mon: - ; Tue: - ; Wed: - ; Thu: - ; Fri: - ; Sat: - ; Sun: - ; ,,,0
Texasland Tire,767206,825 South MacArthur Blvd.,,Coppell,TX,75019-4213,United States,9723062326,32.95076,-96.958534,Mon: - ; Tue: - ; Wed: - ; Thu: - ; Fri: - ; Sat: - ; Sun: - ; ,,,0
Carpenter Brothers Tire Service,610038,7006 E. Marshville Blvd.,,Marshville,NC,28103-1169,United States,7046245210,32.590132,-96.94233,Mon: - ; Tue: - ; Wed: - ; Thu: - ; Fri: - ; Sat: - ; Sun: - ; ,,,0
Rosemeade Automotive,765529,3680 Rosemeade Pkwy,,Dallas,TX,75287-2301,United States,9723062326,33.010722,-96.847607,Mon: - ; Tue: - ; Wed: - ; Thu: - ; Fri: - ; Sat: - ; Sun: - ; ,,,0
Firestone Complete Auto Care,22489,70 STATE HWY RT 139,,JERSEY CITY,NJ,07306-3527,United States,2017954543,40.736548,-74.058045,Mon: - ; Tue: - ; Wed: - ; Thu: - ; Fri: - ; Sat: - ; Sun: - ; ,,,0
Firestone Complete Auto Care,930,1750 BEDFORD AVE,,BROOKLYN,NY,11225-3327,United States,7182846000,40.66352,-73.957217,Mon: - ; Tue: - ; Wed: - ; Thu: - ; Fri: - ; Sat: - ; Sun: - ; ,,,0
Firestone Complete Auto Care,24147,2 ANDERSON AVE,,FAIRVIEW,NJ,07022-2102,United States,2019455616,40.810331,-74.000691,Mon: - ; Tue: - ; Wed: - ; Thu: - ; Fri: - ; Sat: - ; Sun: - ; ,,,0
Firestone Complete Auto Care,19755,372 BROADWAY # 374,,BAYONNE,NJ,07002-3624,United States,2014370200,40.65981,-74.121707,Mon: - ; Tue: - ; Wed: - ; Thu: - ; Fri: - ; Sat: - ; Sun: - ; ,,,0
Firestone Complete Auto Care,19577,1767 FOREST AVE,,STATEN ISLAND,NY,10303-2107,United States,7184482266,40.62503,-74.147545,Mon: - ; Tue: - ; Wed: - ; Thu: - ; Fri: - ; Sat: - ; Sun: - ; ,,,0
Firestone Complete Auto Care,12645,1501 MISSION ST,,SAN FRANCISCO,CA,94103-2512,United States,4156214650,37.774279,-122.417184,Mon: - ; Tue: - ; Wed: - ; Thu: - ; Fri: - ; Sat: - ; Sun: - ; ,,,0
WHEEL WORKS 8215,120383,1499 FRANKLIN ST,,SAN FRANCISCO,CA,94109-5447,United States,4153462300,37.78781,-122.423506,Mon: - ; Tue: - ; Wed: - ; Thu: - ; Fri: - ; Sat: - ; Sun: - ; ,,,0
Firestone Complete Auto Care,23183,1200 LARKIN ST,,SAN FRANCISCO,CA,94109-4716,United States,4156733441,37.788911,-122.418658,Mon: - ; Tue: - ; Wed: - ; Thu: - ; Fri: - ; Sat: - ; Sun: - ; ,,,0
Firestone Complete Auto Care,12637,2800 GEARY BLVD,,SAN FRANCISCO,CA,94118-3408,United States,4155673311,37.782343,-122.449097,Mon: - ; Tue: - ; Wed: - ; Thu: - ; Fri: - ; Sat: - ; Sun: - ; ,,,0
WHEEL WORKS 8239,240715,5 SKYLINE PLZ,,DALY CITY,CA,94015-3822,United States,6509946400,37.683186,-122.488119,Mon: - ; Tue: - ; Wed: - ; Thu: - ; Fri: - ; Sat: - ; Sun: - ; ,,,0
Firestone Complete Auto Care,23221,4 SERRAMONTE CTR,,DALY CITY,CA,94015-2345,United States,6509941500,37.674008,-122.470722,Mon: - ; Tue: - ; Wed: - ; Thu: - ; Fri: - ; Sat: - ; Sun: - ; ,,,0
Firestone Complete Auto Care,23213,2850 BROADWAY,,OAKLAND,CA,94611-5709,United States,5104510355,37.817105,-122.26313,Mon: - ; Tue: - ; Wed: - ; Thu: - ; Fri: - ; Sat: - ; Sun: - ; ,,,0
WHEEL WORKS 8245,240725,1800 PARK BLVD,,OAKLAND,CA,94606-1824,United States,5108351800,37.799305,-122.250742,Mon: - ; Tue: - ; Wed: - ; Thu: - ; Fri: - ; Sat: - ; Sun: - ; ,,,0
Firestone Complete Auto Care,12599,4238 BROADWAY,,OAKLAND,CA,94611-5130,United States,5106539680,37.830598,-122.254711,Mon: - ; Tue: - ; Wed: - ; Thu: - ; Fri: - ; Sat: - ; Sun: - ; ,,,0
WHEEL WORKS  8202,117323,1460 WHITE OAKS RD,,CAMPBELL,CA,95008-6751,United States,4083718100,37.266602,-121.948094,Mon: - ; Tue: - ; Wed: - ; Thu: - ; Fri: - ; Sat: - ; Sun: - ; ,,,0
WHEEL WORKS  8206,117684,5759 WINFIELD BLVD,,SAN JOSE,CA,95123-2404,United States,4082248700,37.247999,-121.86726,Mon: - ; Tue: - ; Wed: - ; Thu: - ; Fri: - ; Sat: - ; Sun: - ; ,,,0
WHEEL WORKS  8209,118761,18522 PROSPECT RD,,SARATOGA,CA,95070-3651,United States,4082552800,37.292162,-121.995824,Mon: - ; Tue: - ; Wed: - ; Thu: - ; Fri: - ; Sat: - ; Sun: - ; ,,,0
WHEEL WORKS 8212,119628,15553 LOS GATOS BLVD,,LOS GATOS,CA,95032-2503,United States,4083566181,37.242785,-121.959739,Mon: - ; Tue: - ; Wed: - ; Thu: - ; Fri: - ; Sat: - ; Sun: - ; ,,,0
Firestone Complete Auto Care,23574,922 W EL CAMINO REAL,,SUNNYVALE,CA,94087-1155,United States,4087379900,37.371236,-122.045898,Mon: - ; Tue: - ; Wed: - ; Thu: - ; Fri: - ; Sat: - ; Sun: - ; ,,,0
WHEEL WORKS  8214,120332,1291 W EL CAMINO REAL,,SUNNYVALE,CA,94087-1028,United States,6509691700,37.375371,-122.059933,Mon: - ; Tue: - ; Wed: - ; Thu: - ; Fri: - ; Sat: - ; Sun: - ; ,,,0
WHEEL WORKS 8218,122173,555 SHOWERS DR,,MOUNTAIN VIEW,CA,94040-1432,United States,6509612800,37.401277,-122.107926,Mon: - ; Tue: - ; Wed: - ; Thu: - ; Fri: - ; Sat: - ; Sun: - ; ,,,0
WHEEL WORKS 8213,120324,40975 ALBRAE ST,,FREMONT,CA,94538-2486,United States,5106598100,37.518252,-121.981873,Mon: - ; Tue: - ; Wed: - ; Thu: - ; Fri: - ; Sat: - ; Sun: - ; ,,,0
Firestone Complete Auto Care,12823,40861 FREMONT BLVD,,FREMONT,CA,94538-4306,United States,5106575575,37.534242,-121.961671,Mon: - ; Tue: - ; Wed: - ; Thu: - ; Fri: - ; Sat: - ; Sun: - ; ,,,0
Firestone Complete Auto Care,15458,5795 MOWRY AVE,,NEWARK,CA,94560-5002,United States,5107910495,37.527511,-122.005747,Mon: - ; Tue: - ; Wed: - ; Thu: - ; Fri: - ; Sat: - ; Sun: - ; ,,,0
WHEEL WORKS 8238,240720,39270 FREMONT BLVD,,FREMONT,CA,94538-1318,United States,5107978900,37.546914,-121.984891,Mon: - ; Tue: - ; Wed: - ; Thu: - ; Fri: - ; Sat: - ; Sun: - ; ,,,0
Bruce's Tire,330106,1315 North 10th Street,,San Jose,CA,95112-2804,United States,4082951742,37.364553,-121.8987,Mon: - ; Tue: - ; Wed: - ; Thu: - ; Fri: - ; Sat: - ; Sun: - ; ,,,0
GCR TIRES & SERVICE 854,350323,398 E GISH RD,,SAN JOSE,CA,95112-4301,United States,4083501600,37.367601,-121.902535,Mon: - ; Tue: - ; Wed: - ; Thu: - ; Fri: - ; Sat: - ; Sun: - ; ,,,0
TIRE OUTLET STORE,360218,2240 ALUM ROCK AVE,,SAN JOSE,CA,95116-2019,United States,4082581639,37.357559,-121.844654,Mon: - ; Tue: - ; Wed: - ; Thu: - ; Fri: - ; Sat: - ; Sun: - ; ,,,0
Hankook Tire,778356,2517 El Camino Real,,Santa Clara,CA,95051-3008,United States,4089858473,37.35293,-121.97181,Mon: - ; Tue: - ; Wed: - ; Thu: - ; Fri: - ; Sat: - ; Sun: - ; ,,,0
Firestone Complete Auto Care,892,15419 NORTHERN BLVD,,FLUSHING,NY,11354-5029,United States,7183530300,40.764685,-73.810817,Mon: - ; Tue: - ; Wed: - ; Thu: - ; Fri: - ; Sat: - ; Sun: - ; ,,,0
Firestone Complete Auto Care,20486,2561 HYLAN BLVD,,STATEN ISLAND,NY,10306-4341,United States,7189797300,40.569155,-74.111169,Mon: - ; Tue: - ; Wed: - ; Thu: - ; Fri: - ; Sat: - ; Sun: - ; ,,,0
Firestone Complete Auto Care,16578,185 CENTRAL AVE,,ORANGE,NJ,07050-3406,United States,9736779494,40.765081,-74.230691,Mon: - ; Tue: - ; Wed: - ; Thu: - ; Fri: - ; Sat: - ; Sun: - ; ,,,0
Firestone Complete Auto Care,1031,232 BLOOMFIELD AVE,,MONTCLAIR,NJ,07042-4702,United States,9737447600,40.809584,-74.212532,Mon: - ; Tue: - ; Wed: - ; Thu: - ; Fri: - ; Sat: - ; Sun: - ; ,,,0
Firestone Complete Auto Care,1015,541 RIVER ST,,HACKENSACK,NJ,07601-5934,United States,2014877023,40.895683,-74.038573,Mon: - ; Tue: - ; Wed: - ; Thu: - ; Fri: - ; Sat: - ; Sun: - ; ,,,0
Firestone Complete Auto Care,22403,529 MARKET ST,,SADDLE BROOK,NJ,07663-5930,United States,2013682866,40.897562,-74.1018,Mon: - ; Tue: - ; Wed: - ; Thu: - ; Fri: - ; Sat: - ; Sun: - ; ,,,0
Firestone Complete Auto Care,19763,3540 BOSTON POST RD,,BRONX,NY,10469-2517,United States,7188822700,40.877707,-73.84501,Mon: - ; Tue: - ; Wed: - ; Thu: - ; Fri: - ; Sat: - ; Sun: - ; ,,,0
Firestone Complete Auto Care,599506,280 BROADWAY,,ELMWOOD PARK,NJ,07407-3527,United States,2014758056,40.921169,-74.11732,Mon: - ; Tue: - ; Wed: - ; Thu: - ; Fri: - ; Sat: - ; Sun: - ; ,,,0
SOMERSET TIRE SERVICE INC 541,774574,725 NEW JERSEY 440,,JERSEY CITY,NJ,07304-0000,United States,2014339193,40.71535,-74.05547,Mon: - ; Tue: - ; Wed: - ; Thu: - ; Fri: - ; Sat: - ; Sun: - ; ,,,0
Royal Tire,493279,619 N. 6th Ave.,,Virginia,MN,55792-2305,United States,2187415145,40.733964,-74.062979,Mon: - ; Tue: - ; Wed: - ; Thu: - ; Fri: - ; Sat: - ; Sun: - ; ,,,0
SOMERSET TIRE SERVICE INC,774583,2401 03 KENNEDY BLVD,,NORTH BERGEN,NJ,07047-2021,United States,2018662686,40.770433,-74.038288,Mon: - ; Tue: - ; Wed: - ; Thu: - ; Fri: - ; Sat: - ; Sun: - ; ,,,0
Marbren Tire Company,647977,32-16 Hunters Point Ave.,,Long Island City,NY,11101-2526,United States,7187840404,40.7367147681214,-73.9282929790924,Mon: - ; Tue: - ; Wed: - ; Thu: - ; Fri: - ; Sat: - ; Sun: - ; ,,,0
Firestone Complete Auto Care,762405,10733 SAN PABLO AVE,,EL CERRITO,CA,94530-2621,United States,5105596936,37.912776,-122.309686,Mon: - ; Tue: - ; Wed: - ; Thu: - ; Fri: - ; Sat: - ; Sun: - ; ,,,0
Firestone Complete Auto Care,12785,1201 EL CAMINO REAL,,MILLBRAE,CA,94030-1408,United States,6508719096,37.607705,-122.399006,Mon: - ; Tue: - ; Wed: - ; Thu: - ; Fri: - ; Sat: - ; Sun: - ; ,,,0
Firestone Complete Auto Care,267360,1001 IRWIN ST,,SAN RAFAEL,CA,94901-3319,United States,4154605169,37.972336,-122.520734,Mon: - ; Tue: - ; Wed: - ; Thu: - ; Fri: - ; Sat: - ; Sun: - ; ,,,0
Firestone Complete Auto Care,29904,1001 HILLTOP MALL RD,,RICHMOND,CA,94806-1906,United States,5102224422,37.980793,-122.332558,Mon: - ; Tue: - ; Wed: - ; Thu: - ; Fri: - ; Sat: - ; Sun: - ; ,,,0
WHEEL WORKS 8216,122149,521 S B ST,,SAN MATEO,CA,94401-4119,United States,6503476900,37.563995,-122.320739,Mon: - ; Tue: - ; Wed: - ; Thu: - ; Fri: - ; Sat: - ; Sun: - ; ,,,0
WHEEL WORKS 8235,240711,1251 TARA HILLS DR,,PINOLE,CA,94564-2511,United States,5109649800,37.995769,-122.305117,Mon: - ; Tue: - ; Wed: - ; Thu: - ; Fri: - ; Sat: - ; Sun: - ; ,,,0
"Robert's Tires & Wheels, Inc.",772097,986 Harrison St,,San Francisco,CA,94107-1009,United States,4152439382,37.777709,-122.403923,Mon: - ; Tue: - ; Wed: - ; Thu: - ; Fri: - ; Sat: - ; Sun: - ; ,,,0
Rolling Stock,780280,601 Bayshore Blvd.,,San Francisco,CA,94124-1901,United States,4155589121,37.73786,-122.40631,Mon: - ; Tue: - ; Wed: - ; Thu: - ; Fri: - ; Sat: - ; Sun: - ; ,,,0
MARITECH EQUIPMENT PARTS & SRV,332723,2585 BUNA ST BLDG 99,,OAKLAND,CA,94607-5107,United States,5104331822,37.8195981865097,-122.305245054729,Mon: - ; Tue: - ; Wed: - ; Thu: - ; Fri: - ; Sat: - ; Sun: - ; ,,,0
Sanford Tire & Brake Center,649406,705 Hickey Blvd.,,Pacifica,CA,94044-1214,United States,6503551156,37.6601,-122.47805,Mon: - ; Tue: - ; Wed: - ; Thu: - ; Fri: - ; Sat: - ; Sun: - ; ,,,0
Don's Tire Service,73946,820 Gilman Street,,Berkeley,CA,94710,United States,5105260335,37.879319,-122.301573,Mon: - ; Tue: - ; Wed: - ; Thu: - ; Fri: - ; Sat: - ; Sun: - ; ,,,0
"Malugani Tire Center, Inc.",285289,493 Miller Ave,,Mill Valley,CA,94941,United States,4153881800,37.895034,-122.533744,Mon: - ; Tue: - ; Wed: - ; Thu: - ; Fri: - ; Sat: - ; Sun: - ; ,,,0
Joes Tires,769121,1865 University Avenue,,Berkeley,CA,94703-1515,United States,5108419406,37.871572,-122.273744,Mon: - ; Tue: - ; Wed: - ; Thu: - ; Fri: - ; Sat: - ; Sun: - ; ,,,0
Dastgah Tire Company & Service,771024,"135 N. Wolfe Rd, Suite 60",,Sunnyvale,CA,94086-5218,United States,4087338473,37.376154,-122.01456,Mon: - ; Tue: - ; Wed: - ; Thu: - ; Fri: - ; Sat: - ; Sun: - ; ,,,0
Los Gatos Tire & Auto Repair,782005,577 University Ave.,,Los Gatos,CA,95032-4423,United States,4083547600,37.23296,-121.9777,Mon: - ; Tue: - ; Wed: - ; Thu: - ; Fri: - ; Sat: - ; Sun: - ; ,,,0
SUNSTATE EQUIPMENT CO,330436,2115 WARM SPRINGS CT,,FREMONT,CA,94539-6734,United States,5106232828,37.49844,-121.93538,Mon: - ; Tue: - ; Wed: - ; Thu: - ; Fri: - ; Sat: - ; Sun: - ; ,,,0
Bruce's Tire,330104,2420 Prune Ave,,Fremont,CA,94539-6729,United States,5106514701,37.506722,-121.938356,Mon: - ; Tue: - ; Wed: - ; Thu: - ; Fri: - ; Sat: - ; Sun: - ; ,,,0
W D GARAGE,771030,4564 Enterprise St,,Fremont,CA,94538-6315,United States,5102521111,37.504598,-121.960406,Mon: - ; Tue: - ; Wed: - ; Thu: - ; Fri: - ; Sat: - ; Sun: - ; ,,,0
Skip's Tire & Auto,781327,317 1st St.,,Los Altos,CA,94022-3604,United States,6509485047,37.37699,-122.11668,Mon: - ; Tue: - ; Wed: - ; Thu: - ; Fri: - ; Sat: - ; Sun: - ; ,,,0
58-74 Grand Avenue Tire,325363,5874 Grand Ave.,,Maspeth,NY,11378-3217,United States,7188945152,40.719917,-73.909215,Mon: - ; Tue: - ; Wed: - ; Thu: - ; Fri: - ; Sat: - ; Sun: - ; ,,,0
TM & T Tire,765998,41-15 Northern Blvd,,Long Island City,NY,11101,United States,7187293500,40.753325,-73.921778,Mon: - ; Tue: - ; Wed: - ; Thu: - ; Fri: - ; Sat: - ; Sun: - ; ,,,0
Mavis Tire Supply #134,760617,611 Utica Ave.,,Brooklyn,NY,11203-1916,United States,7187740286,40.658535,-73.930756,Mon: - ; Tue: - ; Wed: - ; Thu: - ; Fri: - ; Sat: - ; Sun: - ; ,,,0
BK Tire,770639,711B 65th Street,,Brooklyn,NY,11220-4735,United States,7188364665,40.633696,-74.013975,Mon: - ; Tue: - ; Wed: - ; Thu: - ; Fri: - ; Sat: - ; Sun: - ; ,,,0
M.I.C. Tire Pros,661139,4701 Northern Blvd.,,Long Island City,NY,11101-1027,United States,7186265200,40.7534220387684,-73.9130727944623,Mon: - ; Tue: - ; Wed: - ; Thu: - ; Fri: - ; Sat: - ; Sun: - ; ,,,0
Custom Bandag,81221,1151 Paterson Plank Rd.,,Secaucus,NJ,07097-2703,United States,2016179400,40.787012,-74.053148,Mon: - ; Tue: - ; Wed: - ; Thu: - ; Fri: - ; Sat: - ; Sun: - ; ,,,0
Tires 13,765995,1291 Utica Ave,,Brooklyn,NY,11203-5911,United States,7184512272,40.64106,-73.928773,Mon: - ; Tue: - ; Wed: - ; Thu: - ; Fri: - ; Sat: - ; Sun: - ; ,,,0
106 Street Tire and Wheel,341432,7920 Queens Blvd.,,Elmhurst,NY,11373-3747,United States,7184582500,40.7378,-73.883843,Mon: - ; Tue: - ; Wed: - ; Thu: - ; Fri: - ; Sat: - ; Sun: - ; ,,,0
Glendale Auto Care,311524,73-13 Cooper Ave.,,Glendale,NY,11385-8209,United States,7184979223,40.7078481134488,-73.8731764773645,Mon: - ; Tue: - ; Wed: - ; Thu: - ; Fri: - ; Sat: - ; Sun: - ; ,,,0
Elsy Tire Pros,775722,429 Raymond Blvd.,,Newark,NJ,07105-4622,United States,9733443783,40.73426,-74.13812,Mon: - ; Tue: - ; Wed: - ; Thu: - ; Fri: - ; Sat: - ; Sun: - ; ,,,0
Otto Motor Works,768861,1832 Utica Avenue,,Brooklyn,NY,11234-2123,United States,3475548460,40.627569,-73.927858,Mon: - ; Tue: - ; Wed: - ; Thu: - ; Fri: - ; Sat: - ; Sun: - ; ,,,0
SOMERSET TIRE SERVICE INC,774587,832 PENNSYLVANIA AVE,,BROOKLYN,NY,11207-7706,United States,7182721479,40.657242,-73.890165,Mon: - ; Tue: - ; Wed: - ; Thu: - ; Fri: - ; Sat: - ; Sun: - ; ,,,0
Runway Tire Service,256369,4115 19th Ave.,,Long Island City,NY,11105-1015,United States,7185455200,40.777577,-73.897977,Mon: - ; Tue: - ; Wed: - ; Thu: - ; Fri: - ; Sat: - ; Sun: - ; ,,,0
Whitey's Tire Service,317364,3395 Atlantic Avenue,,Brooklyn,NY,11208-2021,United States,7182773000,40.681875,-73.871135,Mon: - ; Tue: - ; Wed: - ; Thu: - ; Fri: - ; Sat: - ; Sun: - ; ,,,0
GCR TIRES & SERVICE 852,350316,140 HEGENBERGER LOOP,,OAKLAND,CA,94621-1326,United States,5105698769,37.7354257,-122.1955403,Mon: - ; Tue: - ; Wed: - ; Thu: - ; Fri: - ; Sat: - ; Sun: - ; ,,,0
Diamond Tire Center of Marin,323167,1133 E. Francisco Bl,,San Rafael,CA,94901,United States,4154593808,37.957343,-122.502141,Mon: - ; Tue: - ; Wed: - ; Thu: - ; Fri: - ; Sat: - ; Sun: - ; ,,,0
Cains Tire,778100,1531 4th St,,San Rafael,CA,94901-2741,United States,4154532942,37.97353,-122.53471,Mon: - ; Tue: - ; Wed: - ; Thu: - ; Fri: - ; Sat: - ; Sun: - ; ,,,0
Autologic Complete Car Care,780287,1868 McDonald Ave,,Brooklyn,NY,11223-1827,United States,7183760703,40.60724,-73.97305,Mon: - ; Tue: - ; Wed: - ; Thu: - ; Fri: - ; Sat: - ; Sun: - ; ,,,0
INTERCITY TIRE & AUTO CENTER,304175,196 MARACAIBO ST,,PORT NEWARK,NJ,07114-3309,United States,0,40.6882965000141,-74.1464603809181,Mon: - ; Tue: - ; Wed: - ; Thu: - ; Fri: - ; Sat: - ; Sun: - ; ,,,0
U S Tires and Wheels,330592,8924  Metropolitan Ave,,Rego Park,NY,11374-5326,United States,7189978899,40.712092,-73.861322,Mon: - ; Tue: - ; Wed: - ; Thu: - ; Fri: - ; Sat: - ; Sun: - ; ,,,0
Robbins & Franke,765982,611 Palisades Ave,,Cliffside Park,NJ,07010-3034,United States,2019433036,40.823614,-73.98561,Mon: - ; Tue: - ; Wed: - ; Thu: - ; Fri: - ; Sat: - ; Sun: - ; ,,,0
Custom Bandag,179593,504 Essex St.,,Harrison,NJ,07029-2231,United States,9734822220,40.74259,-74.153738,Mon: - ; Tue: - ; Wed: - ; Thu: - ; Fri: - ; Sat: - ; Sun: - ; ,,,0
Speedy Brother's Tire Repair,300720,1762 Richmond Terrace,,Staten Island,NY,10310,United States,7182730800,40.637467,-74.124573,Mon: - ; Tue: - ; Wed: - ; Thu: - ; Fri: - ; Sat: - ; Sun: - ; ,,,0
Hilna Tire,766369,2050 Stillwell Ave,,Brooklyn,NY,11223,United States,7189968273,40.596375,-73.985594,Mon: - ; Tue: - ; Wed: - ; Thu: - ; Fri: - ; Sat: - ; Sun: - ; ,,,0
Seegee Center,232458,1680 Canarsie Road,,Brooklyn,NY,11236-5418,United States,7185311000,40.63175,-73.89162,Mon: - ; Tue: - ; Wed: - ; Thu: - ; Fri: - ; Sat: - ; Sun: - ; ,,,0
Red Line Tire Center,766136,110-01 Northern Blvd,,Corona,NY,11368,United States,7186727600,40.758214,-73.859484,Mon: - ; Tue: - ; Wed: - ; Thu: - ; Fri: - ; Sat: - ; Sun: - ; ,,,0
Thomas Tire Service Inc,317368,370 Thomas St,,Newark,NJ,7114,United States,9735895070,40.719077,-74.165213,Mon: - ; Tue: - ; Wed: - ; Thu: - ; Fri: - ; Sat: - ; Sun: - ; ,,,0
ETD Discount Tire,784515,757 Page Ave,,Lyndhurst,NJ,07071-2530,United States,2018048858,40.80195,-74.11656,Mon: - ; Tue: - ; Wed: - ; Thu: - ; Fri: - ; Sat: - ; Sun: - ; ,,,0
Center Tire of Redford,744785,22300 W. Mcnichols,,Detroit,MI,48219-3101,United States,3135317670,40.801772,-74.117348,Mon: - ; Tue: - ; Wed: - ; Thu: - ; Fri: - ; Sat: - ; Sun: - ; ,,,0
Evolussion Tire,780928,209 Vanderpool St,,Newark,NJ,07114-2410,United States,9084694548,40.71749,-74.17804,Mon: - ; Tue: - ; Wed: - ; Thu: - ; Fri: - ; Sat: - ; Sun: - ; ,,,0
58-74 GRAND AVENUE TIRE CORP,343683,1267 RANDALL AVE,,BRONX,NY,10474-6412,United States,7188945152,40.8119751,-73.8873677,Mon: - ; Tue: - ; Wed: - ; Thu: - ; Fri: - ; Sat: - ; Sun: - ; ,,,0
C & C Tire,177638,21 Route 17,,East Rutherford,NJ,07073-2106,United States,2019358840,40.8302078520665,-74.0915069821206,Mon: - ; Tue: - ; Wed: - ; Thu: - ; Fri: - ; Sat: - ; Sun: - ; ,,,0
STS TIRE & AUTO CENTERS,774526,67 WINANT AVE,,RIDGEFIELD PARK,NJ,07660-1924,United States,8004451434,40.8489584179332,-74.0231757379161,Mon: - ; Tue: - ; Wed: - ; Thu: - ; Fri: - ; Sat: - ; Sun: - ; ,,,0
Bradley Tire Co.,275224,523 Washington Ave.,,Belleville,NJ,7109,United States,9737591000,40.798472,-74.14796,Mon: - ; Tue: - ; Wed: - ; Thu: - ; Fri: - ; Sat: - ; Sun: - ; ,,,0
Custom Bandag,268670,12402 Atlantic Ave.,,Richmond Hills,NY,11419-1439,United States,7184414646,40.695295,-73.8229385,Mon: - ; Tue: - ; Wed: - ; Thu: - ; Fri: - ; Sat: - ; Sun: - ; ,,,0
SOMERSET TIRE SERVICE INC 432,774580,2060 FOREST AVE & HENRY,,STATEN ISLAND,NY,10303-2911,United States,7189829368,40.6261979193679,-74.1580379258166,Mon: - ; Tue: - ; Wed: - ; Thu: - ; Fri: - ; Sat: - ; Sun: - ; ,,,0
Genesis Tire Outlet,337336,12802 14th Ave,,College Point,NY,11356-1926,United States,7188861214,40.785395,-73.84026,Mon: - ; Tue: - ; Wed: - ; Thu: - ; Fri: - ; Sat: - ; Sun: - ; ,,,0
Premier Auto Center,329730,2109 Forest Ave,,Staten Island,NY,10303-1739,United States,7184206070,40.626442,-74.159725,Mon: - ; Tue: - ; Wed: - ; Thu: - ; Fri: - ; Sat: - ; Sun: - ; ,,,0
Inter-City Tire & Auto Center,680818,777 Dowd Ave.,,Elizabeth,NJ,7201,United States,9083541200,40.6734849551315,-74.1904809186419,Mon: - ; Tue: - ; Wed: - ; Thu: - ; Fri: - ; Sat: - ; Sun: - ; ,,,0
SOMERSET TIRE SERVICE INC 535,774573,540 PATTERSON AVE,,EAST RUTHERFORD,NJ,07073-1207,United States,2014384339,40.579179523396,-74.0842455824769,Mon: - ; Tue: - ; Wed: - ; Thu: - ; Fri: - ; Sat: - ; Sun: - ; ,,,0
CUSTOM BANDAG INC,354946,350 PINE ST,,ELIZABETH,NJ,07206-1915,United States,9088622400,40.65622,-74.18775,Mon: - ; Tue: - ; Wed: - ; Thu: - ; Fri: - ; Sat: - ; Sun: - ; ,,,0
"D. S. Tire, Inc.",252802,122-28 Rockaway Blvd.,,South Ozone Park,NY,11420,United States,7188352976,40.675556,-73.815002,Mon: - ; Tue: - ; Wed: - ; Thu: - ; Fri: - ; Sat: - ; Sun: - ; ,,,0
Tire Empire,260648,2044 Hylan Blvd,,Staten Island,NY,10306-3540,United States,7189801000,40.580299,-74.099602,Mon: - ; Tue: - ; Wed: - ; Thu: - ; Fri: - ; Sat: - ; Sun: - ; ,,,0
SOMERSET TIRE SERVICE INC,774582,77 105 BLOOMFIELD AVE,,BLOOMFIELD,NJ,07003-5915,United States,9732819007,40.77876,-74.18684,Mon: - ; Tue: - ; Wed: - ; Thu: - ; Fri: - ; Sat: - ; Sun: - ; ,,,0
CUSTOM BANDAG INC,290931,578 SPRING ST,,ELIZABETH,NJ,07201-2036,United States,9085278777,40.67293,-74.2003,Mon: - ; Tue: - ; Wed: - ; Thu: - ; Fri: - ; Sat: - ; Sun: - ; ,,,0
CLEVELAND TIRE CO INC,468258,462 3RD AVE,,ELIZABETH,NJ,07206-1042,United States,9083526355,40.65154,-74.20302,Mon: - ; Tue: - ; Wed: - ; Thu: - ; Fri: - ; Sat: - ; Sun: - ; ,,,0
Cleveland Tire,233549,462 Third Ave.,,Elizabeth,NJ,07206-1042,United States,9083526355,40.65154,-74.20302,Mon: - ; Tue: - ; Wed: - ; Thu: - ; Fri: - ; Sat: - ; Sun: - ; ,,,0
Hudson Tire Exchange,294657,212 Hudson St.,,Hackensack,NJ,07601-6707,United States,2014872112,40.872079,-74.041254,Mon: - ; Tue: - ; Wed: - ; Thu: - ; Fri: - ; Sat: - ; Sun: - ; ,,,0
Inter-City Tire & Auto Center,261631,105-09 Merrick Blvd.,,Jamaica,NY,11433,United States,7185263600,40.70078,-73.78899,Mon: - ; Tue: - ; Wed: - ; Thu: - ; Fri: - ; Sat: - ; Sun: - ; ,,,0
ETD Discount Tire,784507,375 South Dean St,,Englewood,NJ,07631-4111,United States,2018713600,40.88203,-73.98187,Mon: - ; Tue: - ; Wed: - ; Thu: - ; Fri: - ; Sat: - ; Sun: - ; ,,,0
Auburndale Tire,765945,193-08 Northern Blvd,,Flushing,NY,11358-2936,United States,7183574560,40.757533,-73.788241,Mon: - ; Tue: - ; Wed: - ; Thu: - ; Fri: - ; Sat: - ; Sun: - ; ,,,0
J & J Tire,774640,11 Union Street,,Lodi,NJ,07644-2321,United States,9737777952,40.87739,-74.08431,Mon: - ; Tue: - ; Wed: - ; Thu: - ; Fri: - ; Sat: - ; Sun: - ; ,,,0
ETD Discount Tire,784513,954 Bloomfield Ave,,Clifton,NJ,07012-2409,United States,9733656014,40.84422,-74.15928,Mon: - ; Tue: - ; Wed: - ; Thu: - ; Fri: - ; Sat: - ; Sun: - ; ,,,0
SOMERSET TIRE SERVICE INC 537,774575,144 RTE 46 E,,LODI,NJ,07644-3617,United States,9736141122,40.87978,-74.0786,Mon: - ; Tue: - ; Wed: - ; Thu: - ; Fri: - ; Sat: - ; Sun: - ; ,,,0
Mavis Tire Supply #020,760640,200 Nern Blvd.,,Great Neck,NY,11021-4402,United States,5164870739,40.72184,-73.77208,Mon: - ; Tue: - ; Wed: - ; Thu: - ; Fri: - ; Sat: - ; Sun: - ; ,,,0
Mavis Tire Supply #179,769713,166-15 Baisley Blvd.,,Jamaica,NY,11434-2518,United States,3476763222,40.6818726939869,-73.7719200863503,Mon: - ; Tue: - ; Wed: - ; Thu: - ; Fri: - ; Sat: - ; Sun: - ; ,,,0
BANNER TIRE SYSTEM,774524,80 HANCOCK ST,,LODI,NJ,07644-1913,United States,9732720200,40.88597,-74.07596,Mon: - ; Tue: - ; Wed: - ; Thu: - ; Fri: - ; Sat: - ; Sun: - ; ,,,0
Budget Muffler and Brake Center,311628,1870 Eastchester Rd,,Bronx,NY,10461,United States,7188284113,40.850952,-73.844443,Mon: - ; Tue: - ; Wed: - ; Thu: - ; Fri: - ; Sat: - ; Sun: - ; ,,,0
BR Tire Center,782742,474 Main Street,,Orange,NJ,07050-1540,United States,9736737777,40.774314,-74.235708,Mon: - ; Tue: - ; Wed: - ; Thu: - ; Fri: - ; Sat: - ; Sun: - ; ,,,0
SOMERSET TIRE SERVICE 517,774535,370 BLOOMFIELD AVE # 372,,MONTCLAIR,NJ,07042-3503,United States,9737449300,40.81197,-74.21583,Mon: - ; Tue: - ; Wed: - ; Thu: - ; Fri: - ; Sat: - ; Sun: - ; ,,,0
"North East Tire, Inc",774609,1720 E. St. Georges Ave,,Linden,NJ,07036-1713,United States,9089259655,40.6504778621971,-74.2398475073139,Mon: - ; Tue: - ; Wed: - ; Thu: - ; Fri: - ; Sat: - ; Sun: - ; ,,,0
Mavis Tire Supply #015,760616,5760 Broadway,,Bronx,NY,10463-4140,United States,7185437385,40.883633,-73.901085,Mon: - ; Tue: - ; Wed: - ; Thu: - ; Fri: - ; Sat: - ; Sun: - ; ,,,0
Benigno Tire Exchange,774620,58 Jewel Street,,Garfield,NJ,7026,United States,9735464518,40.88222,-74.11873,Mon: - ; Tue: - ; Wed: - ; Thu: - ; Fri: - ; Sat: - ; Sun: - ; ,,,0
STS TIRE & AUTO CENTERS,774489,474 HACKENSACK AVE,,HACKENSACK,NJ,07601-6305,United States,2014981460,40.9103185752819,-74.0330694564316,Mon: - ; Tue: - ; Wed: - ; Thu: - ; Fri: - ; Sat: - ; Sun: - ; ,,,0
SOMERSET TIRE SERVICE INC,774586,52 NEW BRIDGE RD,,BERGENFIELD,NJ,07621-4304,United States,2014391439,40.91351,-73.99969,Mon: - ; Tue: - ; Wed: - ; Thu: - ; Fri: - ; Sat: - ; Sun: - ; ,,,0
Guy's Tire Buys,766835,4099 Hylen Blvd,,Staten Island,NY,10308,United States,7183177007,40.540016,-74.148201,Mon: - ; Tue: - ; Wed: - ; Thu: - ; Fri: - ; Sat: - ; Sun: - ; ,,,0
Bruces,782916,4028 Boston Post Road,,Bronx,NY,10466-1123,United States,7189949407,40.8846,-73.83107,Mon: - ; Tue: - ; Wed: - ; Thu: - ; Fri: - ; Sat: - ; Sun: - ; ,,,0
Co-op City Tire,351518,3525 Conner Street,,Bronx,NY,10475-1201,United States,7189949600,40.88514,-73.82794,Mon: - ; Tue: - ; Wed: - ; Thu: - ; Fri: - ; Sat: - ; Sun: - ; ,,,0
Bruce's Discount Tire,780162,4065 Boston Road,,Bronx,NY,10466-6129,United States,7183241409,40.885832,-73.828949,Mon: - ; Tue: - ; Wed: - ; Thu: - ; Fri: - ; Sat: - ; Sun: - ; ,,,0
Mavis Tire Supply #151,760615,4100 Boston Post Rd.,,Bronx,NY,10475-1104,United States,3479474046,40.885864,-73.827415,Mon: - ; Tue: - ; Wed: - ; Thu: - ; Fri: - ; Sat: - ; Sun: - ; ,,,0
STS TIRE & AUTO CENTERS,774486,14-32 RIVER RD,,FAIR LAWN,NJ,07410-1207,United States,2017979210,40.925841495807,-74.1293763320461,Mon: - ; Tue: - ; Wed: - ; Thu: - ; Fri: - ; Sat: - ; Sun: - ; ,,,0
Firestone Complete Auto Care,14257,5444 NORWOOD AVE,,JACKSONVILLE,FL,32208-5009,United States,9047683449,30.372183,-81.664432,Mon: - ; Tue: - ; Wed: - ; Thu: - ; Fri: - ; Sat: - ; Sun: - ; ,,,0
Firestone Complete Auto Care,4375,1008 UNIVERSITY BLVD N,,JACKSONVILLE,FL,32211-5532,United States,9047432525,30.330084,-81.603487,Mon: - ; Tue: - ; Wed: - ; Thu: - ; Fri: - ; Sat: - ; Sun: - ; ,,,0
TIRES PLUS TOTAL CAR CARE 6026,122106,7700 LEM TURNER RD,,JACKSONVILLE,FL,32208-3255,United States,9047683441,30.389758,-81.678515,Mon: - ; Tue: - ; Wed: - ; Thu: - ; Fri: - ; Sat: - ; Sun: - ; ,,,0
TIRES PLUS TOTAL CAR CARE 6022,122068,5880 UNIVERSITY BLVD W,,JACKSONVILLE,FL,32216-0803,United States,9047332555,30.275805,-81.604756,Mon: - ; Tue: - ; Wed: - ; Thu: - ; Fri: - ; Sat: - ; Sun: - ; ,,,0
TIRES PLUS TOTAL CAR CARE 6024,122084,5403 NORMANDY BLVD,,JACKSONVILLE,FL,32205-6244,United States,9047868560,30.308967,-81.739569,Mon: - ; Tue: - ; Wed: - ; Thu: - ; Fri: - ; Sat: - ; Sun: - ; ,,,0
Firestone Complete Auto Care,4871,5998 NORMANDY BLVD,,JACKSONVILLE,FL,32205-6212,United States,9047860821,30.306143,-81.751575,Mon: - ; Tue: - ; Wed: - ; Thu: - ; Fri: - ; Sat: - ; Sun: - ; ,,,0
Firestone Complete Auto Care,14230,9501 ARLINGTON EXPY.,,JACKSONVILLE,FL,32225-8293,United States,9047213049,30.321678,-81.550021,Mon: - ; Tue: - ; Wed: - ; Thu: - ; Fri: - ; Sat: - ; Sun: - ; ,,,0
TIRES PLUS TOTAL CAR CARE 7094,239627,1332 DUNN AVE,,JACKSONVILLE,FL,32218-4836,United States,9047143781,30.42984,-81.66865,Mon: - ; Tue: - ; Wed: - ; Thu: - ; Fri: - ; Sat: - ; Sun: - ; ,,,0
TIRES PLUS TOTAL CAR CARE 6043,629944,4262 SOUTHSIDE BLVD,,JACKSONVILLE,FL,32216-5400,United States,9046450733,30.270456,-81.559078,Mon: - ; Tue: - ; Wed: - ; Thu: - ; Fri: - ; Sat: - ; Sun: - ; ,,,0
Firestone Complete Auto Care,18538,4712 BLANDING BLVD,,JACKSONVILLE,FL,32210-7327,United States,9047711383,30.256161,-81.742568,Mon: - ; Tue: - ; Wed: - ; Thu: - ; Fri: - ; Sat: - ; Sun: - ; ,,,0
TIRES PLUS TOTAL CAR CARE 6033,121738,10361 ATLANTIC BLVD,,JACKSONVILLE,FL,32225-6604,United States,9049989200,30.323634,-81.53135,Mon: - ; Tue: - ; Wed: - ; Thu: - ; Fri: - ; Sat: - ; Sun: - ; ,,,0
TIRES PLUS TOTAL CAR CARE 6027,122114,6381 103RD ST,,JACKSONVILLE,FL,32210-7734,United States,9047729494,30.248398,-81.746874,Mon: - ; Tue: - ; Wed: - ; Thu: - ; Fri: - ; Sat: - ; Sun: - ; ,,,0
TIRES PLUS TOTAL CAR CARE 6029,122262,9350 SAN JOSE BLVD,,JACKSONVILLE,FL,32257-5583,United States,9047317076,30.207506,-81.617285,Mon: - ; Tue: - ; Wed: - ; Thu: - ; Fri: - ; Sat: - ; Sun: - ; ,,,0
TIRES PLUS TOTAL CAR CARE 6048,676209,9559 BAYMEADOWS RD,,JACKSONVILLE,FL,32256-7903,United States,9047370401,30.220915,-81.560032,Mon: - ; Tue: - ; Wed: - ; Thu: - ; Fri: - ; Sat: - ; Sun: - ; ,,,0
Firestone Complete Auto Care,28444,10553 SAN JOSE BLVD,,JACKSONVILLE,FL,32257-6208,United States,9042682921,30.186672,-81.627853,Mon: - ; Tue: - ; Wed: - ; Thu: - ; Fri: - ; Sat: - ; Sun: - ; ,,,0
TIRES PLUS 6088 QUEENS HARBOR,354080,13162 ATLANTIC BLVD,,JACKSONVILLE,FL,32225-3126,United States,9042202141,30.319847,-81.462998,Mon: - ; Tue: - ; Wed: - ; Thu: - ; Fri: - ; Sat: - ; Sun: - ; ,,,0
TIRES PLUS TOTAL CAR CARE 6032,121711,169 BLANDING BLVD,,ORANGE PARK,FL,32073-3354,United States,9042727333,30.178437,-81.741489,Mon: - ; Tue: - ; Wed: - ; Thu: - ; Fri: - ; Sat: - ; Sun: - ; ,,,0
Firestone Complete Auto Care,5770,237 BLANDING BLVD,,ORANGE PARK,FL,32073-3357,United States,9042720860,30.175022,-81.744791,Mon: - ; Tue: - ; Wed: - ; Thu: - ; Fri: - ; Sat: - ; Sun: - ; ,,,0
TIRES PLUS TOTAL CAR CARE 7095,239628,12015 SAN JOSE BLVD,,JACKSONVILLE,FL,32223-1841,United States,9042604011,30.151932,-81.632517,Mon: - ; Tue: - ; Wed: - ; Thu: - ; Fri: - ; Sat: - ; Sun: - ; ,,,0
TIRES PLUS TOTAL CAR CARE 6036,121770,14329 BEACH BLVD,,JACKSONVILLE,FL,32250-1547,United States,9049924433,30.287943,-81.439974,Mon: - ; Tue: - ; Wed: - ; Thu: - ; Fri: - ; Sat: - ; Sun: - ; ,,,0
TIRES PLUS,772996,12575 BARTRAM PARK BLVD,,JACKSONVILLE,FL,32210-0000,United States,9042929191,30.141952,-81.547002,Mon: - ; Tue: - ; Wed: - ; Thu: - ; Fri: - ; Sat: - ; Sun: - ; ,,,0
Firestone Complete Auto Care,11495,841 BLANDING BLVD,,ORANGE PARK,FL,32065-6203,United States,9042763880,30.142309,-81.766551,Mon: - ; Tue: - ; Wed: - ; Thu: - ; Fri: - ; Sat: - ; Sun: - ; ,,,0
TIRES PLUS TOTAL CAR CARE 7080,242219,1100 ATLANTIC BLVD,,NEPTUNE BEACH,FL,32266-2516,United States,9042420811,30.32443,-81.40798,Mon: - ; Tue: - ; Wed: - ; Thu: - ; Fri: - ; Sat: - ; Sun: - ; ,,,0
TIRES PLUS 6086 FLEMING ISLAND,349362,1627 COUNTY ROAD 220,,ORANGE PARK,FL,32003-0000,United States,9042781795,30.102166,-81.717105,Mon: - ; Tue: - ; Wed: - ; Thu: - ; Fri: - ; Sat: - ; Sun: - ; ,,,0
Triple T Tire & Alignment,594830,270 Hwy 51 Bypass S,,Dyersburg,TN,38024,United States,9012870333,30.32884,-81.722729,Mon: - ; Tue: - ; Wed: - ; Thu: - ; Fri: - ; Sat: - ; Sun: - ; ,,,0
Boulevard Tire Center,300397,"828 Edgewood Ave., N.",,Jacksonville,FL,32254-3084,United States,9043885457,30.333614,-81.731101,Mon: - ; Tue: - ; Wed: - ; Thu: - ; Fri: - ; Sat: - ; Sun: - ; ,,,0
Boulevard Retread Center,359011,570 Henderson Rd.,,Jacksonville,FL,32254-3515,United States,9047868512,30.31627,-81.75527,Mon: - ; Tue: - ; Wed: - ; Thu: - ; Fri: - ; Sat: - ; Sun: - ; ,,,0
Callaghan Tire,310910,"7075 12th St., W.",,Jacksonville,FL,32220-2858,United States,9046934999,30.3501983,-81.764256,Mon: - ; Tue: - ; Wed: - ; Thu: - ; Fri: - ; Sat: - ; Sun: - ; ,,,0
GCR TIRES & SERVICE 451,122556,7500 COMMONWEALTH AVE,,JACKSONVILLE,FL,32220-2433,United States,9047868550,30.339557,-81.772603,Mon: - ; Tue: - ; Wed: - ; Thu: - ; Fri: - ; Sat: - ; Sun: - ; ,,,0
