store_name,store_number,address,address2,city,state,zip_code,country,phone_number,latitude,longitude,store_hours,store_type,other_fields,coming_soon
Monro,609,4706 North Keystone Avenue,,Indianapolis,IN,46205,United States,(317) 251-9251,39.8438,-86.1203,"Monday 7:30AM - 6:00PM, Tuesday 7:30AM - 6:00PM, Wednesday 7:30AM - 6:00PM, Thursday 7:30AM - 6:00PM, Friday 7:30AM - 6:00PM, Saturday 7:30AM - 6:00PM, Sunday 9:00AM - 5:00PM",,,
Monro,333,7611 East 96th Street,,Indianapolis,IN,46256,United States,(317) 841-9919,39.9269371,-86.03477,"Monday 7:30AM - 7:00PM, Tuesday 7:30AM - 7:00PM, Wednesday 7:30AM - 7:00PM, Thursday 7:30AM - 7:00PM, Friday 7:30AM - 7:00PM, Saturday 7:30AM - 6:00PM, Sunday 9:00AM - 5:00PM",,,
Monro,299,2015 Cherry Street,,Noblesville,IN,46060,United States,(317) 773-8158,40.04373,-85.9986649,"Monday 7:30AM - 7:00PM, Tuesday 7:30AM - 7:00PM, Wednesday 7:30AM - 7:00PM, Thursday 7:30AM - 7:00PM, Friday 7:30AM - 7:00PM, Saturday 7:30AM - 6:00PM, Sunday Closed",,,
Monro,302,202 East McClarnon Drive,,Greenfield,IN,46140,United States,(317) 462-4064,39.8069,-85.768,"Monday 7:30AM - 7:00PM, Tuesday 7:30AM - 7:00PM, Wednesday 7:30AM - 7:00PM, Thursday 7:30AM - 7:00PM, Friday 7:30AM - 7:00PM, Saturday 7:30AM - 6:00PM, Sunday 9:00AM - 5:00PM",,,
Monro,283,5021 Scatterfield Road,,Anderson,IN,46013,United States,(765) 683-1990,40.0596924,-85.6530762,"Monday 7:30AM - 7:00PM, Tuesday 7:30AM - 7:00PM, Wednesday 7:30AM - 7:00PM, Thursday 7:30AM - 7:00PM, Friday 7:30AM - 7:00PM, Saturday 7:30AM - 6:00PM, Sunday Closed",,,
Monro,281,230 Hauenstein Road,,Huntington,IN,46750,United States,(260) 359-9760,40.8950729,-85.5287,"Monday 7:30AM - 7:00PM, Tuesday 7:30AM - 7:00PM, Wednesday 7:30AM - 7:00PM, Thursday 7:30AM - 7:00PM, Friday 7:30AM - 7:00PM, Saturday 7:30AM - 6:00PM, Sunday 9:00AM - 5:00PM",,,
Monro,337,3296 Lake City Highway,,Warsaw,IN,46580,United States,(574) 267-4333,41.238,-85.853,"Monday 7:30AM - 7:00PM, Tuesday 7:30AM - 7:00PM, Wednesday 7:30AM - 7:00PM, Thursday 7:30AM - 7:00PM, Friday 7:30AM - 7:00PM, Saturday 7:30AM - 6:00PM, Sunday Closed",,,
Monro,318,900 West Seventh Street,,Auburn,IN,46706,United States,(260) 925-8393,41.3668,-85.0643,"Monday 7:30AM - 7:00PM, Tuesday 7:30AM - 7:00PM, Wednesday 7:30AM - 7:00PM, Thursday 7:30AM - 7:00PM, Friday 7:30AM - 7:00PM, Saturday 7:30AM - 6:00PM, Sunday Closed",,,
Monro,1399,1845 North Wayne Rd,,Westland,MI,48185,United States,(734) 722-8473,42.32229,-83.3901,"Monday 7:30AM - 7:00PM, Tuesday 7:30AM - 7:00PM, Wednesday 7:30AM - 7:00PM, Thursday 7:30AM - 7:00PM, Friday 7:30AM - 7:00PM, Saturday 7:30AM - 6:00PM, Sunday Closed",,,
Monro,1439,511 S. State Rd,,Davison,MI,48423,United States,(810) 653-5800,43.0252647,-83.5173645,"Monday 7:30AM - 7:00PM, Tuesday 7:30AM - 7:00PM, Wednesday 7:30AM - 7:00PM, Thursday 7:30AM - 7:00PM, Friday 7:30AM - 7:00PM, Saturday 7:30AM - 6:00PM, Sunday Closed",,,
Monro,1440,5010 Miller Rd,,Flint,MI,48507,United States,(810) 733-7080,42.9761772,-83.7725754,"Monday 7:30AM - 7:00PM, Tuesday 7:30AM - 7:00PM, Wednesday 7:30AM - 7:00PM, Thursday 7:30AM - 7:00PM, Friday 7:30AM - 7:00PM, Saturday 7:30AM - 6:00PM, Sunday Closed",,,
Monro,1437,8150 Gratiot Road,,Saginaw,MI,48609,United States,(989) 781-3136,43.4163742,-84.0749359,"Monday 7:30AM - 7:00PM, Tuesday 7:30AM - 7:00PM, Wednesday 7:30AM - 7:00PM, Thursday 7:30AM - 7:00PM, Friday 7:30AM - 7:00PM, Saturday 7:30AM - 6:00PM, Sunday Closed",,,
Monro,1218,1249 W. Columbia Ave,,Battle Creek,MI,49015,United States,(269) 965-1241,42.2974,-85.22371,"Monday 7:30AM - 7:00PM, Tuesday 7:30AM - 7:00PM, Wednesday 7:30AM - 7:00PM, Thursday 7:30AM - 7:00PM, Friday 7:30AM - 7:00PM, Saturday 7:30AM - 6:00PM, Sunday Closed",,,
Monro,1223,2351 S. Sprinkle Road,,Kalamazoo,MI,49001,United States,(269) 388-8031,42.2674522,-85.53021,"Monday 7:30AM - 7:00PM, Tuesday 7:30AM - 7:00PM, Wednesday 7:30AM - 7:00PM, Thursday 7:30AM - 7:00PM, Friday 7:30AM - 7:00PM, Saturday 7:30AM - 6:00PM, Sunday Closed",,,
Monro,1220,1001 Riverview Drive,,Kalamazoo,MI,49048,United States,(269) 342-2131,42.3015137,-85.56946,"Monday 7:30AM - 7:00PM, Tuesday 7:30AM - 7:00PM, Wednesday 7:30AM - 7:00PM, Thursday 7:30AM - 7:00PM, Friday 7:30AM - 7:00PM, Saturday 7:30AM - 6:00PM, Sunday 9:00AM - 5:00PM",,,
Monro,1217,6103 S. Westnedge Avenue,,Portage,MI,49002,United States,(269) 323-0034,42.2285652,-85.58884,"Monday 7:30AM - 7:00PM, Tuesday 7:30AM - 7:00PM, Wednesday 7:30AM - 7:00PM, Thursday 7:30AM - 7:00PM, Friday 7:30AM - 7:00PM, Saturday 7:30AM - 6:00PM, Sunday Closed",,,
Monro,1219,2951 Stadium Drive,,Kalamazoo,MI,49008,United States,(269) 349-1168,42.2721329,-85.62664,"Monday 7:30AM - 7:00PM, Tuesday 7:30AM - 7:00PM, Wednesday 7:30AM - 7:00PM, Thursday 7:30AM - 7:00PM, Friday 7:30AM - 7:00PM, Saturday 7:30AM - 6:00PM, Sunday 9:00AM - 5:00PM",,,
Monro,1225,4633 28th Street SE,,Kentwood,MI,49512,United States,(616) 940-3888,42.91353,-85.55313,"Monday 7:30AM - 7:00PM, Tuesday 7:30AM - 7:00PM, Wednesday 7:30AM - 7:00PM, Thursday 7:30AM - 7:00PM, Friday 7:30AM - 7:00PM, Saturday 7:30AM - 6:00PM, Sunday 9:00AM - 5:00PM",,,
Monro,1224,4762 Division Ave SE,,Kentwood,MI,49548,United States,(616) 538-6999,42.87708,-85.66391,"Monday 7:30AM - 7:00PM, Tuesday 7:30AM - 7:00PM, Wednesday 7:30AM - 7:00PM, Thursday 7:30AM - 7:00PM, Friday 7:30AM - 7:00PM, Saturday 7:30AM - 6:00PM, Sunday Closed",,,
Monro,1221,425 28th Street SE,,Grand Rapids,MI,49548,United States,(616) 243-4314,42.91336,-85.65533,"Monday 7:30AM - 7:00PM, Tuesday 7:30AM - 7:00PM, Wednesday 7:30AM - 7:00PM, Thursday 7:30AM - 7:00PM, Friday 7:30AM - 7:00PM, Saturday 7:30AM - 6:00PM, Sunday 9:00AM - 5:00PM",,,
Monro,1226,7525 S. Main Street,,Jenison,MI,49428,United States,(616) 457-1111,42.9057846,-85.78716,"Monday 7:30AM - 7:00PM, Tuesday 7:30AM - 7:00PM, Wednesday 7:30AM - 7:00PM, Thursday 7:30AM - 7:00PM, Friday 7:30AM - 7:00PM, Saturday 7:30AM - 6:00PM, Sunday 9:00AM - 5:00PM",,,
Monro,555,3650 Aramingo Avenue,,Philadelphia,PA,19134,United States,(215) 831-1131,39.99397,-75.09609,"Monday 7:30AM - 7:00PM, Tuesday 7:30AM - 7:00PM, Wednesday 7:30AM - 7:00PM, Thursday 7:30AM - 7:00PM, Friday 7:30AM - 7:00PM, Saturday 7:30AM - 6:00PM, Sunday 9:00AM - 5:00PM",,,
Monro,560,105 N. MacDade Blvd.,,Glenolden,PA,19036,United States,(610) 522-2810,39.9066162,-75.28809,"Monday 7:30AM - 7:00PM, Tuesday 7:30AM - 7:00PM, Wednesday 7:30AM - 7:00PM, Thursday 7:30AM - 7:00PM, Friday 7:30AM - 7:00PM, Saturday 7:30AM - 6:00PM, Sunday 9:00AM - 5:00PM",,,
Monro,554,6402 Frankford Avenue,,Philadelphia,PA,19135,United States,(215) 331-6633,40.0286,-75.05793,"Monday 7:30AM - 7:00PM, Tuesday 7:30AM - 7:00PM, Wednesday 7:30AM - 7:00PM, Thursday 7:30AM - 7:00PM, Friday 7:30AM - 7:00PM, Saturday 7:30AM - 6:00PM, Sunday Closed",,,
Monro,558,1 North York Road,,Willow Grove,PA,19090,United States,(215) 659-8650,40.13889,-75.11225,"Monday 7:30AM - 7:00PM, Tuesday 7:30AM - 7:00PM, Wednesday 7:30AM - 7:00PM, Thursday 7:30AM - 7:00PM, Friday 7:30AM - 7:00PM, Saturday 7:30AM - 6:00PM, Sunday 9:00AM - 5:00PM",,,
Monro,292,362 West Lancaster Avenue,,Wayne/Radnor,PA,19087,United States,(610) 687-6600,40.0438881,-75.3961639,"Monday 7:30AM - 7:00PM, Tuesday 7:30AM - 7:00PM, Wednesday 7:30AM - 7:00PM, Thursday 7:30AM - 7:00PM, Friday 7:30AM - 7:00PM, Saturday 7:30AM - 6:00PM, Sunday 9:00AM - 5:00PM",,,
Monro,321,1773 Dekalb Pike,,Blue Bell,PA,19422,United States,(610) 479-7955,40.15046,-75.30637,"Monday 7:30AM - 7:00PM, Tuesday 7:30AM - 7:00PM, Wednesday 7:30AM - 7:00PM, Thursday 7:30AM - 7:00PM, Friday 7:30AM - 7:00PM, Saturday 7:30AM - 6:00PM, Sunday 9:00AM - 5:00PM",,,
Monro,329,257 York Road,,Warminster,PA,18974,United States,(215) 672-1040,40.1965065,-75.10184,"Monday 7:30AM - 7:00PM, Tuesday 7:30AM - 7:00PM, Wednesday 7:30AM - 7:00PM, Thursday 7:30AM - 7:00PM, Friday 7:30AM - 7:00PM, Saturday 7:30AM - 6:00PM, Sunday 9:00AM - 5:00PM",,,
Monro,310,705 S. Valley Forge Road,,Lansdale,PA,19446,United States,(215) 362-9380,40.2381,-75.2914,"Monday 7:30AM - 7:00PM, Tuesday 7:30AM - 7:00PM, Wednesday 7:30AM - 7:00PM, Thursday 7:30AM - 7:00PM, Friday 7:30AM - 7:00PM, Saturday 7:30AM - 6:00PM, Sunday 9:00AM - 5:00PM",,,
Monro,256,20 First Avenue,,Collegeville,PA,19426,United States,(610) 479-7954,40.19449,-75.46636,"Monday 7:30AM - 7:00PM, Tuesday 7:30AM - 7:00PM, Wednesday 7:30AM - 7:00PM, Thursday 7:30AM - 7:00PM, Friday 7:30AM - 7:00PM, Saturday 7:30AM - 6:00PM, Sunday 9:00AM - 5:00PM",,,
Monro,374,1000 Nutt Road,,Phoenixville,PA,19460,United States,(610) 917-9440,40.1339,-75.5403,"Monday 7:30AM - 7:00PM, Tuesday 7:30AM - 7:00PM, Wednesday 7:30AM - 7:00PM, Thursday 7:30AM - 7:00PM, Friday 7:30AM - 7:00PM, Saturday 7:30AM - 6:00PM, Sunday 9:00AM - 5:00PM",,,
Monro,257,651 E. Broad Street,,Souderton,PA,18964,United States,(215) 721-3991,40.31423,-75.31173,"Monday 7:30AM - 7:00PM, Tuesday 7:30AM - 7:00PM, Wednesday 7:30AM - 7:00PM, Thursday 7:30AM - 7:00PM, Friday 7:30AM - 7:00PM, Saturday 7:30AM - 6:00PM, Sunday 9:00AM - 5:00PM",,,
Monro,158,3997 Perkiomen Avenue,,Reading,PA,19606,United States,(610) 779-5441,40.3100052,-75.86588,"Monday 7:30AM - 7:00PM, Tuesday 7:30AM - 7:00PM, Wednesday 7:30AM - 7:00PM, Thursday 7:30AM - 7:00PM, Friday 7:30AM - 7:00PM, Saturday 7:30AM - 6:00PM, Sunday 9:00AM - 5:00PM",,,
Monro,668,1401 Lehigh Street,,Allentown,PA,18103,United States,(610) 791-4430,40.5824623,-75.47708,"Monday 7:30AM - 7:00PM, Tuesday 7:30AM - 7:00PM, Wednesday 7:30AM - 7:00PM, Thursday 7:30AM - 7:00PM, Friday 7:30AM - 7:00PM, Saturday 7:30AM - 6:00PM, Sunday 9:00AM - 5:00PM",,,
Monro,173,2196 W. Union Blvd.,,Bethlehem,PA,18018,United States,(610) 479-7952,40.6262245,-75.41804,"Monday 7:30AM - 7:00PM, Tuesday 7:30AM - 7:00PM, Wednesday 7:30AM - 7:00PM, Thursday 7:30AM - 7:00PM, Friday 7:30AM - 7:00PM, Saturday 7:30AM - 6:00PM, Sunday 9:00AM - 5:00PM",,,
Monro,159,4692 Broadway,,Allentown,PA,18104,United States,(610) 479-7953,40.5881577,-75.55738,"Monday 7:30AM - 7:00PM, Tuesday 7:30AM - 7:00PM, Wednesday 7:30AM - 7:00PM, Thursday 7:30AM - 7:00PM, Friday 7:30AM - 7:00PM, Saturday 7:30AM - 6:00PM, Sunday 9:00AM - 5:00PM",,,
Monro,259,3010 Easton Avenue,,Bethlehem,PA,18017,United States,(610) 866-4090,40.64994,-75.33807,"Monday 7:30AM - 7:00PM, Tuesday 7:30AM - 7:00PM, Wednesday 7:30AM - 7:00PM, Thursday 7:30AM - 7:00PM, Friday 7:30AM - 7:00PM, Saturday 7:30AM - 6:00PM, Sunday 9:00AM - 5:00PM",,,
Monro,667,1326 Grape Street,,Whitehall,PA,18052,United States,(610) 776-0440,40.63261,-75.48477,"Monday 7:30AM - 7:00PM, Tuesday 7:30AM - 7:00PM, Wednesday 7:30AM - 7:00PM, Thursday 7:30AM - 7:00PM, Friday 7:30AM - 7:00PM, Saturday 7:30AM - 6:00PM, Sunday 9:00AM - 5:00PM",,,
Monro,157,2679 Shillington Road,,Reading,PA,19608,United States,(610) 678-9980,40.31145,-75.9902954,"Monday 7:30AM - 7:00PM, Tuesday 7:30AM - 7:00PM, Wednesday 7:30AM - 7:00PM, Thursday 7:30AM - 7:00PM, Friday 7:30AM - 7:00PM, Saturday 7:30AM - 6:00PM, Sunday 9:00AM - 5:00PM",,,
Monro,153,3045 5th Street Highway,,Reading,PA,19605,United States,(610) 921-0218,40.39,-75.9371,"Monday 7:30AM - 7:00PM, Tuesday 7:30AM - 7:00PM, Wednesday 7:30AM - 7:00PM, Thursday 7:30AM - 7:00PM, Friday 7:30AM - 7:00PM, Saturday 7:30AM - 6:00PM, Sunday 9:00AM - 5:00PM",,,
Monro,220,1529 Oregon Pike,,Lancaster,PA,17601,United States,(717) 390-8686,40.06337,-76.30461,"Monday 7:30AM - 7:00PM, Tuesday 7:30AM - 7:00PM, Wednesday 7:30AM - 7:00PM, Thursday 7:30AM - 7:00PM, Friday 7:30AM - 7:00PM, Saturday 7:30AM - 6:00PM, Sunday 9:00AM - 5:00PM",,,
Monro,229,191 Rohrerstown Road,,Lancaster,PA,17603,United States,(717) 925-8540,40.0431557,-76.36356,"Monday 7:30AM - 7:00PM, Tuesday 7:30AM - 7:00PM, Wednesday 7:30AM - 7:00PM, Thursday 7:30AM - 7:00PM, Friday 7:30AM - 7:00PM, Saturday 7:30AM - 6:00PM, Sunday 9:00AM - 5:00PM",,,
Monro,140,1700 W. Cumberland Street,,Lebanon,PA,17042,United States,(717) 273-5592,40.3382378,-76.43989,"Monday 7:30AM - 7:00PM, Tuesday 7:30AM - 7:00PM, Wednesday 7:30AM - 7:00PM, Thursday 7:30AM - 7:00PM, Friday 7:30AM - 7:00PM, Saturday 7:30AM - 6:00PM, Sunday Closed",,,
Monro,225,95 Mill Creek Avenue,,Pottsville,PA,17901,United States,(570) 622-8544,40.6962738,-76.18996,"Monday 7:30AM - 7:00PM, Tuesday 7:30AM - 7:00PM, Wednesday 7:30AM - 7:00PM, Thursday 7:30AM - 7:00PM, Friday 7:30AM - 7:00PM, Saturday 7:30AM - 6:00PM, Sunday Closed",,,
Monro,224,10 Anchor Road,,Elizabethtown,PA,17022,United States,(717) 925-8504,40.1385765,-76.58712,"Monday 7:30AM - 7:00PM, Tuesday 7:30AM - 7:00PM, Wednesday 7:30AM - 7:00PM, Thursday 7:30AM - 7:00PM, Friday 7:30AM - 7:00PM, Saturday 7:30AM - 6:00PM, Sunday 9:00AM - 5:00PM",,,
Monro,251,3651 E. Market Street,,York,PA,17402,United States,(717) 757-0527,39.9834557,-76.65016,"Monday 7:30AM - 7:00PM, Tuesday 7:30AM - 7:00PM, Wednesday 7:30AM - 7:00PM, Thursday 7:30AM - 7:00PM, Friday 7:30AM - 7:00PM, Saturday 7:30AM - 6:00PM, Sunday 9:00AM - 5:00PM",,,
Monro,214,2045 Queen Street,,York,PA,17403,United States,(717) 925-8505,39.9384766,-76.6941147,"Monday 7:30AM - 7:00PM, Tuesday 7:30AM - 7:00PM, Wednesday 7:30AM - 7:00PM, Thursday 7:30AM - 7:00PM, Friday 7:30AM - 7:00PM, Saturday 7:30AM - 6:00PM, Sunday 9:00AM - 5:00PM",,,
Monro,623,3051 Route 940,,Mt. Pocono,PA,18344,United States,(570) 839-1529,41.1224327,-75.37357,"Monday 7:30AM - 7:00PM, Tuesday 7:30AM - 7:00PM, Wednesday 7:30AM - 7:00PM, Thursday 7:30AM - 7:00PM, Friday 7:30AM - 7:00PM, Saturday 7:30AM - 6:00PM, Sunday 9:00AM - 5:00PM",,,
Monro,90,451 Susquehanna Blvd.,,Hazleton,PA,18202,United States,(570) 454-5935,40.97724,-76.01118,"Monday 7:30AM - 7:00PM, Tuesday 7:30AM - 7:00PM, Wednesday 7:30AM - 7:00PM, Thursday 7:30AM - 7:00PM, Friday 7:30AM - 7:00PM, Saturday 7:30AM - 6:00PM, Sunday 9:00AM - 5:00PM",,,
Monro,149,1191 Loucks Road,,York,PA,17404,United States,(717) 925-8515,39.9781,-76.7599,"Monday 7:30AM - 7:00PM, Tuesday 7:30AM - 7:00PM, Wednesday 7:30AM - 7:00PM, Thursday 7:30AM - 7:00PM, Friday 7:30AM - 7:00PM, Saturday 7:30AM - 6:00PM, Sunday 9:00AM - 5:00PM",,,
Monro,502,499 Eisenhower Blvd.,,Harrisburg,PA,17111,United States,(717) 564-5238,40.2489471,-76.81321,"Monday 7:30AM - 7:00PM, Tuesday 7:30AM - 7:00PM, Wednesday 7:30AM - 7:00PM, Thursday 7:30AM - 7:00PM, Friday 7:30AM - 7:00PM, Saturday 7:30AM - 6:00PM, Sunday 9:00AM - 5:00PM",,,
Monro,162,5501 Allentown Blvd.,,Harrisburg,PA,17112,United States,(717) 545-8422,40.31754,-76.79562,"Monday 7:30AM - 7:00PM, Tuesday 7:30AM - 7:00PM, Wednesday 7:30AM - 7:00PM, Thursday 7:30AM - 7:00PM, Friday 7:30AM - 7:00PM, Saturday 7:30AM - 6:00PM, Sunday 9:00AM - 5:00PM",,,
Monro,504,3320 Walnut Street,,Harrisburg,PA,17109,United States,(717) 657-3257,40.2851143,-76.84205,"Monday 7:30AM - 7:00PM, Tuesday 7:30AM - 7:00PM, Wednesday 7:30AM - 7:00PM, Thursday 7:30AM - 7:00PM, Friday 7:30AM - 7:00PM, Saturday 7:30AM - 6:00PM, Sunday Closed",,,
Monro,199,1051 Market Street,,Lemoyne,PA,17043,United States,(717) 925-8510,40.2427254,-76.90534,"Monday 7:30AM - 7:00PM, Tuesday 7:30AM - 7:00PM, Wednesday 7:30AM - 7:00PM, Thursday 7:30AM - 7:00PM, Friday 7:30AM - 7:00PM, Saturday 7:30AM - 6:00PM, Sunday 9:00AM - 5:00PM",,,
Monro,165,1051 Wilkes Barre Twp. Blvd.,,Wilkes Barre,PA,18702,United States,(570) 826-8970,41.2213058,-75.88279,"Monday 7:30AM - 7:00PM, Tuesday 7:30AM - 7:00PM, Wednesday 7:30AM - 7:00PM, Thursday 7:30AM - 7:00PM, Friday 7:30AM - 7:00PM, Saturday 7:30AM - 6:00PM, Sunday 9:00AM - 5:00PM",,,
Monro,231,5 Kuhn Drive,,Hanover,PA,17331,United States,(717) 632-8100,39.81625,-76.99401,"Monday 7:30AM - 7:00PM, Tuesday 7:30AM - 7:00PM, Wednesday 7:30AM - 7:00PM, Thursday 7:30AM - 7:00PM, Friday 7:30AM - 7:00PM, Saturday 7:30AM - 6:00PM, Sunday 9:00AM - 5:00PM",,,
Monro,73,332 Wyoming Avenue,,Kingston,PA,18704,United States,(570) 283-1965,41.2645454,-75.89426,"Monday 7:30AM - 7:00PM, Tuesday 7:30AM - 7:00PM, Wednesday 7:30AM - 7:00PM, Thursday 7:30AM - 7:00PM, Friday 7:30AM - 7:00PM, Saturday 7:30AM - 6:00PM, Sunday Closed",,,
Monro,141,6045 Carlisle Pike,,Mechanicsburg,PA,17055,United States,(717) 925-8545,40.2158,-76.9983,"Monday 7:30AM - 7:00PM, Tuesday 7:30AM - 7:00PM, Wednesday 7:30AM - 7:00PM, Thursday 7:30AM - 7:00PM, Friday 7:30AM - 7:00PM, Saturday 7:30AM - 6:00PM, Sunday 9:00AM - 5:00PM",,,
Monro,203,901 Columbia Blvd.,,Bloomsburg,PA,17815,United States,(570) 784-2349,41.0040131,-76.43906,"Monday 7:30AM - 7:00PM, Tuesday 7:30AM - 7:00PM, Wednesday 7:30AM - 7:00PM, Thursday 7:30AM - 7:00PM, Friday 7:30AM - 7:00PM, Saturday 7:30AM - 6:00PM, Sunday 9:00AM - 5:00PM",,,
Monro,270,21 Tarleton Avenue,,Dallas,PA,18612,United States,(570) 674-6021,41.3360367,-75.96324,"Monday 7:30AM - 7:00PM, Tuesday 7:30AM - 7:00PM, Wednesday 7:30AM - 7:00PM, Thursday 7:30AM - 7:00PM, Friday 7:30AM - 7:00PM, Saturday 7:30AM - 6:00PM, Sunday 9:00AM - 5:00PM",,,
Monro,83,1038 O'Neill Highway,,Dunmore,PA,18512,United States,(570) 346-6093,41.43932,-75.61779,"Monday 7:30AM - 7:00PM, Tuesday 7:30AM - 7:00PM, Wednesday 7:30AM - 7:00PM, Thursday 7:30AM - 7:00PM, Friday 7:30AM - 7:00PM, Saturday 7:30AM - 6:00PM, Sunday Closed",,,
Monro,137,1817 N. Susquehanna Trail,,Selinsgrove,PA,17870,United States,(570) 743-6620,40.83078,-76.83628,"Monday 7:30AM - 7:00PM, Tuesday 7:30AM - 7:00PM, Wednesday 7:30AM - 7:00PM, Thursday 7:30AM - 7:00PM, Friday 7:30AM - 7:00PM, Saturday 7:30AM - 6:00PM, Sunday 9:00AM - 5:00PM",,,
Monro,209,919 Northern Blvd.,,Clarks Summitt,PA,18411,United States,(570) 586-3557,41.4806366,-75.6870346,"Monday 7:30AM - 7:00PM, Tuesday 7:30AM - 7:00PM, Wednesday 7:30AM - 7:00PM, Thursday 7:30AM - 7:00PM, Friday 7:30AM - 7:00PM, Saturday 7:30AM - 6:00PM, Sunday 9:00AM - 5:00PM",,,
Monro,76,480 Scranton-Carbondale Hwy,,Archbald,PA,18403,United States,(570) 876-5161,41.50049,-75.58082,"Monday 7:30AM - 7:00PM, Tuesday 7:30AM - 7:00PM, Wednesday 7:30AM - 7:00PM, Thursday 7:30AM - 7:00PM, Friday 7:30AM - 7:00PM, Saturday 7:30AM - 6:00PM, Sunday Closed",,,
Monro,371,616 Hunter Highway,,Tunkhannock,PA,18657,United States,(570) 836-8099,41.52929,-75.94793,"Monday 7:30AM - 7:00PM, Tuesday 7:30AM - 7:00PM, Wednesday 7:30AM - 7:00PM, Thursday 7:30AM - 7:00PM, Friday 7:30AM - 7:00PM, Saturday 7:30AM - 6:00PM, Sunday 9:00AM - 5:00PM",,,
Monro,84,1707 E. 3rd Street,,Williamsport,PA,17701,United States,(570) 326-0808,41.2505035,-76.9715,"Monday 7:30AM - 7:00PM, Tuesday 7:30AM - 7:00PM, Wednesday 7:30AM - 7:00PM, Thursday 7:30AM - 7:00PM, Friday 7:30AM - 7:00PM, Saturday 7:30AM - 6:00PM, Sunday 9:00AM - 5:00PM",,,
Monro,290,301 West Freedom Avenue,,Burnham,PA,17009,United States,(717) 242-8570,40.62903,-77.5778046,"Monday 7:30AM - 7:00PM, Tuesday 7:30AM - 7:00PM, Wednesday 7:30AM - 7:00PM, Thursday 7:30AM - 7:00PM, Friday 7:30AM - 7:00PM, Saturday 7:30AM - 6:00PM, Sunday Closed",,,
Monro,380,855 Golden Mile Road,,Towanda,PA,18848,United States,(570) 265-2200,41.77293,-76.40832,"Monday 7:30AM - 7:00PM, Tuesday 7:30AM - 7:00PM, Wednesday 7:30AM - 7:00PM, Thursday 7:30AM - 7:00PM, Friday 7:30AM - 7:00PM, Saturday 7:30AM - 6:00PM, Sunday 9:00AM - 5:00PM",,,
Monro,382,7588 Lake Raystown Shopping Ctr,,Huntingdon,PA,16652,United States,(814) 641-0264,40.47998,-78.0129547,"Monday 7:30AM - 7:00PM, Tuesday 7:30AM - 7:00PM, Wednesday 7:30AM - 7:00PM, Thursday 7:30AM - 7:00PM, Friday 7:30AM - 7:00PM, Saturday 7:30AM - 6:00PM, Sunday 9:00AM - 5:00PM",,,
Monro,133,1505 N Atherton St,,State College,PA,16803,United States,(814) 234-2911,40.81063,-77.91589,"Monday 7:30AM - 7:00PM, Tuesday 7:30AM - 7:00PM, Wednesday 7:30AM - 7:00PM, Thursday 7:30AM - 7:00PM, Friday 7:30AM - 7:00PM, Saturday 7:30AM - 6:00PM, Sunday 9:00AM - 5:00PM",,,
Monro,139,3008 Elmira Street,,Sayre,PA,18840,United States,(570) 888-7718,41.9867,-76.5478,"Monday 7:30AM - 7:00PM, Tuesday 7:30AM - 7:00PM, Wednesday 7:30AM - 7:00PM, Thursday 7:30AM - 7:00PM, Friday 7:30AM - 7:00PM, Saturday 7:30AM - 6:00PM, Sunday 9:00AM - 5:00PM",,,
Monro,322,1409 South Main Street,,Mansfield,PA,16933,United States,(570) 662-0920,41.7981,-77.0765,"Monday 7:30AM - 7:00PM, Tuesday 7:30AM - 7:00PM, Wednesday 7:30AM - 7:00PM, Thursday 7:30AM - 7:00PM, Friday 7:30AM - 7:00PM, Saturday 7:30AM - 6:00PM, Sunday 9:00AM - 5:00PM",,,
Monro,127,200 West Plank Rd,,Altoona,PA,16602,United States,(814) 943-0444,40.47518,-78.40532,"Monday 7:30AM - 7:00PM, Tuesday 7:30AM - 7:00PM, Wednesday 7:30AM - 7:00PM, Thursday 7:30AM - 7:00PM, Friday 7:30AM - 7:00PM, Saturday 7:30AM - 6:00PM, Sunday 9:00AM - 5:00PM",,,
Monro,129,111 Luther Rd,,Johnstown,PA,15904,United States,(814) 266-4955,40.2797852,-78.86187,"Monday 7:30AM - 7:00PM, Tuesday 7:30AM - 7:00PM, Wednesday 7:30AM - 7:00PM, Thursday 7:30AM - 7:00PM, Friday 7:30AM - 7:00PM, Saturday 7:30AM - 6:00PM, Sunday 9:00AM - 5:00PM",,,
Monro,273,1769 Lyter Dr,,Johnstown,PA,15905,United States,(814) 255-1444,40.32067,-78.9563446,"Monday 7:30AM - 7:00PM, Tuesday 7:30AM - 7:00PM, Wednesday 7:30AM - 7:00PM, Thursday 7:30AM - 7:00PM, Friday 7:30AM - 7:00PM, Saturday 7:30AM - 6:00PM, Sunday 9:00AM - 5:00PM",,,
Monro,366,989 E DuBois Ave,,DuBois,PA,15801,United States,(814) 375-9250,41.1292572,-78.76305,"Monday 7:30AM - 7:00PM, Tuesday 7:30AM - 7:00PM, Wednesday 7:30AM - 7:00PM, Thursday 7:30AM - 7:00PM, Friday 7:30AM - 7:00PM, Saturday 7:30AM - 6:00PM, Sunday 9:00AM - 5:00PM",,,
Monro,123,1336 Oakland Ave,,Indiana,PA,15701,United States,(724) 465-9666,40.61537,-79.16692,"Monday 7:30AM - 7:00PM, Tuesday 7:30AM - 7:00PM, Wednesday 7:30AM - 7:00PM, Thursday 7:30AM - 7:00PM, Friday 7:30AM - 7:00PM, Saturday 7:30AM - 6:00PM, Sunday 9:00AM - 5:00PM",,,
Monro,21,1030 Main Street East,,Bradford,PA,16701,United States,(814) 362-6888,41.98267,-78.61741,"Monday 7:30AM - 7:00PM, Tuesday 7:30AM - 7:00PM, Wednesday 7:30AM - 7:00PM, Thursday 7:30AM - 7:00PM, Friday 7:30AM - 7:00PM, Saturday 7:30AM - 6:00PM, Sunday Closed",,,
Monro,603,100 Summit Ridge Plz,,Mt. Pleasant,PA,15666,United States,(724) 547-5001,40.1282,-79.5485,"Monday 7:30AM - 7:00PM, Tuesday 7:30AM - 7:00PM, Wednesday 7:30AM - 7:00PM, Thursday 7:30AM - 7:00PM, Friday 7:30AM - 7:00PM, Saturday 7:30AM - 6:00PM, Sunday 9:00AM - 5:00PM",,,
Monro,608,100 Perkins Road,,Clarion,PA,16214,United States,(814) 223-4078,41.19047,-79.39775,"Monday 7:30AM - 7:00PM, Tuesday 7:30AM - 7:00PM, Wednesday 7:30AM - 7:00PM, Thursday 7:30AM - 7:00PM, Friday 7:30AM - 7:00PM, Saturday 7:30AM - 6:00PM, Sunday 9:00AM - 5:00PM",,,
Monro,117,9435 Route 30,,Irwin,PA,15642,United States,(724) 864-9303,40.32227,-79.69545,"Monday 7:30AM - 7:00PM, Tuesday 7:30AM - 7:00PM, Wednesday 7:30AM - 7:00PM, Thursday 7:30AM - 7:00PM, Friday 7:30AM - 7:00PM, Saturday 7:30AM - 6:00PM, Sunday 9:00AM - 5:00PM",,,
Monro,86,1753 Golden Mile Hwy,,Monroeville,PA,15146,United States,(724) 325-2660,40.45117,-79.7135,"Monday 7:30AM - 7:00PM, Tuesday 7:30AM - 7:00PM, Wednesday 7:30AM - 7:00PM, Thursday 7:30AM - 7:00PM, Friday 7:30AM - 7:00PM, Saturday 7:30AM - 6:00PM, Sunday 9:00AM - 5:00PM",,,
Monro,606,272 McClellandtown Rd,,Uniontown,PA,15401,United States,(724) 425-2300,39.90167,-79.74153,"Monday 7:30AM - 7:00PM, Tuesday 7:30AM - 7:00PM, Wednesday 7:30AM - 7:00PM, Thursday 7:30AM - 7:00PM, Friday 7:30AM - 7:00PM, Saturday 7:30AM - 6:00PM, Sunday 9:00AM - 5:00PM",,,
Monro,110,1813 Lincoln Highway,,N. Versailles,PA,15137,United States,(412) 824-0162,40.3685379,-79.78183,"Monday 7:30AM - 7:00PM, Tuesday 7:30AM - 7:00PM, Wednesday 7:30AM - 7:00PM, Thursday 7:30AM - 7:00PM, Friday 7:30AM - 7:00PM, Saturday 7:30AM - 6:00PM, Sunday 9:00AM - 5:00PM",,,
Monro,122,91 Tarentum Bridge Rd,,New Kensington,PA,15068,United States,(724) 371-3600,40.58942,-79.75008,"Monday 7:30AM - 7:00PM, Tuesday 7:30AM - 7:00PM, Wednesday 7:30AM - 7:00PM, Thursday 7:30AM - 7:00PM, Friday 7:30AM - 7:00PM, Saturday 7:30AM - 6:00PM, Sunday 9:00AM - 5:00PM",,,
Monro,572,3754 William Penn Hwy,,Monroeville,PA,15146,United States,(412) 206-0225,40.4353752,-79.78791,"Monday 7:30AM - 7:00PM, Tuesday 7:30AM - 7:00PM, Wednesday 7:30AM - 7:00PM, Thursday 7:30AM - 7:00PM, Friday 7:30AM - 7:00PM, Saturday 7:30AM - 6:00PM, Sunday 9:00AM - 5:00PM",,,
Monro,307,80 Hatch Run Road,,Warren,PA,16365,United States,(814) 726-7114,41.8949,-79.13686,"Monday 7:30AM - 7:00PM, Tuesday 7:30AM - 7:00PM, Wednesday 7:30AM - 7:00PM, Thursday 7:30AM - 7:00PM, Friday 7:30AM - 7:00PM, Saturday 7:30AM - 6:00PM, Sunday 9:00AM - 5:00PM",,,
Monro,151,465 Rodi Rd,,Penn Hills,PA,15235,United States,(412) 731-8830,40.45326,-79.8248138,"Monday 7:30AM - 7:00PM, Tuesday 7:30AM - 7:00PM, Wednesday 7:30AM - 7:00PM, Thursday 7:30AM - 7:00PM, Friday 7:30AM - 7:00PM, Saturday 7:30AM - 6:00PM, Sunday 9:00AM - 5:00PM",,,
Monro,561,11753 Frankstown Rd,,Penn Hills,PA,15235,United States,(412) 731-6600,40.4673767,-79.82581,"Monday 7:30AM - 7:00PM, Tuesday 7:30AM - 7:00PM, Wednesday 7:30AM - 7:00PM, Thursday 7:30AM - 7:00PM, Friday 7:30AM - 7:00PM, Saturday 7:30AM - 6:00PM, Sunday 9:00AM - 5:00PM",,,
Monro,568,1627 Lysle Blvd,,McKeesport,PA,15132,United States,(412) 672-1232,40.3526077,-79.8489,"Monday 7:30AM - 6:00PM, Tuesday 7:30AM - 6:00PM, Wednesday 7:30AM - 6:00PM, Thursday 7:30AM - 6:00PM, Friday 7:30AM - 6:00PM, Saturday 7:30AM - 6:00PM, Sunday Closed",,,
Monro,373,60 Allegheny River Blvd,,Verona,PA,15147,United States,(412) 206-0022,40.4943,-79.84659,"Monday 7:30AM - 7:00PM, Tuesday 7:30AM - 7:00PM, Wednesday 7:30AM - 7:00PM, Thursday 7:30AM - 7:00PM, Friday 7:30AM - 7:00PM, Saturday 7:30AM - 6:00PM, Sunday 9:00AM - 5:00PM",,,
Monro,563,901 Penn Ave,,Wilkinsburg,PA,15221,United States,(412) 242-9400,40.44248,-79.880455,"Monday 7:30AM - 6:00PM, Tuesday 7:30AM - 6:00PM, Wednesday 7:30AM - 6:00PM, Thursday 7:30AM - 6:00PM, Friday 7:30AM - 6:00PM, Saturday 7:30AM - 6:00PM, Sunday 9:00AM - 5:00PM",,,
Monro,105,580 Clairton Boulevard Route 51,,Pleasant Hills,PA,15236,United States,(412) 653-7444,40.33373,-79.94614,"Monday 7:30AM - 7:00PM, Tuesday 7:30AM - 7:00PM, Wednesday 7:30AM - 7:00PM, Thursday 7:30AM - 7:00PM, Friday 7:30AM - 7:00PM, Saturday 7:30AM - 6:00PM, Sunday 9:00AM - 5:00PM",,,
Monro,646,3530 Blvd of the Allies,,Pittsburgh,PA,15213,United States,(412) 206-0223,40.4353638,-79.95587,"Monday 7:30AM - 6:00PM, Tuesday 7:30AM - 6:00PM, Wednesday 7:30AM - 6:00PM, Thursday 7:30AM - 6:00PM, Friday 7:30AM - 6:00PM, Saturday 7:30AM - 6:00PM, Sunday 9:00AM - 5:00PM",,,
Monro,155,78 Brookside Avenue,,Chester,NY,10918,United States,(845) 469-9688,41.353508,-74.27893,"Monday 7:30AM - 7:00PM, Tuesday 7:30AM - 7:00PM, Wednesday 7:30AM - 7:00PM, Thursday 7:30AM - 7:00PM, Friday 7:30AM - 7:00PM, Saturday 7:30AM - 6:00PM, Sunday 9:00AM - 5:00PM",,,
Monro,206,891 Route 94,,Vails Gate,NY,12584,United States,(845) 565-9716,41.4541,-74.058,"Monday 7:30AM - 7:00PM, Tuesday 7:30AM - 7:00PM, Wednesday 7:30AM - 7:00PM, Thursday 7:30AM - 7:00PM, Friday 7:30AM - 7:00PM, Saturday 7:30AM - 6:00PM, Sunday 9:00AM - 5:00PM",,,
Monro,305,173 Dolson Avenue,,Middletown,NY,10940,United States,(845) 343-9131,41.4259644,-74.42869,"Monday 7:30AM - 7:00PM, Tuesday 7:30AM - 7:00PM, Wednesday 7:30AM - 7:00PM, Thursday 7:30AM - 7:00PM, Friday 7:30AM - 7:00PM, Saturday 7:30AM - 6:00PM, Sunday 9:00AM - 5:00PM",,,
Monro,323,64 North Plank Road,,Newburgh,NY,12550,United States,(845) 561-0559,41.51818,-74.02047,"Monday 7:30AM - 7:00PM, Tuesday 7:30AM - 7:00PM, Wednesday 7:30AM - 7:00PM, Thursday 7:30AM - 7:00PM, Friday 7:30AM - 7:00PM, Saturday 7:30AM - 6:00PM, Sunday 9:00AM - 5:00PM",,,
Monro,1303,1344 Route 9,,Wappingers Falls,NY,12590,United States,(845) 298-0461,41.5800438,-73.90806,"Monday 7:30AM - 7:00PM, Tuesday 7:30AM - 7:00PM, Wednesday 7:30AM - 7:00PM, Thursday 7:30AM - 7:00PM, Friday 7:30AM - 7:00PM, Saturday 7:30AM - 6:00PM, Sunday 9:00AM - 5:00PM",,,
Monro,45,350 Mill Street,,Poughkeepsie,NY,12601,United States,(845) 452-6262,41.7031059,-73.92308,"Monday 7:30AM - 6:00PM, Tuesday 7:30AM - 6:00PM, Wednesday 7:30AM - 6:00PM, Thursday 7:30AM - 6:00PM, Friday 7:30AM - 6:00PM, Saturday 7:30AM - 6:00PM, Sunday 9:00AM - 5:00PM",,,
Monro,183,4220 Albany Post Road (Route 9),,Hyde Park,NY,12538,United States,(845) 229-5797,41.7893639,-73.93514,"Monday 7:30AM - 7:00PM, Tuesday 7:30AM - 7:00PM, Wednesday 7:30AM - 7:00PM, Thursday 7:30AM - 7:00PM, Friday 7:30AM - 7:00PM, Saturday 7:30AM - 6:00PM, Sunday 9:00AM - 5:00PM",,,
Monro,23,819 Ulster Avenue,,Kingston,NY,12401,United States,(845) 331-3300,41.95179,-73.9962,"Monday 7:30AM - 7:00PM, Tuesday 7:30AM - 7:00PM, Wednesday 7:30AM - 7:00PM, Thursday 7:30AM - 7:00PM, Friday 7:30AM - 7:00PM, Saturday 7:30AM - 6:00PM, Sunday 9:00AM - 5:00PM",,,
Monro,226,6821 Route 9,,Rhinebeck,NY,12572,United States,(845) 876-7295,41.96042,-73.8896,"Monday 7:30AM - 7:00PM, Tuesday 7:30AM - 7:00PM, Wednesday 7:30AM - 7:00PM, Thursday 7:30AM - 7:00PM, Friday 7:30AM - 7:00PM, Saturday 7:30AM - 6:00PM, Sunday 9:00AM - 5:00PM",,,
Monro,223,3160 Route 9 West,,Saugerties,NY,12477,United States,(845) 246-0026,42.087,-73.9819,"Monday 7:30AM - 7:00PM, Tuesday 7:30AM - 7:00PM, Wednesday 7:30AM - 7:00PM, Thursday 7:30AM - 7:00PM, Friday 7:30AM - 7:00PM, Saturday 7:30AM - 6:00PM, Sunday 9:00AM - 5:00PM",,,
Monro,36,60 Fairview Ave,,Hudson,NY,12534,United States,(518) 828-1188,42.2495,-73.7712,"Monday 7:30AM - 7:00PM, Tuesday 7:30AM - 7:00PM, Wednesday 7:30AM - 7:00PM, Thursday 7:30AM - 7:00PM, Friday 7:30AM - 7:00PM, Saturday 7:30AM - 6:00PM, Sunday 9:00AM - 5:00PM",,,
Monro,569,4913 Route 8,,Allison Park,PA,15101,United States,(724) 443-3040,40.59192,-79.94858,"Monday 7:30AM - 7:00PM, Tuesday 7:30AM - 7:00PM, Wednesday 7:30AM - 7:00PM, Thursday 7:30AM - 7:00PM, Friday 7:30AM - 7:00PM, Saturday 7:30AM - 6:00PM, Sunday 9:00AM - 5:00PM",,,
Monro,78,2719 Library Road,,Pittsburgh,PA,15234,United States,(412) 881-2595,40.37789,-80.00335,"Monday 7:30AM - 7:00PM, Tuesday 7:30AM - 7:00PM, Wednesday 7:30AM - 7:00PM, Thursday 7:30AM - 7:00PM, Friday 7:30AM - 7:00PM, Saturday 7:30AM - 6:00PM, Sunday 9:00AM - 5:00PM",,,
Monro,244,5200 Library Rd,,Bethel Park,PA,15102,United States,(412) 206-0222,40.3332138,-80.02397,"Monday 7:30AM - 7:00PM, Tuesday 7:30AM - 7:00PM, Wednesday 7:30AM - 7:00PM, Thursday 7:30AM - 7:00PM, Friday 7:30AM - 7:00PM, Saturday 7:30AM - 6:00PM, Sunday 9:00AM - 5:00PM",,,
Monro,81,178 New Castle Rd,,Butler,PA,16001,United States,(724) 282-6668,40.8683319,-79.92387,"Monday 7:30AM - 7:00PM, Tuesday 7:30AM - 7:00PM, Wednesday 7:30AM - 7:00PM, Thursday 7:30AM - 7:00PM, Friday 7:30AM - 7:00PM, Saturday 7:30AM - 6:00PM, Sunday 9:00AM - 5:00PM",,,
Monro,398,4844 McKnight Rd,,Pittsburgh,PA,15237,United States,(412) 206-0224,40.52847,-80.00757,"Monday 7:30AM - 7:00PM, Tuesday 7:30AM - 7:00PM, Wednesday 7:30AM - 7:00PM, Thursday 7:30AM - 7:00PM, Friday 7:30AM - 7:00PM, Saturday 7:30AM - 6:00PM, Sunday 9:00AM - 5:00PM",,,
Monro,565,3145 W Liberty Ave,,Pittsburgh,PA,15216,United States,(412) 344-6030,40.39611,-80.03286,"Monday 7:30AM - 7:00PM, Tuesday 7:30AM - 7:00PM, Wednesday 7:30AM - 7:00PM, Thursday 7:30AM - 7:00PM, Friday 7:30AM - 7:00PM, Saturday 7:30AM - 6:00PM, Sunday 9:00AM - 5:00PM",,,
Monro,896,297 Mt. Lebanon Blvd,,Pittsburgh,PA,15234,United States,(412) 343-6860,40.36806,-80.03724,"Monday 7:30AM - 7:00PM, Tuesday 7:30AM - 7:00PM, Wednesday 7:30AM - 7:00PM, Thursday 7:30AM - 7:00PM, Friday 7:30AM - 7:00PM, Saturday 7:30AM - 6:00PM, Sunday 9:00AM - 5:00PM",,,
Monro,886,801 Westview Park Dr,,Pittsburgh,PA,15229,United States,(412) 931-2732,40.51782,-80.0322,"Monday 7:30AM - 6:00PM, Tuesday 7:30AM - 6:00PM, Wednesday 7:30AM - 6:00PM, Thursday 7:30AM - 6:00PM, Friday 7:30AM - 6:00PM, Saturday 7:30AM - 6:00PM, Sunday Closed",,,
Monro,895,331 Cochran Rd,,Mt. Lebanon,PA,15228,United States,(412) 206-0180,40.38066,-80.05236,"Monday 7:30AM - 7:00PM, Tuesday 7:30AM - 7:00PM, Wednesday 7:30AM - 7:00PM, Thursday 7:30AM - 7:00PM, Friday 7:30AM - 7:00PM, Saturday 7:30AM - 6:00PM, Sunday 9:00AM - 5:00PM",,,
Monro,104,2175 Noblestown Rd,,Crafton,PA,15205,United States,(412) 693-1095,40.42645,-80.05916,"Monday 7:30AM - 7:00PM, Tuesday 7:30AM - 7:00PM, Wednesday 7:30AM - 7:00PM, Thursday 7:30AM - 7:00PM, Friday 7:30AM - 7:00PM, Saturday 7:30AM - 6:00PM, Sunday 9:00AM - 5:00PM",,,
Monro,121,969 Ohio River Blvd,,Avalon,PA,15202,United States,(412) 761-2712,40.49473,-80.06522,"Monday 7:30AM - 7:00PM, Tuesday 7:30AM - 7:00PM, Wednesday 7:30AM - 7:00PM, Thursday 7:30AM - 7:00PM, Friday 7:30AM - 7:00PM, Saturday 7:30AM - 6:00PM, Sunday 9:00AM - 5:00PM",,,
Monro,890,10551 Perry Hwy,,Wexford,PA,15090,United States,(724) 935-0431,40.61634,-80.05536,"Monday 7:30AM - 7:00PM, Tuesday 7:30AM - 7:00PM, Wednesday 7:30AM - 7:00PM, Thursday 7:30AM - 7:00PM, Friday 7:30AM - 7:00PM, Saturday 7:30AM - 6:00PM, Sunday 9:00AM - 5:00PM",,,
Monro,274,3057 Washington Pike,,Bridgeville,PA,15017,United States,(412) 220-9223,40.35059,-80.11289,"Monday 7:30AM - 7:00PM, Tuesday 7:30AM - 7:00PM, Wednesday 7:30AM - 7:00PM, Thursday 7:30AM - 7:00PM, Friday 7:30AM - 7:00PM, Saturday 7:30AM - 6:00PM, Sunday 9:00AM - 5:00PM",,,
Monro,67,562 Allegheny Blvd.,,Franklin,PA,16323,United States,(814) 432-3995,41.40297,-79.80655,"Monday 7:30AM - 7:00PM, Tuesday 7:30AM - 7:00PM, Wednesday 7:30AM - 7:00PM, Thursday 7:30AM - 7:00PM, Friday 7:30AM - 7:00PM, Saturday 7:30AM - 6:00PM, Sunday Closed",,,
Monro,393,454 Route 9W,,Glenmont,NY,12077,United States,(518) 282-2999,42.6012268,-73.79223,"Monday 7:30AM - 7:00PM, Tuesday 7:30AM - 7:00PM, Wednesday 7:30AM - 7:00PM, Thursday 7:30AM - 7:00PM, Friday 7:30AM - 7:00PM, Saturday 7:30AM - 6:00PM, Sunday 9:00AM - 5:00PM",,,
Monro,107,512 Columbia Turnpike,,E. Greenbush,NY,12061,United States,(518) 477-7868,42.6013222,-73.712944,"Monday 7:30AM - 7:00PM, Tuesday 7:30AM - 7:00PM, Wednesday 7:30AM - 7:00PM, Thursday 7:30AM - 7:00PM, Friday 7:30AM - 7:00PM, Saturday 7:30AM - 6:00PM, Sunday 9:00AM - 5:00PM",,,
Monro,130,555 Main Street,,Oneonta,NY,13820,United States,(607) 433-1080,42.457058,-75.0404358,"Monday 7:30AM - 7:00PM, Tuesday 7:30AM - 7:00PM, Wednesday 7:30AM - 7:00PM, Thursday 7:30AM - 7:00PM, Friday 7:30AM - 7:00PM, Saturday 7:30AM - 6:00PM, Sunday 9:00AM - 5:00PM",,,
Monro,180,980 Central Avenue,,Albany,NY,12205,United States,(518) 482-2896,42.68374,-73.7947,"Monday 7:30AM - 7:00PM, Tuesday 7:30AM - 7:00PM, Wednesday 7:30AM - 7:00PM, Thursday 7:30AM - 7:00PM, Friday 7:30AM - 7:00PM, Saturday 7:30AM - 6:00PM, Sunday 9:00AM - 5:00PM",,,
Monro,35,1745 Western Avenue,,Guilderland,NY,12203,United States,(518) 456-8117,42.6889954,-73.86254,"Monday 7:30AM - 7:00PM, Tuesday 7:30AM - 7:00PM, Wednesday 7:30AM - 7:00PM, Thursday 7:30AM - 7:00PM, Friday 7:30AM - 7:00PM, Saturday 7:30AM - 6:00PM, Sunday 9:00AM - 5:00PM",,,
Monro,1350,420 Court Street,,Binghamton,NY,13904,United States,(607) 724-2469,42.1040726,-75.88332,"Monday 7:30AM - 7:00PM, Tuesday 7:30AM - 7:00PM, Wednesday 7:30AM - 7:00PM, Thursday 7:30AM - 7:00PM, Friday 7:30AM - 7:00PM, Saturday 7:30AM - 6:00PM, Sunday Closed",,,
Monro,255,108 Merchant Place,,Cobleskill,NY,12043,United States,(518) 234-0262,42.6813431,-74.42696,"Monday 7:30AM - 7:00PM, Tuesday 7:30AM - 7:00PM, Wednesday 7:30AM - 7:00PM, Thursday 7:30AM - 7:00PM, Friday 7:30AM - 7:00PM, Saturday 7:30AM - 6:00PM, Sunday 9:00AM - 5:00PM",,,
Monro,44,1550 Central Avenue,,Colonie,NY,12205,United States,(518) 869-5339,42.71465,-73.83022,"Monday 7:30AM - 7:00PM, Tuesday 7:30AM - 7:00PM, Wednesday 7:30AM - 7:00PM, Thursday 7:30AM - 7:00PM, Friday 7:30AM - 7:00PM, Saturday 7:30AM - 6:00PM, Sunday 9:00AM - 5:00PM",,,
Monro,38,4009 Vestal Parkway,,Vestal,NY,13850,United States,(607) 729-1254,42.0964279,-75.97535,"Monday 7:30AM - 7:00PM, Tuesday 7:30AM - 7:00PM, Wednesday 7:30AM - 7:00PM, Thursday 7:30AM - 7:00PM, Friday 7:30AM - 7:00PM, Saturday 7:30AM - 6:00PM, Sunday 9:00AM - 5:00PM",,,
Monro,31,1268 Front Street,,Binghamton,NY,13901,United States,(607) 723-0156,42.16046,-75.89415,"Monday 7:30AM - 7:00PM, Tuesday 7:30AM - 7:00PM, Wednesday 7:30AM - 7:00PM, Thursday 7:30AM - 7:00PM, Friday 7:30AM - 7:00PM, Saturday 7:30AM - 6:00PM, Sunday 9:00AM - 5:00PM",,,
Monro,233,691 New Loudon Road,,Latham,NY,12110,United States,(518) 786-1058,42.7383766,-73.76238,"Monday 7:30AM - 7:00PM, Tuesday 7:30AM - 7:00PM, Wednesday 7:30AM - 7:00PM, Thursday 7:30AM - 7:00PM, Friday 7:30AM - 7:00PM, Saturday 7:30AM - 6:00PM, Sunday Closed",,,
Monro,377,173 Oakdale Road,,Johnson City,NY,13790,United States,(607) 729-7211,42.1232,-75.978,"Monday 7:30AM - 7:00PM, Tuesday 7:30AM - 7:00PM, Wednesday 7:30AM - 7:00PM, Thursday 7:30AM - 7:00PM, Friday 7:30AM - 7:00PM, Saturday 7:30AM - 6:00PM, Sunday 9:00AM - 5:00PM",,,
Monro,34,3200 E. Main Street,,Endwell,NY,13760,United States,(607) 748-1531,42.1064873,-76.02438,"Monday 7:30AM - 7:00PM, Tuesday 7:30AM - 7:00PM, Wednesday 7:30AM - 7:00PM, Thursday 7:30AM - 7:00PM, Friday 7:30AM - 7:00PM, Saturday 7:30AM - 6:00PM, Sunday 9:00AM - 5:00PM",,,
Monro,39,1702 Chrisler Avenue,,Schenectady,NY,12303,United States,(518) 382-1601,42.78957,-73.93788,"Monday 7:30AM - 7:00PM, Tuesday 7:30AM - 7:00PM, Wednesday 7:30AM - 7:00PM, Thursday 7:30AM - 7:00PM, Friday 7:30AM - 7:00PM, Saturday 7:30AM - 6:00PM, Sunday Closed",,,
Monro,306,5607 State Highway 12,,Norwich,NY,13815,United States,(607) 336-1899,42.50873,-75.52229,"Monday 7:30AM - 7:00PM, Tuesday 7:30AM - 7:00PM, Wednesday 7:30AM - 7:00PM, Thursday 7:30AM - 7:00PM, Friday 7:30AM - 7:00PM, Saturday 7:30AM - 6:00PM, Sunday 9:00AM - 5:00PM",,,
Monro,146,1511 Route 9,,Clifton Park,NY,12065,United States,(518) 383-9007,42.84093,-73.74464,"Monday 7:30AM - 7:00PM, Tuesday 7:30AM - 7:00PM, Wednesday 7:30AM - 7:00PM, Thursday 7:30AM - 7:00PM, Friday 7:30AM - 7:00PM, Saturday 7:30AM - 6:00PM, Sunday 9:00AM - 5:00PM",,,
Monro,384,501 West Central Avenue,,Titusville,PA,16354,United States,(814) 827-8181,41.62701,-79.68567,"Monday 7:30AM - 7:00PM, Tuesday 7:30AM - 7:00PM, Wednesday 7:30AM - 7:00PM, Thursday 7:30AM - 7:00PM, Friday 7:30AM - 7:00PM, Saturday 7:30AM - 6:00PM, Sunday Closed",,,
Monro,197,3620 Washington Rd,,McMurray,PA,15317,United States,(724) 941-6344,40.2637138,-80.13208,"Monday 7:30AM - 7:00PM, Tuesday 7:30AM - 7:00PM, Wednesday 7:30AM - 7:00PM, Thursday 7:30AM - 7:00PM, Friday 7:30AM - 7:00PM, Saturday 7:30AM - 6:00PM, Sunday 9:00AM - 5:00PM",,,
Monro,389,105 Greene Plaza,,Waynesburg,PA,15370,United States,(724) 627-0999,39.89605,-80.14221,"Monday 7:30AM - 7:00PM, Tuesday 7:30AM - 7:00PM, Wednesday 7:30AM - 7:00PM, Thursday 7:30AM - 7:00PM, Friday 7:30AM - 7:00PM, Saturday 7:30AM - 6:00PM, Sunday 9:00AM - 5:00PM",,,
Monro,397,57 Dutilh Rd,,Cranberry TWP,PA,16066,United States,(724) 371-3601,40.68738,-80.1008,"Monday 7:30AM - 7:00PM, Tuesday 7:30AM - 7:00PM, Wednesday 7:30AM - 7:00PM, Thursday 7:30AM - 7:00PM, Friday 7:30AM - 7:00PM, Saturday 7:30AM - 6:00PM, Sunday 9:00AM - 5:00PM",,,
Monro,356,410 Home Dr,,Pittsburgh,PA,15275,United States,(412) 206-0063,40.4499054,-80.18183,"Monday 7:30AM - 7:00PM, Tuesday 7:30AM - 7:00PM, Wednesday 7:30AM - 7:00PM, Thursday 7:30AM - 7:00PM, Friday 7:30AM - 7:00PM, Saturday 7:30AM - 6:00PM, Sunday 9:00AM - 5:00PM",,,
Monro,889,209 Ohio River Blvd,,Sewickley,PA,15143,United States,(412) 741-4345,40.5449677,-80.19357,"Monday 7:30AM - 7:00PM, Tuesday 7:30AM - 7:00PM, Wednesday 7:30AM - 7:00PM, Thursday 7:30AM - 7:00PM, Friday 7:30AM - 7:00PM, Saturday 7:30AM - 6:00PM, Sunday Closed",,,
Monro,154,131 Murtland Ave,,Washington,PA,15301,United States,(724) 638-4188,40.1799431,-80.236145,"Monday 7:30AM - 7:00PM, Tuesday 7:30AM - 7:00PM, Wednesday 7:30AM - 7:00PM, Thursday 7:30AM - 7:00PM, Friday 7:30AM - 7:00PM, Saturday 7:30AM - 6:00PM, Sunday 9:00AM - 5:00PM",,,
Monro,566,2000 Third Avenue,,New Brighton,PA,15066,United States,(724) 847-2300,40.7215042,-80.3032,"Monday 7:30AM - 6:00PM, Tuesday 7:30AM - 6:00PM, Wednesday 7:30AM - 6:00PM, Thursday 7:30AM - 6:00PM, Friday 7:30AM - 6:00PM, Saturday 7:30AM - 6:00PM, Sunday Closed",,,
Monro,112,923 7th Avenue,,Beaver Falls,PA,15010,United States,(724) 847-1888,40.75085,-80.31919,"Monday 7:30AM - 6:00PM, Tuesday 7:30AM - 6:00PM, Wednesday 7:30AM - 6:00PM, Thursday 7:30AM - 6:00PM, Friday 7:30AM - 6:00PM, Saturday 7:30AM - 6:00PM, Sunday Closed",,,
Monro,26,19025 Park Avenue Plaza,,Meadville,PA,16335,United States,(814) 336-6246,41.63319,-80.15197,"Monday 7:30AM - 7:00PM, Tuesday 7:30AM - 7:00PM, Wednesday 7:30AM - 7:00PM, Thursday 7:30AM - 7:00PM, Friday 7:30AM - 7:00PM, Saturday 7:30AM - 6:00PM, Sunday 9:00AM - 5:00PM",,,
Monro,364,12513 Edinboro Road,,Edinboro,PA,16412,United States,(814) 734-6075,41.8962822,-80.12677,"Monday 7:30AM - 7:00PM, Tuesday 7:30AM - 7:00PM, Wednesday 7:30AM - 7:00PM, Thursday 7:30AM - 7:00PM, Friday 7:30AM - 7:00PM, Saturday 7:30AM - 6:00PM, Sunday 9:00AM - 5:00PM",,,
Monro,664,2080 E. State Street,,Hermitage,PA,16148,United States,(724) 981-0668,41.23323,-80.47067,"Monday 7:30AM - 7:00PM, Tuesday 7:30AM - 7:00PM, Wednesday 7:30AM - 7:00PM, Thursday 7:30AM - 7:00PM, Friday 7:30AM - 7:00PM, Saturday 7:30AM - 6:00PM, Sunday 9:00AM - 5:00PM",,,
Monro,25,4048 Buffalo Road,,Erie,PA,16510,United States,(814) 898-1561,42.14383,-80.008606,"Monday 7:30AM - 7:00PM, Tuesday 7:30AM - 7:00PM, Wednesday 7:30AM - 7:00PM, Thursday 7:30AM - 7:00PM, Friday 7:30AM - 7:00PM, Saturday 7:30AM - 6:00PM, Sunday 9:00AM - 5:00PM",,,
Monro,602,6601 Peach Street,,Erie,PA,16509,United States,(814) 868-0800,42.05804,-80.09076,"Monday 7:30AM - 7:00PM, Tuesday 7:30AM - 7:00PM, Wednesday 7:30AM - 7:00PM, Thursday 7:30AM - 7:00PM, Friday 7:30AM - 7:00PM, Saturday 7:30AM - 6:00PM, Sunday 9:00AM - 5:00PM",,,
Monro,29,4902 Peach Street,,Erie,PA,16509,United States,(814) 868-5282,42.0828972,-80.0898,"Monday 7:30AM - 7:00PM, Tuesday 7:30AM - 7:00PM, Wednesday 7:30AM - 7:00PM, Thursday 7:30AM - 7:00PM, Friday 7:30AM - 7:00PM, Saturday 7:30AM - 6:00PM, Sunday Closed",,,
Monro,1241,2536 W. 26th Street,,Erie,PA,16506,United States,(814) 456-2926,42.0915337,-80.1295242,"Monday 7:30AM - 7:00PM, Tuesday 7:30AM - 7:00PM, Wednesday 7:30AM - 7:00PM, Thursday 7:30AM - 7:00PM, Friday 7:30AM - 7:00PM, Saturday 7:30AM - 6:00PM, Sunday 9:00AM - 5:00PM",,,
Monro,227,3810 West 26th Street,,Erie,PA,16506,United States,(814) 835-7447,42.077095,-80.17175,"Monday 7:30AM - 7:00PM, Tuesday 7:30AM - 7:00PM, Wednesday 7:30AM - 7:00PM, Thursday 7:30AM - 7:00PM, Friday 7:30AM - 7:00PM, Saturday 7:30AM - 6:00PM, Sunday 9:00AM - 5:00PM",,,
Monro,28,10 Saratoga Road,,Glenville,NY,12302,United States,(518) 399-6773,42.8499832,-73.94277,"Monday 7:30AM - 7:00PM, Tuesday 7:30AM - 7:00PM, Wednesday 7:30AM - 7:00PM, Thursday 7:30AM - 7:00PM, Friday 7:30AM - 7:00PM, Saturday 7:30AM - 6:00PM, Sunday 9:00AM - 5:00PM",,,
Monro,370,1075 State Route 17C,,Owego,NY,13827,United States,(607) 687-8059,42.09765,-76.23266,"Monday 7:30AM - 7:00PM, Tuesday 7:30AM - 7:00PM, Wednesday 7:30AM - 7:00PM, Thursday 7:30AM - 7:00PM, Friday 7:30AM - 7:00PM, Saturday 7:30AM - 6:00PM, Sunday 9:00AM - 5:00PM",,,
Monro,42,4908 State Highway 30,,Amsterdam,NY,12010,United States,(518) 843-1931,42.9666328,-74.18685,"Monday 7:30AM - 7:00PM, Tuesday 7:30AM - 7:00PM, Wednesday 7:30AM - 7:00PM, Thursday 7:30AM - 7:00PM, Friday 7:30AM - 7:00PM, Saturday 7:30AM - 6:00PM, Sunday 9:00AM - 5:00PM",,,
Monro,360,7 Blacksmith Road,,Malta,NY,12020,United States,(518) 282-2995,42.96955,-73.79332,"Monday 7:30AM - 7:00PM, Tuesday 7:30AM - 7:00PM, Wednesday 7:30AM - 7:00PM, Thursday 7:30AM - 7:00PM, Friday 7:30AM - 7:00PM, Saturday 7:30AM - 6:00PM, Sunday 9:00AM - 5:00PM",,,
Monro,63,303 Comrie Avenue,,Johnstown,NY,12095,United States,(518) 762-7713,43.02046,-74.362114,"Monday 7:30AM - 7:00PM, Tuesday 7:30AM - 7:00PM, Wednesday 7:30AM - 7:00PM, Thursday 7:30AM - 7:00PM, Friday 7:30AM - 7:00PM, Saturday 7:30AM - 6:00PM, Sunday Closed",,,
Monro,280,134 S. Broadway,,Saratoga Springs,NY,12866,United States,(518) 584-3887,43.0691,-73.78857,"Monday 7:30AM - 7:00PM, Tuesday 7:30AM - 7:00PM, Wednesday 7:30AM - 7:00PM, Thursday 7:30AM - 7:00PM, Friday 7:30AM - 7:00PM, Saturday 7:30AM - 6:00PM, Sunday 9:00AM - 5:00PM",,,
Monro,75,300 E. State Street,,Herkimer,NY,13350,United States,(315) 866-2187,43.02688,-74.98236,"Monday 7:30AM - 7:00PM, Tuesday 7:30AM - 7:00PM, Wednesday 7:30AM - 7:00PM, Thursday 7:30AM - 7:00PM, Friday 7:30AM - 7:00PM, Saturday 7:30AM - 6:00PM, Sunday 9:00AM - 5:00PM",,,
Monro,80,1084 Route 222,,Cortland,NY,13045,United States,(607) 756-4918,42.59834,-76.20418,"Monday 7:30AM - 7:00PM, Tuesday 7:30AM - 7:00PM, Wednesday 7:30AM - 7:00PM, Thursday 7:30AM - 7:00PM, Friday 7:30AM - 7:00PM, Saturday 7:30AM - 6:00PM, Sunday 9:00AM - 5:00PM",,,
Monro,33,211 Pennsylvania Avenue,,Elmira,NY,14904,United States,(607) 732-6082,42.08397,-76.80007,"Monday 7:30AM - 7:00PM, Tuesday 7:30AM - 7:00PM, Wednesday 7:30AM - 7:00PM, Thursday 7:30AM - 7:00PM, Friday 7:30AM - 7:00PM, Saturday 7:30AM - 6:00PM, Sunday 9:00AM - 5:00PM",,,
Monro,16,338 Elmira Road,,Ithaca,NY,14850,United States,(607) 273-8600,42.4239845,-76.51477,"Monday 7:30AM - 7:00PM, Tuesday 7:30AM - 7:00PM, Wednesday 7:30AM - 7:00PM, Thursday 7:30AM - 7:00PM, Friday 7:30AM - 7:00PM, Saturday 7:30AM - 6:00PM, Sunday 9:00AM - 5:00PM",,,
Monro,18,2410 Corning Road,,Elmira,NY,14903,United States,(607) 734-2033,42.14583,-76.83119,"Monday 7:30AM - 7:00PM, Tuesday 7:30AM - 7:00PM, Wednesday 7:30AM - 7:00PM, Thursday 7:30AM - 7:00PM, Friday 7:30AM - 7:00PM, Saturday 7:30AM - 6:00PM, Sunday 9:00AM - 5:00PM",,,
Monro,62,225 N. Genesee Street,,Utica,NY,13502,United States,(315) 724-6735,43.1124649,-75.21557,"Monday 7:30AM - 7:00PM, Tuesday 7:30AM - 7:00PM, Wednesday 7:30AM - 7:00PM, Thursday 7:30AM - 7:00PM, Friday 7:30AM - 7:00PM, Saturday 7:30AM - 6:00PM, Sunday 8:00AM - 5:00PM",,,
Monro,396,2309 N. Triphammer Road,,Lansing,NY,14850,United States,(607) 210-2750,42.480423,-76.4835052,"Monday 7:30AM - 7:00PM, Tuesday 7:30AM - 7:00PM, Wednesday 7:30AM - 7:00PM, Thursday 7:30AM - 7:00PM, Friday 7:30AM - 7:00PM, Saturday 7:30AM - 6:00PM, Sunday 9:00AM - 5:00PM",,,
Monro,32,4944 Commercial Drive,,Yorkville,NY,13495,United States,(315) 768-6445,43.11445,-75.28375,"Monday 7:30AM - 7:00PM, Tuesday 7:30AM - 7:00PM, Wednesday 7:30AM - 7:00PM, Thursday 7:30AM - 7:00PM, Friday 7:30AM - 7:00PM, Saturday 7:30AM - 6:00PM, Sunday 9:00AM - 5:00PM",,,
Monro,669,314 Quaker Road,,Queensbury,NY,12804,United States,(518) 798-1000,43.33197,-73.65101,"Monday 7:30AM - 7:00PM, Tuesday 7:30AM - 7:00PM, Wednesday 7:30AM - 7:00PM, Thursday 7:30AM - 7:00PM, Friday 7:30AM - 7:00PM, Saturday 7:30AM - 6:00PM, Sunday Closed",,,
Monro,106,123 Genessee Street,,Oneida,NY,13421,United States,(315) 363-1901,43.0787544,-75.64293,"Monday 7:30AM - 7:00PM, Tuesday 7:30AM - 7:00PM, Wednesday 7:30AM - 7:00PM, Thursday 7:30AM - 7:00PM, Friday 7:30AM - 7:00PM, Saturday 7:30AM - 6:00PM, Sunday 9:00AM - 5:00PM",,,
Monro,22,368 W. Pulteney Street,,Corning,NY,14830,United States,(607) 962-2444,42.1528168,-77.0762253,"Monday 7:30AM - 7:00PM, Tuesday 7:30AM - 7:00PM, Wednesday 7:30AM - 7:00PM, Thursday 7:30AM - 7:00PM, Friday 7:30AM - 7:00PM, Saturday 7:30AM - 6:00PM, Sunday 9:00AM - 5:00PM",,,
Monro,395,5805 Rome-Taberg Road,,Rome,NY,13440,United States,(315) 337-6003,43.23229,-75.4985046,"Monday 7:30AM - 7:00PM, Tuesday 7:30AM - 7:00PM, Wednesday 7:30AM - 7:00PM, Thursday 7:30AM - 7:00PM, Friday 7:30AM - 7:00PM, Saturday 7:30AM - 6:00PM, Sunday 9:00AM - 5:00PM",,,
Monro,48,3711 Erie Blvd. E.,,Dewitt,NY,13214,United States,(315) 446-5860,43.0357552,-76.0654144,"Monday 7:30AM - 7:00PM, Tuesday 7:30AM - 7:00PM, Wednesday 7:30AM - 7:00PM, Thursday 7:30AM - 7:00PM, Friday 7:30AM - 7:00PM, Saturday 7:30AM - 6:00PM, Sunday 9:00AM - 5:00PM",,,
Monro,372,6477 Basile Rowe,,E. Syracuse,NY,13057,United States,(315) 432-8982,43.061985,-76.05871,"Monday 7:30AM - 7:00PM, Tuesday 7:30AM - 7:00PM, Wednesday 7:30AM - 7:00PM, Thursday 7:30AM - 7:00PM, Friday 7:30AM - 7:00PM, Saturday 7:30AM - 6:00PM, Sunday 9:00AM - 5:00PM",,,
Monro,60,1205 Erie Blvd. E.,,Syracuse,NY,13210,United States,(315) 476-5588,43.05084,-76.13152,"Monday 7:30AM - 7:00PM, Tuesday 7:30AM - 7:00PM, Wednesday 7:30AM - 7:00PM, Thursday 7:30AM - 7:00PM, Friday 7:30AM - 7:00PM, Saturday 7:30AM - 6:00PM, Sunday Closed",,,
Monro,204,4731 Onondaga Blvd.,,Syracuse,NY,13219,United States,(315) 471-3338,43.0335236,-76.1889,"Monday 7:30AM - 7:00PM, Tuesday 7:30AM - 7:00PM, Wednesday 7:30AM - 7:00PM, Thursday 7:30AM - 7:00PM, Friday 7:30AM - 7:00PM, Saturday 7:30AM - 6:00PM, Sunday 9:00AM - 5:00PM",,,
Monro,275,3464 West Genesee Street,,Syracuse,NY,13219,United States,(315) 359-4444,43.04851,-76.231575,"Monday 7:30AM - 7:00PM, Tuesday 7:30AM - 7:00PM, Wednesday 7:30AM - 7:00PM, Thursday 7:30AM - 7:00PM, Friday 7:30AM - 7:00PM, Saturday 7:30AM - 6:00PM, Sunday 9:00AM - 5:00PM",,,
Monro,658,3503 Brewerton Road,,N. Syracuse,NY,13212,United States,(315) 329-6645,43.1131248,-76.14638,"Monday 7:30AM - 7:00PM, Tuesday 7:30AM - 7:00PM, Wednesday 7:30AM - 7:00PM, Thursday 7:30AM - 7:00PM, Friday 7:30AM - 7:00PM, Saturday 7:30AM - 6:00PM, Sunday 9:00AM - 5:00PM",,,
Monro,352,910 Old Liverpool Road,,Liverpool,NY,13088,United States,(315) 453-9482,43.0987,-76.19827,"Monday 7:30AM - 7:00PM, Tuesday 7:30AM - 7:00PM, Wednesday 7:30AM - 7:00PM, Thursday 7:30AM - 7:00PM, Friday 7:30AM - 7:00PM, Saturday 7:30AM - 6:00PM, Sunday 9:00AM - 5:00PM",,,
Monro,327,8252 US Route 11 S.,,Cicero,NY,13039,United States,(315) 699-8310,43.16987,-76.11656,"Monday 7:30AM - 7:00PM, Tuesday 7:30AM - 7:00PM, Wednesday 7:30AM - 7:00PM, Thursday 7:30AM - 7:00PM, Friday 7:30AM - 7:00PM, Saturday 7:30AM - 6:00PM, Sunday 9:00AM - 5:00PM",,,
Monro,30,108 Grant Avenue,,Auburn,NY,13021,United States,(315) 252-9573,42.9410858,-76.55415,"Monday 7:30AM - 7:00PM, Tuesday 7:30AM - 7:00PM, Wednesday 7:30AM - 7:00PM, Thursday 7:30AM - 7:00PM, Friday 7:30AM - 7:00PM, Saturday 7:30AM - 6:00PM, Sunday 9:00AM - 5:00PM",,,
Monro,167,8049 Oswego Road,,Syracuse,NY,13090,United States,(315) 652-9209,43.1637268,-76.23552,"Monday 7:30AM - 7:00PM, Tuesday 7:30AM - 7:00PM, Wednesday 7:30AM - 7:00PM, Thursday 7:30AM - 7:00PM, Friday 7:30AM - 7:00PM, Saturday 7:30AM - 6:00PM, Sunday 9:00AM - 5:00PM",,,
Monro,43,364 W. Morris Street,,Bath,NY,14810,United States,(607) 776-7601,42.339447,-77.33429,"Monday 7:30AM - 7:00PM, Tuesday 7:30AM - 7:00PM, Wednesday 7:30AM - 7:00PM, Thursday 7:30AM - 7:00PM, Friday 7:30AM - 7:00PM, Saturday 7:30AM - 6:00PM, Sunday Closed",,,
Monro,388,2444 State Route 414,,Waterloo,NY,13165,United States,(315) 539-2668,42.90726,-76.83698,"Monday 7:30AM - 7:00PM, Tuesday 7:30AM - 7:00PM, Wednesday 7:30AM - 7:00PM, Thursday 7:30AM - 7:00PM, Friday 7:30AM - 7:00PM, Saturday 7:30AM - 6:00PM, Sunday 9:00AM - 5:00PM",,,
Monro,15,510 Hamilton Street,,Geneva,NY,14456,United States,(315) 781-1400,42.8569,-77.0035,"Monday 7:30AM - 7:00PM, Tuesday 7:30AM - 7:00PM, Wednesday 7:30AM - 7:00PM, Thursday 7:30AM - 7:00PM, Friday 7:30AM - 7:00PM, Saturday 7:30AM - 6:00PM, Sunday Closed",,,
Monro,103,257 S. Second Street,,Fulton,NY,13069,United States,(315) 598-1269,43.31898,-76.41277,"Monday 7:30AM - 7:00PM, Tuesday 7:30AM - 7:00PM, Wednesday 7:30AM - 7:00PM, Thursday 7:30AM - 7:00PM, Friday 7:30AM - 7:00PM, Saturday 7:30AM - 6:00PM, Sunday 9:00AM - 5:00PM",,,
Monro,17,7419 Seneca Road,,Hornell,NY,14843,United States,(607) 324-7100,42.35893,-77.66309,"Monday 7:30AM - 7:00PM, Tuesday 7:30AM - 7:00PM, Wednesday 7:30AM - 7:00PM, Thursday 7:30AM - 7:00PM, Friday 7:30AM - 7:00PM, Saturday 7:30AM - 6:00PM, Sunday 9:00AM - 5:00PM",,,
Monro,49,802 West Union Street,,Newark,NY,14513,United States,(315) 331-2223,43.04675,-77.11345,"Monday 7:30AM - 7:00PM, Tuesday 7:30AM - 7:00PM, Wednesday 7:30AM - 7:00PM, Thursday 7:30AM - 7:00PM, Friday 7:30AM - 7:00PM, Saturday 7:30AM - 6:00PM, Sunday Closed",,,
Monro,14,2544 Rochester Road,,Canandaigua,NY,14424,United States,(585) 394-7120,42.90799,-77.2972,"Monday 7:30AM - 7:00PM, Tuesday 7:30AM - 7:00PM, Wednesday 7:30AM - 7:00PM, Thursday 7:30AM - 7:00PM, Friday 7:30AM - 7:00PM, Saturday 7:30AM - 6:00PM, Sunday 9:00AM - 5:00PM",,,
Monro,102,169 E. Bridge Street,,Oswego,NY,13126,United States,(315) 343-0513,43.4601364,-76.4995,"Monday 7:30AM - 7:00PM, Tuesday 7:30AM - 7:00PM, Wednesday 7:30AM - 7:00PM, Thursday 7:30AM - 7:00PM, Friday 7:30AM - 7:00PM, Saturday 7:30AM - 6:00PM, Sunday Closed",,,
Monro,176,7387 Victor Pittsford Road,,Victor,NY,14564,United States,(585) 466-8089,43.00098,-77.43846,"Monday 7:30AM - 7:00PM, Tuesday 7:30AM - 7:00PM, Wednesday 7:30AM - 7:00PM, Thursday 7:30AM - 7:00PM, Friday 7:30AM - 7:00PM, Saturday 7:30AM - 6:00PM, Sunday 9:00AM - 5:00PM",,,
Monro,399,7275 Pittsford Palmyra Road,,Fairport,NY,14450,United States,(585) 466-8083,43.06526,-77.4148,"Monday 7:30AM - 7:00PM, Tuesday 7:30AM - 7:00PM, Wednesday 7:30AM - 7:00PM, Thursday 7:30AM - 7:00PM, Friday 7:30AM - 7:00PM, Saturday 7:30AM - 6:00PM, Sunday 9:00AM - 5:00PM",,,
Monro,394,5 North Broad Street,,Carthage,NY,13619,United States,(315) 493-1443,43.9658623,-75.62216,"Monday 7:30AM - 7:00PM, Tuesday 7:30AM - 7:00PM, Wednesday 7:30AM - 7:00PM, Thursday 7:30AM - 7:00PM, Friday 7:30AM - 7:00PM, Saturday 7:30AM - 6:00PM, Sunday 9:00AM - 5:00PM",,,
Monro,243,4097 Lakeville Road,,Geneseo,NY,14454,United States,(585) 243-1480,42.7965,-77.7915,"Monday 7:30AM - 7:00PM, Tuesday 7:30AM - 7:00PM, Wednesday 7:30AM - 7:00PM, Thursday 7:30AM - 7:00PM, Friday 7:30AM - 7:00PM, Saturday 7:30AM - 6:00PM, Sunday 9:00AM - 5:00PM",,,
Monro,132,2055 Nine Mile Point Road,,Penfield,NY,14526,United States,(585) 466-8085,43.13067,-77.44185,"Monday 7:30AM - 7:00PM, Tuesday 7:30AM - 7:00PM, Wednesday 7:30AM - 7:00PM, Thursday 7:30AM - 7:00PM, Friday 7:30AM - 7:00PM, Saturday 7:30AM - 6:00PM, Sunday 9:00AM - 5:00PM",,,
Monro,362,260 E. Main Street,,Avon,NY,14414,United States,(585) 226-2550,42.9102,-77.7345,"Monday 7:30AM - 7:00PM, Tuesday 7:30AM - 7:00PM, Wednesday 7:30AM - 7:00PM, Thursday 7:30AM - 7:00PM, Friday 7:30AM - 7:00PM, Saturday 7:30AM - 6:00PM, Sunday 9:00AM - 5:00PM",,,
Monro,652,829-835 Arsenal Street,,Watertown,NY,13601,United States,(315) 786-1824,43.97641,-75.93012,"Monday 7:30AM - 7:00PM, Tuesday 7:30AM - 7:00PM, Wednesday 7:30AM - 7:00PM, Thursday 7:30AM - 7:00PM, Friday 7:30AM - 7:00PM, Saturday 7:30AM - 6:00PM, Sunday 9:00AM - 5:00PM",,,
Monro,4,3077 Monroe Avenue,,Rochester,NY,14618,United States,(585) 466-8086,43.1075,-77.54454,"Monday 7:30AM - 7:00PM, Tuesday 7:30AM - 7:00PM, Wednesday 7:30AM - 7:00PM, Thursday 7:30AM - 7:00PM, Friday 7:30AM - 7:00PM, Saturday 7:30AM - 6:00PM, Sunday 9:00AM - 5:00PM",,,
Monro,9,903 Ridge Road,,Webster,NY,14580,United States,(585) 466-8079,43.2073326,-77.46535,"Monday 7:30AM - 7:00PM, Tuesday 7:30AM - 7:00PM, Wednesday 7:30AM - 7:00PM, Thursday 7:30AM - 7:00PM, Friday 7:30AM - 7:00PM, Saturday 7:30AM - 6:00PM, Sunday 9:00AM - 5:00PM",,,
Monro,3,965 Jefferson Road,,Rochester,NY,14623,United States,(585) 466-8084,43.08676,-77.61281,"Monday 7:30AM - 7:00PM, Tuesday 7:30AM - 7:00PM, Wednesday 7:30AM - 7:00PM, Thursday 7:30AM - 7:00PM, Friday 7:30AM - 7:00PM, Saturday 7:30AM - 6:00PM, Sunday 9:00AM - 5:00PM",,,
Monro,19,602 W. State Street,,Olean,NY,14760,United States,(716) 373-3200,42.0776367,-78.4369049,"Monday 7:30AM - 7:00PM, Tuesday 7:30AM - 7:00PM, Wednesday 7:30AM - 7:00PM, Thursday 7:30AM - 7:00PM, Friday 7:30AM - 7:00PM, Saturday 7:30AM - 6:00PM, Sunday 9:00AM - 5:00PM",,,
Monro,8,3000 W. Henrietta Road,,Rochester,NY,14623,United States,(585) 466-8078,43.0917244,-77.6346,"Monday 7:30AM - 7:00PM, Tuesday 7:30AM - 7:00PM, Wednesday 7:30AM - 7:00PM, Thursday 7:30AM - 7:00PM, Friday 7:30AM - 7:00PM, Saturday 7:30AM - 6:00PM, Sunday 9:00AM - 5:00PM",,,
Monro,202,1194 University Avenue,,Rochester,NY,14607,United States,(585) 466-8082,43.1516533,-77.5716248,"Monday 7:30AM - 7:00PM, Tuesday 7:30AM - 7:00PM, Wednesday 7:30AM - 7:00PM, Thursday 7:30AM - 7:00PM, Friday 7:30AM - 7:00PM, Saturday 7:30AM - 6:00PM, Sunday 9:00AM - 5:00PM",,,
Monro,261,163 River Street,,Saranac Lake,NY,12983,United States,(518) 891-6270,44.32395,-74.1250153,"Monday 7:30AM - 7:00PM, Tuesday 7:30AM - 7:00PM, Wednesday 7:30AM - 7:00PM, Thursday 7:30AM - 7:00PM, Friday 7:30AM - 7:00PM, Saturday 7:30AM - 6:00PM, Sunday Closed",,,
Monro,2,999 Ridge Road East,,Rochester,NY,14621,United States,(585) 351-2385,43.19684,-77.59162,"Monday 7:30AM - 7:00PM, Tuesday 7:30AM - 7:00PM, Wednesday 7:30AM - 7:00PM, Thursday 7:30AM - 7:00PM, Friday 7:30AM - 7:00PM, Saturday 7:30AM - 6:00PM, Sunday 9:00AM - 5:00PM",,,
Monro,240,3240 Chili Avenue,,Rochester,NY,14624,United States,(585) 466-8080,43.1034126,-77.7543,"Monday 7:30AM - 7:00PM, Tuesday 7:30AM - 7:00PM, Wednesday 7:30AM - 7:00PM, Thursday 7:30AM - 7:00PM, Friday 7:30AM - 7:00PM, Saturday 7:30AM - 6:00PM, Sunday 9:00AM - 5:00PM",,,
Monro,10,35 Howard Road,,Rochester,NY,14606,United States,(585) 429-6860,43.1639175,-77.69159,"Monday 7:30AM - 7:00PM, Tuesday 7:30AM - 7:00PM, Wednesday 7:30AM - 7:00PM, Thursday 7:30AM - 7:00PM, Friday 7:30AM - 7:00PM, Saturday 7:30AM - 6:00PM, Sunday 9:00AM - 5:00PM",,,
Monro,7,1860 Stone Road,,Rochester,NY,14615,United States,(585) 466-8087,43.2060966,-77.6657257,"Monday 7:30AM - 7:00PM, Tuesday 7:30AM - 7:00PM, Wednesday 7:30AM - 7:00PM, Thursday 7:30AM - 7:00PM, Friday 7:30AM - 7:00PM, Saturday 7:30AM - 6:00PM, Sunday 9:00AM - 5:00PM",,,
Monro,68,4460 Dewey Avenue,,Rochester,NY,14612,United States,(585) 466-8088,43.25334,-77.64699,"Monday 7:30AM - 7:00PM, Tuesday 7:30AM - 7:00PM, Wednesday 7:30AM - 7:00PM, Thursday 7:30AM - 7:00PM, Friday 7:30AM - 7:00PM, Saturday 7:30AM - 6:00PM, Sunday 9:00AM - 5:00PM",,,
Monro,237,940 Elmridge Center,,Rochester,NY,14626,United States,(585) 466-8077,43.21442,-77.7299,"Monday 7:30AM - 7:00PM, Tuesday 7:30AM - 7:00PM, Wednesday 7:30AM - 7:00PM, Thursday 7:30AM - 7:00PM, Friday 7:30AM - 7:00PM, Saturday 7:30AM - 6:00PM, Sunday 9:00AM - 5:00PM",,,
Monro,369,133 W. Main Street,,Le Roy,NY,14482,United States,(585) 768-2720,42.97815,-78.00196,"Monday 7:30AM - 7:00PM, Tuesday 7:30AM - 7:00PM, Wednesday 7:30AM - 7:00PM, Thursday 7:30AM - 7:00PM, Friday 7:30AM - 7:00PM, Saturday 7:30AM - 6:00PM, Sunday Closed",,,
Monro,11,4671 S. Lake Street,,Brockport,NY,14420,United States,(585) 637-4258,43.20284,-77.94276,"Monday 7:30AM - 7:00PM, Tuesday 7:30AM - 7:00PM, Wednesday 7:30AM - 7:00PM, Thursday 7:30AM - 7:00PM, Friday 7:30AM - 7:00PM, Saturday 7:30AM - 6:00PM, Sunday 9:00AM - 5:00PM",,,
Monro,12,633 E. Main Street,,Batavia,NY,14020,United States,(585) 343-8801,42.99471,-78.16157,"Monday 7:30AM - 7:00PM, Tuesday 7:30AM - 7:00PM, Wednesday 7:30AM - 7:00PM, Thursday 7:30AM - 7:00PM, Friday 7:30AM - 7:00PM, Saturday 7:30AM - 6:00PM, Sunday 9:00AM - 5:00PM",,,
Monro,314,172 South Cascade Drive,,Springville,NY,14141,United States,(716) 592-0221,42.49388,-78.69247,"Monday 7:30AM - 7:00PM, Tuesday 7:30AM - 7:00PM, Wednesday 7:30AM - 7:00PM, Thursday 7:30AM - 7:00PM, Friday 7:30AM - 7:00PM, Saturday 7:30AM - 6:00PM, Sunday 9:00AM - 5:00PM",,,
Monro,385,113 East Main Street,,Canton,NY,13617,United States,(315) 386-1738,44.59641,-75.15669,"Monday 7:30AM - 7:00PM, Tuesday 7:30AM - 7:00PM, Wednesday 7:30AM - 7:00PM, Thursday 7:30AM - 7:00PM, Friday 7:30AM - 7:00PM, Saturday 7:30AM - 6:00PM, Sunday 9:00AM - 5:00PM",,,
Monro,116,37 Smithfield Blvd.,,Plattsburgh,NY,12901,United States,(518) 561-7231,44.6974,-73.49233,"Monday 7:30AM - 7:00PM, Tuesday 7:30AM - 7:00PM, Wednesday 7:30AM - 7:00PM, Thursday 7:30AM - 7:00PM, Friday 7:30AM - 7:00PM, Saturday 7:30AM - 6:00PM, Sunday 9:00AM - 5:00PM",,,
Monro,143,151 Quaker Road,,E. Aurora,NY,14052,United States,(716) 655-3370,42.76432,-78.63289,"Monday 7:30AM - 7:00PM, Tuesday 7:30AM - 7:00PM, Wednesday 7:30AM - 7:00PM, Thursday 7:30AM - 7:00PM, Friday 7:30AM - 7:00PM, Saturday 7:30AM - 6:00PM, Sunday 9:00AM - 5:00PM",,,
Monro,109,174 Market Street,,Potsdam,NY,13676,United States,(315) 265-9485,44.67781,-74.98685,"Monday 7:30AM - 7:00PM, Tuesday 7:30AM - 7:00PM, Wednesday 7:30AM - 7:00PM, Thursday 7:30AM - 7:00PM, Friday 7:30AM - 7:00PM, Saturday 7:30AM - 6:00PM, Sunday Closed",,,
Monro,341,11334 Maple Ridge Road,,Medina,NY,14103,United States,(585) 798-9242,43.2073822,-78.3903,"Monday 7:30AM - 7:00PM, Tuesday 7:30AM - 7:00PM, Wednesday 7:30AM - 7:00PM, Thursday 7:30AM - 7:00PM, Friday 7:30AM - 7:00PM, Saturday 7:30AM - 6:00PM, Sunday Closed",,,
Monro,383,4872 Transit Road,,Depew,NY,14043,United States,(716) 362-2611,42.87752,-78.6972351,"Monday 7:30AM - 7:00PM, Tuesday 7:30AM - 7:00PM, Wednesday 7:30AM - 7:00PM, Thursday 7:30AM - 7:00PM, Friday 7:30AM - 7:00PM, Saturday 7:30AM - 6:00PM, Sunday 9:00AM - 5:00PM",,,
Monro,114,730 Canton Street,,Ogdensburg,NY,13669,United States,(315) 393-4015,44.6903343,-75.47928,"Monday 7:30AM - 7:00PM, Tuesday 7:30AM - 7:00PM, Wednesday 7:30AM - 7:00PM, Thursday 7:30AM - 7:00PM, Friday 7:30AM - 7:00PM, Saturday 7:30AM - 6:00PM, Sunday 9:00AM - 5:00PM",,,
Monro,144,225 West Main Street,,Malone,NY,12953,United States,(518) 483-8781,44.84861,-74.30585,"Monday 7:30AM - 7:00PM, Tuesday 7:30AM - 7:00PM, Wednesday 7:30AM - 7:00PM, Thursday 7:30AM - 7:00PM, Friday 7:30AM - 7:00PM, Saturday 7:30AM - 6:00PM, Sunday Closed",,,
Monro,324,4115 McKinley Parkway,,Blasdell,NY,14219,United States,(716) 649-5004,42.770565,-78.81131,"Monday 7:30AM - 7:00PM, Tuesday 7:30AM - 7:00PM, Wednesday 7:30AM - 7:00PM, Thursday 7:30AM - 7:00PM, Friday 7:30AM - 7:00PM, Saturday 7:30AM - 6:00PM, Sunday 9:00AM - 5:00PM",,,
Monro,53,5598 Camp Road,,Hamburg,NY,14075,United States,(716) 648-6616,42.73429,-78.8391647,"Monday 7:30AM - 7:00PM, Tuesday 7:30AM - 7:00PM, Wednesday 7:30AM - 7:00PM, Thursday 7:30AM - 7:00PM, Friday 7:30AM - 7:00PM, Saturday 7:30AM - 6:00PM, Sunday Closed",,,
Monro,616,155 French Road,,Cheektowaga,NY,14227,United States,(716) 656-9793,42.86825,-78.74891,"Monday 7:30AM - 7:00PM, Tuesday 7:30AM - 7:00PM, Wednesday 7:30AM - 7:00PM, Thursday 7:30AM - 7:00PM, Friday 7:30AM - 7:00PM, Saturday 7:30AM - 6:00PM, Sunday Closed",,,
Monro,57,1910 Ridge Road,,W. Seneca,NY,14224,United States,(716) 362-2621,42.8287354,-78.78457,"Monday 7:30AM - 7:00PM, Tuesday 7:30AM - 7:00PM, Wednesday 7:30AM - 7:00PM, Thursday 7:30AM - 7:00PM, Friday 7:30AM - 7:00PM, Saturday 7:30AM - 6:00PM, Sunday 9:00AM - 5:00PM",,,
Monro,55,2291 George Urban Blvd.,,Depew,NY,14043,United States,(716) 362-2627,42.91865,-78.72655,"Monday 7:30AM - 7:00PM, Tuesday 7:30AM - 7:00PM, Wednesday 7:30AM - 7:00PM, Thursday 7:30AM - 7:00PM, Friday 7:30AM - 7:00PM, Saturday 7:30AM - 6:00PM, Sunday 9:00AM - 5:00PM",,,
Monro,59,7226 Transit Road,,Williamsville,NY,14221,United States,(716) 632-3313,42.96522,-78.6968155,"Monday 7:30AM - 7:00PM, Tuesday 7:30AM - 7:00PM, Wednesday 7:30AM - 7:00PM, Thursday 7:30AM - 7:00PM, Friday 7:30AM - 7:00PM, Saturday 7:30AM - 6:00PM, Sunday 9:00AM - 5:00PM",,,
Monro,52,2375 Harlem Road,,Cheektowaga,NY,14225,United States,(716) 894-1148,42.90834,-78.78421,"Monday 7:30AM - 7:00PM, Tuesday 7:30AM - 7:00PM, Wednesday 7:30AM - 7:00PM, Thursday 7:30AM - 7:00PM, Friday 7:30AM - 7:00PM, Saturday 7:30AM - 6:00PM, Sunday 9:00AM - 5:00PM",,,
Monro,458,5365 Main Street,,Williamsville,NY,14221,United States,(716) 631-8451,42.9613228,-78.75287,"Monday 7:30AM - 7:00PM, Tuesday 7:30AM - 7:00PM, Wednesday 7:30AM - 7:00PM, Thursday 7:30AM - 7:00PM, Friday 7:30AM - 7:00PM, Saturday 7:30AM - 6:00PM, Sunday Closed",,,
Monro,325,4950 North French Road,,E. Amherst,NY,14051,United States,(716) 200-4987,43.03347,-78.69701,"Monday 7:30AM - 7:00PM, Tuesday 7:30AM - 7:00PM, Wednesday 7:30AM - 7:00PM, Thursday 7:30AM - 7:00PM, Friday 7:30AM - 7:00PM, Saturday 7:30AM - 6:00PM, Sunday 9:00AM - 5:00PM",,,
Monro,20,1010 Fairmount Avenue,,Jamestown,NY,14701,United States,(716) 664-4000,42.09744,-79.29434,"Monday 7:30AM - 7:00PM, Tuesday 7:30AM - 7:00PM, Wednesday 7:30AM - 7:00PM, Thursday 7:30AM - 7:00PM, Friday 7:30AM - 7:00PM, Saturday 7:30AM - 6:00PM, Sunday 9:00AM - 5:00PM",,,
Monro,351,6945 Erie Road,,Derby,NY,14047,United States,(716) 947-0157,42.69528,-78.99331,"Monday 7:30AM - 7:00PM, Tuesday 7:30AM - 7:00PM, Wednesday 7:30AM - 7:00PM, Thursday 7:30AM - 7:00PM, Friday 7:30AM - 7:00PM, Saturday 7:30AM - 6:00PM, Sunday 9:00AM - 5:00PM",,,
Monro,51,2955 Main Street,,Buffalo,NY,14214,United States,(716) 836-0500,42.9461441,-78.83119,"Monday 7:30AM - 7:00PM, Tuesday 7:30AM - 7:00PM, Wednesday 7:30AM - 7:00PM, Thursday 7:30AM - 7:00PM, Friday 7:30AM - 7:00PM, Saturday 7:30AM - 6:00PM, Sunday 9:00AM - 5:00PM",,,
Monro,100,1350 Main Street,,Buffalo,NY,14209,United States,(716) 885-0557,42.9103966,-78.86623,"Monday 7:30AM - 7:00PM, Tuesday 7:30AM - 7:00PM, Wednesday 7:30AM - 7:00PM, Thursday 7:30AM - 7:00PM, Friday 7:30AM - 7:00PM, Saturday 7:30AM - 6:00PM, Sunday Closed",,,
Monro,56,2980 Sheridan Drive,,Tonawanda,NY,14150,United States,(716) 362-2629,42.98084,-78.82354,"Monday 7:30AM - 7:00PM, Tuesday 7:30AM - 7:00PM, Wednesday 7:30AM - 7:00PM, Thursday 7:30AM - 7:00PM, Friday 7:30AM - 7:00PM, Saturday 7:30AM - 6:00PM, Sunday 9:00AM - 5:00PM",,,
Monro,134,88 Grove Street,,Massena,NY,13662,United States,(315) 764-1247,44.9237251,-74.88688,"Monday 7:30AM - 7:00PM, Tuesday 7:30AM - 7:00PM, Wednesday 7:30AM - 7:00PM, Thursday 7:30AM - 7:00PM, Friday 7:30AM - 7:00PM, Saturday 7:30AM - 6:00PM, Sunday 9:00AM - 6:00PM",,,
Monro,13,5710 S. Transit Road,,Lockport,NY,14094,United States,(716) 434-6249,43.1482773,-78.69719,"Monday 7:30AM - 7:00PM, Tuesday 7:30AM - 7:00PM, Wednesday 7:30AM - 7:00PM, Thursday 7:30AM - 7:00PM, Friday 7:30AM - 7:00PM, Saturday 7:30AM - 6:00PM, Sunday 9:00AM - 5:00PM",,,
Monro,455,2227 Delaware Avenue,,Buffalo,NY,14216,United States,(716) 362-2620,42.9448166,-78.86777,"Monday 7:30AM - 7:00PM, Tuesday 7:30AM - 7:00PM, Wednesday 7:30AM - 7:00PM, Thursday 7:30AM - 7:00PM, Friday 7:30AM - 7:00PM, Saturday 7:30AM - 6:00PM, Sunday 9:00AM - 5:00PM",,,
Monro,361,2865 Niagara Falls Blvd.,,W. Amherst,NY,14228,United States,(716) 362-2628,43.0313835,-78.8217545,"Monday 7:30AM - 7:00PM, Tuesday 7:30AM - 7:00PM, Wednesday 7:30AM - 7:00PM, Thursday 7:30AM - 7:00PM, Friday 7:30AM - 7:00PM, Saturday 7:30AM - 6:00PM, Sunday 9:00AM - 5:00PM",,,
Monro,58,3384 Delaware Avenue,,Kenmore,NY,14217,United States,(716) 877-2000,42.9769,-78.87062,"Monday 7:30AM - 7:00PM, Tuesday 7:30AM - 7:00PM, Wednesday 7:30AM - 7:00PM, Thursday 7:30AM - 7:00PM, Friday 7:30AM - 7:00PM, Saturday 7:30AM - 6:00PM, Sunday 9:00AM - 5:00PM",,,
Monro,101,575 Erie Avenue,,N. Tonawanda,NY,14120,United States,(716) 692-0243,43.0386658,-78.8632,"Monday 7:30AM - 7:00PM, Tuesday 7:30AM - 7:00PM, Wednesday 7:30AM - 7:00PM, Thursday 7:30AM - 7:00PM, Friday 7:30AM - 7:00PM, Saturday 7:30AM - 6:00PM, Sunday Closed",,,
Monro,50,10380 Bennett Road,,Fredonia,NY,14063,United States,(716) 673-1234,42.4541931,-79.31002,"Monday 7:30AM - 7:00PM, Tuesday 7:30AM - 7:00PM, Wednesday 7:30AM - 7:00PM, Thursday 7:30AM - 7:00PM, Friday 7:30AM - 7:00PM, Saturday 7:30AM - 6:00PM, Sunday 9:00AM - 5:00PM",,,
Monro,353,2109 Grand Island Blvd.,,Grand Island,NY,14072,United States,(716) 773-1459,43.0186,-78.95932,"Monday 7:30AM - 7:00PM, Tuesday 7:30AM - 7:00PM, Wednesday 7:30AM - 7:00PM, Thursday 7:30AM - 7:00PM, Friday 7:30AM - 7:00PM, Saturday 7:30AM - 6:00PM, Sunday 9:00AM - 5:00PM",,,
Monro,54,7894 Niagara Falls Blvd.,,Niagara Falls,NY,14304,United States,(716) 236-0201,43.08891,-78.9741058,"Monday 7:30AM - 7:00PM, Tuesday 7:30AM - 7:00PM, Wednesday 7:30AM - 7:00PM, Thursday 7:30AM - 7:00PM, Friday 7:30AM - 7:00PM, Saturday 7:30AM - 6:00PM, Sunday 9:00AM - 5:00PM",,,
Monro,418,2110 N. Howard Street,,Baltimore,MD,21218,United States,(410) 576-7722,39.3131,-76.6198959,"Monday 7:30AM - 6:00PM, Tuesday 7:30AM - 6:00PM, Wednesday 7:30AM - 6:00PM, Thursday 7:30AM - 6:00PM, Friday 7:30AM - 6:00PM, Saturday 7:30AM - 5:00PM, Sunday Closed",,,
Monro,417,7870 Eastern Avenue,,Baltimore,MD,21224,United States,(410) 285-7576,39.2956352,-76.5105743,"Monday 7:30AM - 7:00PM, Tuesday 7:30AM - 7:00PM, Wednesday 7:30AM - 7:00PM, Thursday 7:30AM - 7:00PM, Friday 7:30AM - 7:00PM, Saturday 7:30AM - 6:00PM, Sunday 9:00AM - 5:00PM",,,
Monro,411,6227 Belair Road,,Baltimore,MD,21206,United States,(410) 444-1556,39.3501434,-76.5361,"Monday 7:30AM - 7:00PM, Tuesday 7:30AM - 7:00PM, Wednesday 7:30AM - 7:00PM, Thursday 7:30AM - 7:00PM, Friday 7:30AM - 7:00PM, Saturday 7:30AM - 6:00PM, Sunday Closed",,,
Monro,414,4110 W. Northern Parkway,,Baltimore,MD,21215,United States,(410) 764-6630,39.34847,-76.69247,"Monday 7:30AM - 7:00PM, Tuesday 7:30AM - 7:00PM, Wednesday 7:30AM - 7:00PM, Thursday 7:30AM - 7:00PM, Friday 7:30AM - 7:00PM, Saturday 7:30AM - 6:00PM, Sunday 9:00AM - 5:00PM",,,
Monro,415,6800 Ritchie Highway,,Glen Burnie,MD,21061,United States,(410) 761-0450,39.19759,-76.61388,"Monday 7:30AM - 7:00PM, Tuesday 7:30AM - 7:00PM, Wednesday 7:30AM - 7:00PM, Thursday 7:30AM - 7:00PM, Friday 7:30AM - 7:00PM, Saturday 7:30AM - 6:00PM, Sunday 9:00AM - 5:00PM",,,
Monro,413,1532 E. Joppa Road,,Towson,MD,21286,United States,(410) 296-3723,39.3964,-76.5682,"Monday 7:30AM - 7:00PM, Tuesday 7:30AM - 7:00PM, Wednesday 7:30AM - 7:00PM, Thursday 7:30AM - 7:00PM, Friday 7:30AM - 7:00PM, Saturday 7:30AM - 6:00PM, Sunday 9:00AM - 5:00PM",,,
Monro,726,1000 York Rd.,,Towson,MD,21204,United States,(410) 823-6800,39.40994,-76.60891,"Monday 7:30AM - 6:00PM, Tuesday 7:30AM - 6:00PM, Wednesday 7:30AM - 6:00PM, Thursday 7:30AM - 6:00PM, Friday 7:30AM - 6:00PM, Saturday 7:30AM - 6:00PM, Sunday 9:00AM - 5:00PM",,,
Monro,419,11640 Reisterstown Road,,Reisterstown,MD,21136,United States,(410) 833-3844,39.4529877,-76.82191,"Monday 7:30AM - 7:00PM, Tuesday 7:30AM - 7:00PM, Wednesday 7:30AM - 7:00PM, Thursday 7:30AM - 7:00PM, Friday 7:30AM - 7:00PM, Saturday 7:30AM - 6:00PM, Sunday 9:00AM - 5:00PM",,,
Monro,1313,1059 Baltimore Blvd.,,Westminster,MD,21157,United States,(410) 751-3746,39.55462,-76.95886,"Monday 7:30AM - 7:00PM, Tuesday 7:30AM - 7:00PM, Wednesday 7:30AM - 7:00PM, Thursday 7:30AM - 7:00PM, Friday 7:30AM - 7:00PM, Saturday 7:30AM - 6:00PM, Sunday 9:00AM - 5:00PM",,,
Monro,1090,5930 W. Bluemound,,Milwaukee,WI,53213,United States,(414) 455-0753,43.0365524,-87.9865341,"Monday 7:30AM - 7:00PM, Tuesday 7:30AM - 7:00PM, Wednesday 7:30AM - 7:00PM, Thursday 7:30AM - 7:00PM, Friday 7:30AM - 7:00PM, Saturday 7:30AM - 6:00PM, Sunday 9:00AM - 5:00PM",,,
Monro,1082,3849 South 27Th Street,,Milwaukee,WI,53221,United States,(414) 282-2500,42.97491,-87.94896,"Monday 7:30AM - 7:00PM, Tuesday 7:30AM - 7:00PM, Wednesday 7:30AM - 7:00PM, Thursday 7:30AM - 7:00PM, Friday 7:30AM - 7:00PM, Saturday 7:30AM - 6:00PM, Sunday Closed",,,
Monro,1080,5434 N. Port Washington Rd,,Milwaukee,WI,53217,United States,(414) 962-4113,43.115757,-87.91654,"Monday 7:30AM - 7:00PM, Tuesday 7:30AM - 7:00PM, Wednesday 7:30AM - 7:00PM, Thursday 7:30AM - 7:00PM, Friday 7:30AM - 7:00PM, Saturday 7:30AM - 6:00PM, Sunday 9:00AM - 5:00PM",,,
Monro,1081,1212 South 108th Street,,Milwaukee,WI,53214,United States,(414) 778-2279,43.01902,-88.04694,"Monday 7:30AM - 7:00PM, Tuesday 7:30AM - 7:00PM, Wednesday 7:30AM - 7:00PM, Thursday 7:30AM - 7:00PM, Friday 7:30AM - 7:00PM, Saturday 7:30AM - 6:00PM, Sunday Closed",,,
Monro,1084,7500 West Layton Avenue,,Milwaukee,WI,53220,United States,(414) 282-1200,42.95938,-88.0071259,"Monday 7:30AM - 7:00PM, Tuesday 7:30AM - 7:00PM, Wednesday 7:30AM - 7:00PM, Thursday 7:30AM - 7:00PM, Friday 7:30AM - 7:00PM, Saturday 7:30AM - 6:00PM, Sunday 9:00AM - 5:00PM",,,
Monro,1089,6112 S. 27Th Street,,Milwaukee,WI,53221,United States,(414) 325-2999,42.9336,-87.94873,"Monday 7:30AM - 7:00PM, Tuesday 7:30AM - 7:00PM, Wednesday 7:30AM - 7:00PM, Thursday 7:30AM - 7:00PM, Friday 7:30AM - 7:00PM, Saturday 7:30AM - 6:00PM, Sunday 9:00AM - 5:00PM",,,
Monro,1087,6084 S. Packard Avenue,,Cudahy,WI,53110,United States,(414) 481-9775,42.93393,-87.86093,"Monday 7:30AM - 7:00PM, Tuesday 7:30AM - 7:00PM, Wednesday 7:30AM - 7:00PM, Thursday 7:30AM - 7:00PM, Friday 7:30AM - 7:00PM, Saturday 7:30AM - 6:00PM, Sunday Closed",,,
Monro,1086,13190 West Capitol Drive,,Brookfield,WI,53005,United States,(262) 781-1591,43.08944,-88.07488,"Monday 7:30AM - 7:00PM, Tuesday 7:30AM - 7:00PM, Wednesday 7:30AM - 7:00PM, Thursday 7:30AM - 7:00PM, Friday 7:30AM - 7:00PM, Saturday 7:30AM - 6:00PM, Sunday 9:00AM - 5:00PM",,,
Monro,1088,N88 W15176 Main St.,,Menomonee Falls,WI,53051,United States,(262) 251-9090,43.178,-88.0982361,"Monday 7:30AM - 7:00PM, Tuesday 7:30AM - 7:00PM, Wednesday 7:30AM - 7:00PM, Thursday 7:30AM - 7:00PM, Friday 7:30AM - 7:00PM, Saturday 7:30AM - 6:00PM, Sunday Closed",,,
Monro,1085,1810 Paramount Drive,,Waukesha,WI,53186,United States,(262) 542-1888,43.02616,-88.19624,"Monday 7:30AM - 7:00PM, Tuesday 7:30AM - 7:00PM, Wednesday 7:30AM - 7:00PM, Thursday 7:30AM - 7:00PM, Friday 7:30AM - 7:00PM, Saturday 7:30AM - 6:00PM, Sunday Closed",,,
Monro,1083,5320 Washington Ave.,,Racine,WI,53406,United States,(262) 637-1234,42.71955,-87.84408,"Monday 7:30AM - 7:00PM, Tuesday 7:30AM - 7:00PM, Wednesday 7:30AM - 7:00PM, Thursday 7:30AM - 7:00PM, Friday 7:30AM - 7:00PM, Saturday 7:30AM - 6:00PM, Sunday Closed",,,
Monro,1091,2000 S. Main Street,,West Bend,WI,53095,United States,(262) 338-4800,43.3959961,-88.181015,"Monday 7:30AM - 7:00PM, Tuesday 7:30AM - 7:00PM, Wednesday 7:30AM - 7:00PM, Thursday 7:30AM - 7:00PM, Friday 7:30AM - 7:00PM, Saturday 7:30AM - 6:00PM, Sunday Closed",,,
Monro,1092,925 S. Hastings Way,,Eau Claire,WI,54701,United States,(715) 552-0347,44.807972,-91.47144,"Monday 7:30AM - 7:00PM, Tuesday 7:30AM - 7:00PM, Wednesday 7:30AM - 7:00PM, Thursday 7:30AM - 7:00PM, Friday 7:30AM - 7:00PM, Saturday 7:30AM - 6:00PM, Sunday Closed",,,
Monro,428,223 Washington Street,,Somerville,MA,02143,United States,(617) 213-1024,42.3795052,-71.09331,"Monday 7:30AM - 6:00PM, Tuesday 7:30AM - 6:00PM, Wednesday 7:30AM - 6:00PM, Thursday 7:30AM - 6:00PM, Friday 7:30AM - 6:00PM, Saturday 7:30AM - 5:00PM, Sunday Closed",,,
Monro,435,20 Revere Beach Parkway,,Medford,MA,02155,United States,(781) 519-0906,42.4044647,-71.08145,"Monday 7:30AM - 6:00PM, Tuesday 7:30AM - 6:00PM, Wednesday 7:30AM - 6:00PM, Thursday 7:30AM - 6:00PM, Friday 7:30AM - 6:00PM, Saturday 7:30AM - 5:00PM, Sunday Closed",,,
Monro,427,1576 Blue Hill Avenue,,Mattapan,MA,02126,United States,(617) 296-0400,42.2694,-71.09391,"Monday 7:30AM - 6:00PM, Tuesday 7:30AM - 6:00PM, Wednesday 7:30AM - 6:00PM, Thursday 7:30AM - 6:00PM, Friday 7:30AM - 6:00PM, Saturday 7:30AM - 6:00PM, Sunday Closed",,,
Monro,449,706 Adams Street,,Quincy,MA,02169,United States,(617) 213-1021,42.257,-71.0369,"Monday 7:30AM - 7:00PM, Tuesday 7:30AM - 7:00PM, Wednesday 7:30AM - 7:00PM, Thursday 7:30AM - 7:00PM, Friday 7:30AM - 7:00PM, Saturday 7:30AM - 6:00PM, Sunday 9:00AM - 5:00PM",,,
Monro,430,926 Boylston Street,,Newton,MA,02461,United States,(617) 213-1022,42.3188057,-71.2096939,"Monday 7:30AM - 7:00PM, Tuesday 7:30AM - 7:00PM, Wednesday 7:30AM - 7:00PM, Thursday 7:30AM - 7:00PM, Friday 7:30AM - 7:00PM, Saturday 7:30AM - 6:00PM, Sunday Closed",,,
Monro,431,209 Lexington Street,,Waltham,MA,02452,United States,(781) 899-2040,42.4126,-71.23295,"Monday 7:30AM - 6:00PM, Tuesday 7:30AM - 6:00PM, Wednesday 7:30AM - 6:00PM, Thursday 7:30AM - 6:00PM, Friday 7:30AM - 6:00PM, Saturday 7:30AM - 5:00PM, Sunday 9:00AM - 5:00PM",,,
Monro,421,685 Providence Highway,,Dedham,MA,02026,United States,(781) 519-4647,42.23449,-71.17502,"Monday 7:30AM - 7:00PM, Tuesday 7:30AM - 7:00PM, Wednesday 7:30AM - 7:00PM, Thursday 7:30AM - 7:00PM, Friday 7:30AM - 7:00PM, Saturday 7:30AM - 6:00PM, Sunday 9:00AM - 5:00PM",,,
Monro,434,194 Endicott Street,,Danvers,MA,01923,United States,(978) 763-7137,42.5481148,-70.94228,"Monday 7:30AM - 7:00PM, Tuesday 7:30AM - 7:00PM, Wednesday 7:30AM - 7:00PM, Thursday 7:30AM - 7:00PM, Friday 7:30AM - 7:00PM, Saturday 7:30AM - 6:00PM, Sunday 9:00AM - 5:00PM",,,
Monro,1315,930 Turnpike St.,,Canton,MA,02021,United States,(781) 575-0070,42.1550026,-71.10592,"Monday 7:30AM - 6:00PM, Tuesday 7:30AM - 6:00PM, Wednesday 7:30AM - 6:00PM, Thursday 7:30AM - 6:00PM, Friday 7:30AM - 6:00PM, Saturday 7:30AM - 6:00PM, Sunday 9:00AM - 5:00PM",,,
Monro,1316,450 Walpole St.,,Norwood,MA,02062,United States,(781) 769-0220,42.17925,-71.2215347,"Monday 7:30AM - 6:00PM, Tuesday 7:30AM - 6:00PM, Wednesday 7:30AM - 6:00PM, Thursday 7:30AM - 6:00PM, Friday 7:30AM - 6:00PM, Saturday 7:30AM - 6:00PM, Sunday Closed",,,
Monro,1317,500 Washington St.,,Stoughton,MA,02072,United States,(781) 344-8333,42.1323433,-71.10129,"Monday 7:30AM - 6:00PM, Tuesday 7:30AM - 6:00PM, Wednesday 7:30AM - 6:00PM, Thursday 7:30AM - 6:00PM, Friday 7:30AM - 6:00PM, Saturday 7:30AM - 6:00PM, Sunday 9:00AM - 5:00PM",,,
Monro,441,1335 Washington Street,,Hanover,MA,02339,United States,(781) 826-7341,42.14389,-70.844574,"Monday 7:30AM - 7:00PM, Tuesday 7:30AM - 7:00PM, Wednesday 7:30AM - 7:00PM, Thursday 7:30AM - 7:00PM, Friday 7:30AM - 7:00PM, Saturday 7:30AM - 6:00PM, Sunday 9:00AM - 5:00PM",,,
Monro,437,751 Worcester Road,,Framingham,MA,01701,United States,(508) 875-7255,42.299,-71.42824,"Monday 7:30AM - 6:00PM, Tuesday 7:30AM - 6:00PM, Wednesday 7:30AM - 6:00PM, Thursday 7:30AM - 6:00PM, Friday 7:30AM - 6:00PM, Saturday 7:30AM - 6:00PM, Sunday 9:00AM - 5:00PM",,,
Monro,439,642 Crescent Street,,Brockton,MA,02302,United States,(508) 583-2835,42.0809975,-70.99352,"Monday 7:30AM - 7:00PM, Tuesday 7:30AM - 7:00PM, Wednesday 7:30AM - 7:00PM, Thursday 7:30AM - 7:00PM, Friday 7:30AM - 7:00PM, Saturday 7:30AM - 6:00PM, Sunday 9:00AM - 5:00PM",,,
Monro,1314,753 Belmont St.,,Brockton,MA,02301,United States,(508) 583-0100,42.0693245,-71.04907,"Monday 7:30AM - 6:00PM, Tuesday 7:30AM - 6:00PM, Wednesday 7:30AM - 6:00PM, Thursday 7:30AM - 6:00PM, Friday 7:30AM - 6:00PM, Saturday 7:30AM - 6:00PM, Sunday Closed",,,
Monro,354,311 Eliot Street,,Ashland,MA,01721,United States,(508) 455-4489,42.2419777,-71.4301147,"Monday 7:30AM - 6:00PM, Tuesday 7:30AM - 6:00PM, Wednesday 7:30AM - 6:00PM, Thursday 7:30AM - 6:00PM, Friday 7:30AM - 6:00PM, Saturday 7:30AM - 6:00PM, Sunday Closed",,,
Monro,438,77 Chelmsford Street,,Lowell,MA,01851,United States,(978) 458-8499,42.6370468,-71.3173447,"Monday 7:30AM - 6:00PM, Tuesday 7:30AM - 6:00PM, Wednesday 7:30AM - 6:00PM, Thursday 7:30AM - 6:00PM, Friday 7:30AM - 6:00PM, Saturday 7:30AM - 6:00PM, Sunday Closed",,,
Monro,436,99 Winthrop Avenue,,Lawrence,MA,01843,United States,(978) 688-2900,42.6898041,-71.15012,"Monday 7:30AM - 7:00PM, Tuesday 7:30AM - 7:00PM, Wednesday 7:30AM - 7:00PM, Thursday 7:30AM - 7:00PM, Friday 7:30AM - 7:00PM, Saturday 7:30AM - 6:00PM, Sunday 9:00AM - 5:00PM",,,
Monro,350,1194 Main Street,,Haverhill,MA,01830,United States,(978) 372-7811,42.811657,-71.10523,"Monday 7:30AM - 7:00PM, Tuesday 7:30AM - 7:00PM, Wednesday 7:30AM - 7:00PM, Thursday 7:30AM - 7:00PM, Friday 7:30AM - 7:00PM, Saturday 7:30AM - 6:00PM, Sunday 9:00AM - 5:00PM",,,
Monro,425,469 South Street West,,Raynham,MA,02767,United States,(508) 823-2557,41.9069977,-71.05058,"Monday 7:30AM - 7:00PM, Tuesday 7:30AM - 7:00PM, Wednesday 7:30AM - 7:00PM, Thursday 7:30AM - 7:00PM, Friday 7:30AM - 7:00PM, Saturday 7:30AM - 6:00PM, Sunday 9:00AM - 5:00PM",,,
Monro,446,37 Main Street,,Kingston,MA,02364,United States,(781) 585-7507,41.9836426,-70.70089,"Monday 7:30AM - 6:00PM, Tuesday 7:30AM - 6:00PM, Wednesday 7:30AM - 6:00PM, Thursday 7:30AM - 6:00PM, Friday 7:30AM - 6:00PM, Saturday 7:30AM - 6:00PM, Sunday Closed",,,
Monro,440,420 Belmont Street,,Worcester,MA,01604,United States,(508) 755-9387,42.27379,-71.75995,"Monday 7:30AM - 6:00PM, Tuesday 7:30AM - 6:00PM, Wednesday 7:30AM - 6:00PM, Thursday 7:30AM - 6:00PM, Friday 7:30AM - 6:00PM, Saturday 7:30AM - 6:00PM, Sunday Closed",,,
Monro,1134,45 North Main Street,,Leominster,MA,01453,United States,(978) 534-1100,42.5334,-71.7561646,"Monday 7:30AM - 6:00PM, Tuesday 7:30AM - 6:00PM, Wednesday 7:30AM - 6:00PM, Thursday 7:30AM - 6:00PM, Friday 7:30AM - 6:00PM, Saturday 7:30AM - 6:00PM, Sunday Closed",,,
Monro,424,605 Park Avenue,,Worcester,MA,01603,United States,(508) 757-2334,42.2477455,-71.8331757,"Monday 7:30AM - 6:00PM, Tuesday 7:30AM - 6:00PM, Wednesday 7:30AM - 6:00PM, Thursday 7:30AM - 6:00PM, Friday 7:30AM - 6:00PM, Saturday 7:30AM - 5:00PM, Sunday Closed",,,
Monro,433,440A Southbridge Street,,Auburn,MA,01501,United States,(508) 283-4899,42.1998749,-71.84086,"Monday 7:30AM - 6:00PM, Tuesday 7:30AM - 6:00PM, Wednesday 7:30AM - 6:00PM, Thursday 7:30AM - 6:00PM, Friday 7:30AM - 6:00PM, Saturday 7:30AM - 6:00PM, Sunday 9:00AM - 5:00PM",,,
Monro,347,742 GAR Highway,,Swansea,MA,02777,United States,(508) 679-5141,41.7490959,-71.2133,"Monday 7:30AM - 7:00PM, Tuesday 7:30AM - 7:00PM, Wednesday 7:30AM - 7:00PM, Thursday 7:30AM - 7:00PM, Friday 7:30AM - 7:00PM, Saturday 7:30AM - 6:00PM, Sunday 9:00AM - 5:00PM",,,
Monro,573,129 Rhode Island Avenue,,Fall River,MA,02724,United States,(508) 676-3465,41.68166,-71.16454,"Monday 7:30AM - 7:00PM, Tuesday 7:30AM - 7:00PM, Wednesday 7:30AM - 7:00PM, Thursday 7:30AM - 7:00PM, Friday 7:30AM - 7:00PM, Saturday 7:30AM - 6:00PM, Sunday 9:00AM - 5:00PM",,,
Monro,304,511 East Main Street,,Southbridge,MA,01550,United States,(508) 892-6465,42.070694,-72.01251,"Monday 7:30AM - 6:00PM, Tuesday 7:30AM - 6:00PM, Wednesday 7:30AM - 6:00PM, Thursday 7:30AM - 6:00PM, Friday 7:30AM - 6:00PM, Saturday 7:30AM - 6:00PM, Sunday 9:00AM - 5:00PM",,,
Monro,422,102 Falmouth Road,,Hyannis,MA,02601,United States,(508) 771-7702,41.66467,-70.29148,"Monday 7:30AM - 6:00PM, Tuesday 7:30AM - 6:00PM, Wednesday 7:30AM - 6:00PM, Thursday 7:30AM - 6:00PM, Friday 7:30AM - 6:00PM, Saturday 7:30AM - 6:00PM, Sunday 9:00AM - 5:00PM",,,
Monro,71,1971 Boston Road,,Wilbraham,MA,01095,United States,(413) 543-8027,42.1495934,-72.47187,"Monday 7:30AM - 7:00PM, Tuesday 7:30AM - 7:00PM, Wednesday 7:30AM - 7:00PM, Thursday 7:30AM - 7:00PM, Friday 7:30AM - 7:00PM, Saturday 7:30AM - 6:00PM, Sunday Closed",,,
Monro,77,451 Memorial Drive,,Chicopee,MA,01020,United States,(413) 594-9161,42.17012,-72.5777054,"Monday 7:30AM - 7:00PM, Tuesday 7:30AM - 7:00PM, Wednesday 7:30AM - 7:00PM, Thursday 7:30AM - 7:00PM, Friday 7:30AM - 7:00PM, Saturday 7:30AM - 6:00PM, Sunday 9:00AM - 5:00PM",,,
Monro,189,326 King Street,,Northampton,MA,01060,United States,(413) 586-3266,42.3342552,-72.6361,"Monday 7:30AM - 7:00PM, Tuesday 7:30AM - 7:00PM, Wednesday 7:30AM - 7:00PM, Thursday 7:30AM - 7:00PM, Friday 7:30AM - 7:00PM, Saturday 7:30AM - 6:00PM, Sunday 9:00AM - 5:00PM",,,
Monro,524,950 Memorial Avenue,,W. Springfield,MA,01089,United States,(413) 737-3249,42.0945625,-72.61291,"Monday 7:30AM - 7:00PM, Tuesday 7:30AM - 7:00PM, Wednesday 7:30AM - 7:00PM, Thursday 7:30AM - 7:00PM, Friday 7:30AM - 7:00PM, Saturday 7:30AM - 6:00PM, Sunday Closed",,,
Monro,148,211 State Road,,North Adams,MA,01247,United States,(413) 664-0306,42.6976738,-73.1419,"Monday 7:30AM - 7:00PM, Tuesday 7:30AM - 7:00PM, Wednesday 7:30AM - 7:00PM, Thursday 7:30AM - 7:00PM, Friday 7:30AM - 7:00PM, Saturday 7:30AM - 6:00PM, Sunday 9:00AM - 5:00PM",,,
Monro,219,6 Cheshire Road,,Pittsfield,MA,01201,United States,(413) 448-2535,42.4683533,-73.20364,"Monday 7:30AM - 7:00PM, Tuesday 7:30AM - 7:00PM, Wednesday 7:30AM - 7:00PM, Thursday 7:30AM - 7:00PM, Friday 7:30AM - 7:00PM, Saturday 7:30AM - 6:00PM, Sunday 9:00AM - 5:00PM",,,
Monro,359,514 Pittsfield Road,,Lenox,MA,01240,United States,(413) 442-6426,42.40648,-73.26476,"Monday 7:30AM - 7:00PM, Tuesday 7:30AM - 7:00PM, Wednesday 7:30AM - 7:00PM, Thursday 7:30AM - 7:00PM, Friday 7:30AM - 7:00PM, Saturday 7:30AM - 6:00PM, Sunday 9:00AM - 5:00PM",,,
Monro,482,2260 East Livingston,,Bexley,OH,43209,United States,(614) 231-3011,39.94802,-82.93684,"Monday 7:30AM - 7:00PM, Tuesday 7:30AM - 7:00PM, Wednesday 7:30AM - 7:00PM, Thursday 7:30AM - 7:00PM, Friday 7:30AM - 7:00PM, Saturday 7:30AM - 6:00PM, Sunday Closed",,,
Monro,479,3085 Olentangy River Road,,Columbus,OH,43202,United States,(614) 388-9223,40.023632,-83.0262,"Monday 7:30AM - 7:00PM, Tuesday 7:30AM - 7:00PM, Wednesday 7:30AM - 7:00PM, Thursday 7:30AM - 7:00PM, Friday 7:30AM - 7:00PM, Saturday 7:30AM - 6:00PM, Sunday 9:00AM - 5:00PM",,,
Monro,857,2845 Tremont Road,,Columbus,OH,43221,United States,(614) 388-8609,40.0128,-83.06832,"Monday 7:30AM - 7:00PM, Tuesday 7:30AM - 7:00PM, Wednesday 7:30AM - 7:00PM, Thursday 7:30AM - 7:00PM, Friday 7:30AM - 7:00PM, Saturday 7:30AM - 6:00PM, Sunday 9:00AM - 5:00PM",,,
Monro,856,4570 W. Broad Street,,Columbus,OH,43228,United States,(614) 360-3883,39.95262,-83.12352,"Monday 7:30AM - 7:00PM, Tuesday 7:30AM - 7:00PM, Wednesday 7:30AM - 7:00PM, Thursday 7:30AM - 7:00PM, Friday 7:30AM - 7:00PM, Saturday 7:30AM - 6:00PM, Sunday Closed",,,
Monro,485,1265 Bethel Road,,Columbus,OH,43220,United States,(614) 372-6500,40.0634842,-83.05026,"Monday 7:30AM - 7:00PM, Tuesday 7:30AM - 7:00PM, Wednesday 7:30AM - 7:00PM, Thursday 7:30AM - 7:00PM, Friday 7:30AM - 7:00PM, Saturday 7:30AM - 6:00PM, Sunday 9:00AM - 5:00PM",,,
Monro,483,5500 North High Street,,Columbus,OH,43214,United States,(614) 885-2931,40.07554,-83.01842,"Monday 7:30AM - 7:00PM, Tuesday 7:30AM - 7:00PM, Wednesday 7:30AM - 7:00PM, Thursday 7:30AM - 7:00PM, Friday 7:30AM - 7:00PM, Saturday 7:30AM - 6:00PM, Sunday 9:00AM - 5:00PM",,,
Monro,303,3707 Fishinger Blvd.,,Hilliard,OH,43026,United States,(614) 388-8485,40.03256,-83.1175156,"Monday 7:30AM - 7:00PM, Tuesday 7:30AM - 7:00PM, Wednesday 7:30AM - 7:00PM, Thursday 7:30AM - 7:00PM, Friday 7:30AM - 7:00PM, Saturday 7:30AM - 6:00PM, Sunday 9:00AM - 5:00PM",,,
Monro,328,5454 Westchester Woods Blvd.,,Hilliard,OH,43026,United States,(614) 372-6015,39.9866066,-83.15073,"Monday 7:30AM - 7:00PM, Tuesday 7:30AM - 7:00PM, Wednesday 7:30AM - 7:00PM, Thursday 7:30AM - 7:00PM, Friday 7:30AM - 7:00PM, Saturday 7:30AM - 6:00PM, Sunday 9:00AM - 5:00PM",,,
Monro,481,6309 East Main Street,,Columbus,OH,43213,United States,(614) 863-1465,39.9545135,-82.82918,"Monday 7:30AM - 7:00PM, Tuesday 7:30AM - 7:00PM, Wednesday 7:30AM - 7:00PM, Thursday 7:30AM - 7:00PM, Friday 7:30AM - 7:00PM, Saturday 7:30AM - 6:00PM, Sunday Closed",,,
Monro,860,6186 E. Livingston Ave,,Reynoldsburg,OH,43068,United States,(614) 861-2240,39.94212,-82.82898,"Monday 7:30AM - 7:00PM, Tuesday 7:30AM - 7:00PM, Wednesday 7:30AM - 7:00PM, Thursday 7:30AM - 7:00PM, Friday 7:30AM - 7:00PM, Saturday 7:30AM - 6:00PM, Sunday 9:00AM - 5:00PM",,,
Monro,601,1390 North Hamilton Road,,Gahanna,OH,43230,United States,(614) 360-3925,40.05529,-82.8638,"Monday 7:30AM - 7:00PM, Tuesday 7:30AM - 7:00PM, Wednesday 7:30AM - 7:00PM, Thursday 7:30AM - 7:00PM, Friday 7:30AM - 7:00PM, Saturday 7:30AM - 6:00PM, Sunday 9:00AM - 5:00PM",,,
Monro,392,5956 Westerville Road,,Westerville,OH,43081,United States,(614) 901-9495,40.09528,-82.92439,"Monday 7:30AM - 7:00PM, Tuesday 7:30AM - 7:00PM, Wednesday 7:30AM - 7:00PM, Thursday 7:30AM - 7:00PM, Friday 7:30AM - 7:00PM, Saturday 7:30AM - 6:00PM, Sunday 9:00AM - 5:00PM",,,
Monro,854,798 S. State Street,,Westerville,OH,43081,United States,(614) 882-9121,40.107,-82.92516,"Monday 7:30AM - 7:00PM, Tuesday 7:30AM - 7:00PM, Wednesday 7:30AM - 7:00PM, Thursday 7:30AM - 7:00PM, Friday 7:30AM - 7:00PM, Saturday 7:30AM - 6:00PM, Sunday Closed",,,
Monro,387,1920 Hard Road,,Columbus,OH,43235,United States,(614) 760-0658,40.1173,-83.0643,"Monday 7:30AM - 7:00PM, Tuesday 7:30AM - 7:00PM, Wednesday 7:30AM - 7:00PM, Thursday 7:30AM - 7:00PM, Friday 7:30AM - 7:00PM, Saturday 7:30AM - 6:00PM, Sunday 9:00AM - 5:00PM",,,
Monro,298,845 Park Road,,Columbus,OH,43085,United States,(614) 388-8053,40.12589,-82.97922,"Monday 7:30AM - 7:00PM, Tuesday 7:30AM - 7:00PM, Wednesday 7:30AM - 7:00PM, Thursday 7:30AM - 7:00PM, Friday 7:30AM - 7:00PM, Saturday 7:30AM - 6:00PM, Sunday 9:00AM - 5:00PM",,,
Monro,363,6580 Perimeter Loop Road,,Dublin,OH,43017,United States,(614) 360-3102,40.10086,-83.15533,"Monday 7:30AM - 7:00PM, Tuesday 7:30AM - 7:00PM, Wednesday 7:30AM - 7:00PM, Thursday 7:30AM - 7:00PM, Friday 7:30AM - 7:00PM, Saturday 7:30AM - 6:00PM, Sunday 9:00AM - 5:00PM",,,
Monro,312,850 Refugee Road,,Pickerington,OH,43147,United States,(614) 864-7716,39.9059,-82.70016,"Monday 7:30AM - 7:00PM, Tuesday 7:30AM - 7:00PM, Wednesday 7:30AM - 7:00PM, Thursday 7:30AM - 7:00PM, Friday 7:30AM - 7:00PM, Saturday 7:30AM - 6:00PM, Sunday 9:00AM - 5:00PM",,,
Monro,340,1105 Columbus Pike,,Delaware,OH,43015,United States,(740) 369-8161,40.27498,-83.07028,"Monday 7:30AM - 7:00PM, Tuesday 7:30AM - 7:00PM, Wednesday 7:30AM - 7:00PM, Thursday 7:30AM - 7:00PM, Friday 7:30AM - 7:00PM, Saturday 7:30AM - 6:00PM, Sunday Closed",,,
Monro,175,930 N. Memorial Drive,,Lancaster,OH,43130,United States,(740) 653-4298,39.72457,-82.60849,"Monday 7:30AM - 7:00PM, Tuesday 7:30AM - 7:00PM, Wednesday 7:30AM - 7:00PM, Thursday 7:30AM - 7:00PM, Friday 7:30AM - 7:00PM, Saturday 7:30AM - 6:00PM, Sunday 9:00AM - 5:00PM",,,
Monro,212,15791 US Highway 36,,Marysville,OH,43040,United States,(937) 642-2030,40.2561,-83.3695,"Monday 7:30AM - 7:00PM, Tuesday 7:30AM - 7:00PM, Wednesday 7:30AM - 7:00PM, Thursday 7:30AM - 7:00PM, Friday 7:30AM - 7:00PM, Saturday 7:30AM - 6:00PM, Sunday Closed",,,
Monro,170,1051 North 21st Street,,Newark,OH,43055,United States,(740) 366-7168,40.077198,-82.42861,"Monday 7:30AM - 7:00PM, Tuesday 7:30AM - 7:00PM, Wednesday 7:30AM - 7:00PM, Thursday 7:30AM - 7:00PM, Friday 7:30AM - 7:00PM, Saturday 7:30AM - 6:00PM, Sunday 9:00AM - 5:00PM",,,
Monro,236,1870 Columbus Avenue,,Washington Ct. House,OH,43160,United States,(740) 636-0359,39.5472,-83.4268,"Monday 7:30AM - 7:00PM, Tuesday 7:30AM - 7:00PM, Wednesday 7:30AM - 7:00PM, Thursday 7:30AM - 7:00PM, Friday 7:30AM - 7:00PM, Saturday 7:30AM - 6:00PM, Sunday Closed",,,
Monro,238,1014 Coshocton Avenue,,Mount Vernon,OH,43050,United States,(740) 392-8250,40.3985,-82.461,"Monday 7:30AM - 7:00PM, Tuesday 7:30AM - 7:00PM, Wednesday 7:30AM - 7:00PM, Thursday 7:30AM - 7:00PM, Friday 7:30AM - 7:00PM, Saturday 7:30AM - 6:00PM, Sunday 9:00AM - 5:00PM",,,
Monro,282,1111 East US Route 36,,Urbana,OH,43078,United States,(937) 484-4200,40.1109,-83.7733,"Monday 7:30AM - 6:00PM, Tuesday 7:30AM - 6:00PM, Wednesday 7:30AM - 6:00PM, Thursday 7:30AM - 6:00PM, Friday 7:30AM - 6:00PM, Saturday 7:30AM - 6:00PM, Sunday Closed",,,
Monro,254,1246 Mt. Vernon Avenue,,Marion,OH,43302,United States,(740) 386-2100,40.5809,-83.09711,"Monday 7:30AM - 7:00PM, Tuesday 7:30AM - 7:00PM, Wednesday 7:30AM - 7:00PM, Thursday 7:30AM - 7:00PM, Friday 7:30AM - 7:00PM, Saturday 7:30AM - 6:00PM, Sunday 9:00AM - 5:00PM",,,
Monro,827,10 W. North Street,,Springfield,OH,45504,United States,(937) 323-4751,39.92706,-83.81016,"Monday 7:30AM - 7:00PM, Tuesday 7:30AM - 7:00PM, Wednesday 7:30AM - 7:00PM, Thursday 7:30AM - 7:00PM, Friday 7:30AM - 7:00PM, Saturday 7:30AM - 6:00PM, Sunday Closed",,,
Monro,825,1180 Upper Valley Pike,,Springfield,OH,45504,United States,(937) 324-0316,39.94344,-83.85468,"Monday 7:30AM - 7:00PM, Tuesday 7:30AM - 7:00PM, Wednesday 7:30AM - 7:00PM, Thursday 7:30AM - 7:00PM, Friday 7:30AM - 7:00PM, Saturday 7:30AM - 6:00PM, Sunday Closed",,,
Monro,289,1801 South Main Street,,Bellefontaine,OH,43311,United States,(937) 593-7304,40.3392,-83.7617,"Monday 7:30AM - 7:00PM, Tuesday 7:30AM - 7:00PM, Wednesday 7:30AM - 7:00PM, Thursday 7:30AM - 7:00PM, Friday 7:30AM - 7:00PM, Saturday 7:30AM - 6:00PM, Sunday Closed",,,
Monro,855,1307 Maple Ave,,Zanesville,OH,43701,United States,(740) 454-2833,39.95544,-82.01052,"Monday 7:30AM - 7:00PM, Tuesday 7:30AM - 7:00PM, Wednesday 7:30AM - 7:00PM, Thursday 7:30AM - 7:00PM, Friday 7:30AM - 7:00PM, Saturday 7:30AM - 6:00PM, Sunday 9:00AM - 5:00PM",,,
Monro,235,495 W. Main Street,,Xenia,OH,45385,United States,(937) 374-3161,39.6843,-83.9345,"Monday 7:30AM - 7:00PM, Tuesday 7:30AM - 7:00PM, Wednesday 7:30AM - 7:00PM, Thursday 7:30AM - 7:00PM, Friday 7:30AM - 7:00PM, Saturday 7:30AM - 6:00PM, Sunday 9:00AM - 5:00PM",,,
Monro,339,1420 Rombach Avenue,,Wilmington,OH,45177,United States,(937) 383-9060,39.4491577,-83.8024,"Monday 7:30AM - 7:00PM, Tuesday 7:30AM - 7:00PM, Wednesday 7:30AM - 7:00PM, Thursday 7:30AM - 7:00PM, Friday 7:30AM - 7:00PM, Saturday 7:30AM - 6:00PM, Sunday Closed",,,
Monro,182,1344 S. Trimble Road,,Mansfield,OH,44907,United States,(419) 756-4770,40.72102,-82.5450058,"Monday 7:30AM - 7:00PM, Tuesday 7:30AM - 7:00PM, Wednesday 7:30AM - 7:00PM, Thursday 7:30AM - 7:00PM, Friday 7:30AM - 7:00PM, Saturday 7:30AM - 6:00PM, Sunday 9:00AM - 5:00PM",,,
Monro,826,3198 Dayton-Xenia Road,,Beaver Creek,OH,45434,United States,(937) 427-0050,39.7267952,-84.05385,"Monday 7:30AM - 7:00PM, Tuesday 7:30AM - 7:00PM, Wednesday 7:30AM - 7:00PM, Thursday 7:30AM - 7:00PM, Friday 7:30AM - 7:00PM, Saturday 7:30AM - 6:00PM, Sunday 9:00AM - 5:00PM",,,
Monro,490,6508 Brandt Pike,,Huber Heights,OH,45424,United States,(937) 233-9170,39.8469467,-84.1137848,"Monday 7:30AM - 7:00PM, Tuesday 7:30AM - 7:00PM, Wednesday 7:30AM - 7:00PM, Thursday 7:30AM - 7:00PM, Friday 7:30AM - 7:00PM, Saturday 7:30AM - 6:00PM, Sunday 9:00AM - 5:00PM",,,
Monro,405,1062 Park Avenue West,,Mansfield,OH,44906,United States,(419) 529-9100,40.7643,-82.5647,"Monday 7:30AM - 7:00PM, Tuesday 7:30AM - 7:00PM, Wednesday 7:30AM - 7:00PM, Thursday 7:30AM - 7:00PM, Friday 7:30AM - 7:00PM, Saturday 7:30AM - 6:00PM, Sunday 9:00AM - 5:00PM",,,
Monro,828,7888 Old Troy Pike,,Huber Hts,OH,45424,United States,(937) 233-8624,39.8676,-84.13776,"Monday 7:30AM - 7:00PM, Tuesday 7:30AM - 7:00PM, Wednesday 7:30AM - 7:00PM, Thursday 7:30AM - 7:00PM, Friday 7:30AM - 7:00PM, Saturday 7:30AM - 6:00PM, Sunday 9:00AM - 5:00PM",,,
Monro,486,594 Woodman Drive,,Dayton,OH,45431,United States,(937) 252-9936,39.7579536,-84.11982,"Monday 7:30AM - 7:00PM, Tuesday 7:30AM - 7:00PM, Wednesday 7:30AM - 7:00PM, Thursday 7:30AM - 7:00PM, Friday 7:30AM - 7:00PM, Saturday 7:30AM - 6:00PM, Sunday Closed",,,
Monro,488,1355 East Dorothy Lane,,Kettering,OH,45419,United States,(937) 293-0661,39.70377,-84.14218,"Monday 7:30AM - 7:00PM, Tuesday 7:30AM - 7:00PM, Wednesday 7:30AM - 7:00PM, Thursday 7:30AM - 7:00PM, Friday 7:30AM - 7:00PM, Saturday 7:30AM - 6:00PM, Sunday 9:00AM - 5:00PM",,,
Monro,823,4030 Marshall Road,,Kettering,OH,45429,United States,(937) 299-3907,39.68802,-84.14436,"Monday 7:30AM - 7:00PM, Tuesday 7:30AM - 7:00PM, Wednesday 7:30AM - 7:00PM, Thursday 7:30AM - 7:00PM, Friday 7:30AM - 7:00PM, Saturday 7:30AM - 6:00PM, Sunday 9:00AM - 5:00PM",,,
Monro,316,1101 West Main Street,,Troy,OH,45373,United States,(937) 335-8492,40.046093,-84.21759,"Monday 7:30AM - 7:00PM, Tuesday 7:30AM - 7:00PM, Wednesday 7:30AM - 7:00PM, Thursday 7:30AM - 7:00PM, Friday 7:30AM - 7:00PM, Saturday 7:30AM - 6:00PM, Sunday Closed",,,
Monro,824,12 W Whipp Road,,Centerville,OH,45459,United States,(937) 433-6251,39.6588,-84.15834,"Monday 7:30AM - 7:00PM, Tuesday 7:30AM - 7:00PM, Wednesday 7:30AM - 7:00PM, Thursday 7:30AM - 7:00PM, Friday 7:30AM - 7:00PM, Saturday 7:30AM - 6:00PM, Sunday 9:00AM - 5:00PM",,,
Monro,232,739 East State Street,,Athens,OH,45701,United States,(740) 594-4153,39.3372078,-82.07424,"Monday 7:30AM - 7:00PM, Tuesday 7:30AM - 7:00PM, Wednesday 7:30AM - 7:00PM, Thursday 7:30AM - 7:00PM, Friday 7:30AM - 7:00PM, Saturday 7:30AM - 6:00PM, Sunday 9:00AM - 5:00PM",,,
Monro,489,3029 Mall Park Drive,,Dayton,OH,45459,United States,(937) 434-0718,39.6351,-84.2127,"Monday 7:30AM - 7:00PM, Tuesday 7:30AM - 7:00PM, Wednesday 7:30AM - 7:00PM, Thursday 7:30AM - 7:00PM, Friday 7:30AM - 7:00PM, Saturday 7:30AM - 6:00PM, Sunday 9:00AM - 5:00PM",,,
Monro,830,4 Remick Blvd.,,Springboro,OH,45066,United States,(937) 999-3202,39.57863,-84.2301941,"Monday 7:30AM - 7:00PM, Tuesday 7:30AM - 7:00PM, Wednesday 7:30AM - 7:00PM, Thursday 7:30AM - 7:00PM, Friday 7:30AM - 7:00PM, Saturday 7:30AM - 6:00PM, Sunday 9:00AM - 5:00PM",,,
Monro,211,1249 Claremont Avenue,,Ashland,OH,44805,United States,(419) 289-1604,40.857048,-82.33118,"Monday 7:30AM - 7:00PM, Tuesday 7:30AM - 7:00PM, Wednesday 7:30AM - 7:00PM, Thursday 7:30AM - 7:00PM, Friday 7:30AM - 7:00PM, Saturday 7:30AM - 6:00PM, Sunday 9:00AM - 5:00PM",,,
Monro,332,2400 West State Route 18,,Tiffin,OH,44883,United States,(419) 448-4550,41.1096649,-83.2162552,"Monday 7:30AM - 7:00PM, Tuesday 7:30AM - 7:00PM, Wednesday 7:30AM - 7:00PM, Thursday 7:30AM - 7:00PM, Friday 7:30AM - 7:00PM, Saturday 7:30AM - 6:00PM, Sunday Closed",,,
Monro,819,2555 Elida Road,,Lima,OH,45805,United States,(419) 331-3306,40.7633743,-84.15114,"Monday 7:30AM - 7:00PM, Tuesday 7:30AM - 7:00PM, Wednesday 7:30AM - 7:00PM, Thursday 7:30AM - 7:00PM, Friday 7:30AM - 7:00PM, Saturday 7:30AM - 6:00PM, Sunday Closed",,,
Monro,177,2781 Cleveland Road,,Wooster,OH,44691,United States,(330) 345-6310,40.8357,-81.9290161,"Monday 7:30AM - 7:00PM, Tuesday 7:30AM - 7:00PM, Wednesday 7:30AM - 7:00PM, Thursday 7:30AM - 7:00PM, Friday 7:30AM - 7:00PM, Saturday 7:30AM - 6:00PM, Sunday 9:00AM - 5:00PM",,,
Monro,848,5218 Bardes Road,,Mason,OH,45040,United States,(513) 336-8448,39.29669,-84.32035,"Monday 7:30AM - 7:00PM, Tuesday 7:30AM - 7:00PM, Wednesday 7:30AM - 7:00PM, Thursday 7:30AM - 7:00PM, Friday 7:30AM - 7:00PM, Saturday 7:30AM - 6:00PM, Sunday 9:00AM - 5:00PM",,,
Monro,840,11915 Lebanon Road,,Cincinnati,OH,45241,United States,(513) 733-8818,39.28914,-84.39486,"Monday 7:30AM - 7:00PM, Tuesday 7:30AM - 7:00PM, Wednesday 7:30AM - 7:00PM, Thursday 7:30AM - 7:00PM, Friday 7:30AM - 7:00PM, Saturday 7:30AM - 6:00PM, Sunday Closed",,,
Monro,839,9841 Montgomery Rd,,Cincinnati,OH,45242,United States,(513) 745-9300,39.23406,-84.35088,"Monday 7:30AM - 7:00PM, Tuesday 7:30AM - 7:00PM, Wednesday 7:30AM - 7:00PM, Thursday 7:30AM - 7:00PM, Friday 7:30AM - 7:00PM, Saturday 7:30AM - 6:00PM, Sunday Closed",,,
Monro,849,5900 Muhlhauser Rd.,,West Chester,OH,45069,United States,(513) 942-5007,39.3217125,-84.43136,"Monday 7:30AM - 7:00PM, Tuesday 7:30AM - 7:00PM, Wednesday 7:30AM - 7:00PM, Thursday 7:30AM - 7:00PM, Friday 7:30AM - 7:00PM, Saturday 7:30AM - 6:00PM, Sunday 9:00AM - 5:00PM",,,
Monro,131,214 South Broadway,,New Philadelphia,OH,44663,United States,(330) 339-1466,40.4873657,-81.44623,"Monday 7:30AM - 7:00PM, Tuesday 7:30AM - 7:00PM, Wednesday 7:30AM - 7:00PM, Thursday 7:30AM - 7:00PM, Friday 7:30AM - 7:00PM, Saturday 7:30AM - 6:00PM, Sunday 9:00AM - 5:00PM",,,
Monro,249,190 Milan Avenue,,Norwalk,OH,44857,United States,(419) 663-3133,41.25754,-82.61207,"Monday 7:30AM - 7:00PM, Tuesday 7:30AM - 7:00PM, Wednesday 7:30AM - 7:00PM, Thursday 7:30AM - 7:00PM, Friday 7:30AM - 7:00PM, Saturday 7:30AM - 6:00PM, Sunday 7:30AM - 5:00PM",,,
Monro,846,1315 Main Street,,Hamilton,OH,45013,United States,(513) 887-0202,39.42078,-84.59064,"Monday 7:30AM - 7:00PM, Tuesday 7:30AM - 7:00PM, Wednesday 7:30AM - 7:00PM, Thursday 7:30AM - 7:00PM, Friday 7:30AM - 7:00PM, Saturday 7:30AM - 6:00PM, Sunday Closed",,,
Monro,852,6200 Wooster Pike,,Cincinnati,OH,45227,United States,(513) 271-2424,39.14316,-84.38754,"Monday 7:30AM - 7:00PM, Tuesday 7:30AM - 7:00PM, Wednesday 7:30AM - 7:00PM, Thursday 7:30AM - 7:00PM, Friday 7:30AM - 7:00PM, Saturday 7:30AM - 6:00PM, Sunday Closed",,,
Monro,845,543 Nilles Road,,Fairfield,OH,45014,United States,(513) 829-1181,39.33798,-84.56232,"Monday 7:30AM - 7:00PM, Tuesday 7:30AM - 7:00PM, Wednesday 7:30AM - 7:00PM, Thursday 7:30AM - 7:00PM, Friday 7:30AM - 7:00PM, Saturday 7:30AM - 6:00PM, Sunday 9:00AM - 5:00PM",,,
Monro,850,7955 Beechmont Avenue,,Cincinnati,OH,45255,United States,(513) 474-5154,39.0726,-84.33396,"Monday 7:30AM - 7:00PM, Tuesday 7:30AM - 7:00PM, Wednesday 7:30AM - 7:00PM, Thursday 7:30AM - 7:00PM, Friday 7:30AM - 7:00PM, Saturday 7:30AM - 6:00PM, Sunday 9:00AM - 5:00PM",,,
Monro,841,880 Galbraith Rd,,Cincinnati,OH,45231,United States,(513) 522-3100,39.21558,-84.5172,"Monday 7:30AM - 7:00PM, Tuesday 7:30AM - 7:00PM, Wednesday 7:30AM - 7:00PM, Thursday 7:30AM - 7:00PM, Friday 7:30AM - 7:00PM, Saturday 7:30AM - 6:00PM, Sunday Closed",,,
