store_name,store_number,address,address2,city,state,zip_code,country,phone_number,latitude,longitude,store_hours,store_type,other_fields,coming_soon
Under Armour Brand House,,583 Broadway,,New York,NY,10012,US,646-863-7389,40.7246747368421,-73.9974005263158,,,,
Under Armour Brand House,,185 Greenwich St.,Space LL4302,New York,NY,10007,US,212.964.0480,40.713359,-74.0116828,,,,
Under Armour Brand House,,125 Westchester Ave.,Space 2005C,White Plains,NY,10601,US,914-750-4421,41.03248,-73.75976,,,,
Under Armour Factory House,,1946 Military Road,Space 67,Niagara,NY,14304,US,716-297-1510,43.0983897260274,-78.9761043835616,,,,
Under Armour Factory House,,655 Route 318,Suite A003,Waterloo,NY,13165,US,315-539-0680,42.95422,-76.92127,,,,
Under Armour Factory House,,185 Marigold Court,Suite Q101,Central Valley,NY,10917,US,845-928-3013,41.3169833333333,-74.12965,,,,
Under Armour Factory House,,1513 Tanger Mall Dr.,Suite 1513,Riverhead,NY,11901,US,631-208-3147,40.9195944779798,-72.7148609048351,,,,
Under Armour Factory House,,1454 State Route 9,Space 4,Lake George,NY,12845,US,518-761-6787,43.366219002913,-73.6995908736649,,,,
Under Armour Factory House,,152 The Arches Circle,Suite 425,Deer Park,NY,11729,US,631-466-9000,40.76509,-73.303344,,,,
New York Police Supply Inc.,,1460 Ridge Road East,,Rochester,NY,14621,US,585.467.1370,43.198762173913,-77.5784213043478,,,,
Alpin Haus Ski Shop,,22 Clifton Country Rd,,Clifton Park,NY,12065,US,518-3712211,42.8605,-73.78082,,,,
"Transaero, Inc.",,80 Crossways Park Dr.,,Woodbury,NY,11797,US,516.921.7400,40.81043,-73.48611,,,,
Under Armour Brand House,,837 Americana Way,Space D10/11,Glendale,CA,91204,US,747-221-7832,34.1443761342393,-118.25574175701,,,,
Under Armour Factory House,,100 Citadel Drive,Space 648,Commerce,CA,90040,US,323-728-1520,34.00487,-118.15308,,,,
Quartermaster Inc.,,2543 W. 6th Street,,Los Angeles,CA,90057,US,213.351.9632,34.061761,-118.279795,,,,
Big 5 Sporting Goods,,3420 Wilshire Blvd.,,Los Angeles,CA,90010,US,213.385.6961,34.061765,-118.2981125,,,,
University Sporting Goods,,3625 South Vermon Ave,,Los Angeles,CA,90007,US,323.734.4707,34.0224494736842,-118.291546315789,,,,
iRun LOCAL,,18 Congress St,Suite 3,Saratoga Springs,NY,12866,US,518-886-8537,43.0786333333333,-73.7872822222222,,,,
Whitetail Country Sports World,,1102 W State St,,Olean,NY,14760,US,716-373-2144,42.0774097959184,-78.4422946938775,,,,
Alpin Haus Ski Shop,,4850 State Hwy 30 North,,Amsterdam,NY,12010,US,518-843-4400,42.97102,-74.1875,,,,
Jay's Military Surplus,,141 Fulton Ave,,Hempstead,NY,11550,US,516.483.4977,40.7068090909091,-73.6314581818182,,,,
Rosen's Uniforms,,230 Central Ave,SUITE 1,Albany,NY,12206,US,518.434.1376,42.6628994693782,-73.7703543925777,,,,
American Trade and Goods,,1213 Louden Rd,,Cohoes,NY,12047,US,518.220.9800,42.7953004830489,-73.7341782939345,,,,
Tilly's,,630 Old Country Rd,,Garden City,NY,11530,US,(516) 248-0115,40.7431486860755,-73.6150665594984,,,,
East End Quartermaster,,279 Montawk Highway,,Speonk,NY,11972,US,631.325.8000,40.8193684615385,-72.7039126923077,,,,
National Graphic Supply,,226 North Allen Street,,Albany,NY,12206,US,518.438.8411,42.6737654545455,-73.7843027272727,,,,
Uniforms Today,,43-01 21st,,Long Island City,NY,11101,US,718.784.1166,40.75066,-73.94569,,,,
The Racket Doctor,,3214 Glendale Blvd,,Los Angeles,CA,90039,US,323.663.2950,34.11773125,-118.260987083333,,,,
Big 5 Sporting Goods,,"7604 South Alameda Street, Suite I",,Huntington Park,CA,90255,US,323.588.0615,33.9718595238095,-118.234216428571,,,,
Big 5 Sporting Goods,,3730 Crenshaw Boulevard,,Los Angeles,CA,90016,US,323.295.5248,34.01883,-118.33510625,,,,
Big 5 Sporting Goods,,2062 South Atlantic Boulevard,,Monterey Park,CA,91754,US,213.890.0981,34.0397423894892,-118.142929334479,,,,
"UnderSports, Inc",,829 N Highland Ave,,Los Angeles,CA,90038,US,888.658.5444,34.08578,-118.338592857143,,,,
Botach Tactical,,3423 West 43rd Place,,Los Angeles,CA,90008,US,323.294.5555,34.0042127947613,-118.331700567639,,,,
Soccer Stores,,520 S Brand Blvd,,Glendale,CA,91204,US,818.234.7790,34.1403773469388,-118.254915918367,,,,
"Campco, Inc.",,4625 W Jefferson Blvd,,Los Angeles,CA,90016,US,323.766.2552,34.02554,-118.346332244898,,,,
Champs,,1189 Glendale Galleria,,Glendale,CA,91210,US,818.547.4808,34.1466569064748,-118.259216834532,,,,
Big 5 Sporting Goods,,144 North Central Avenue,,Glendale,CA,91203,US,818.246.1100,34.1473742857143,-118.25791,,,,
Lockport Outdoor Store,,5943 S Transit Rd,,Lockport,NY,14094,US,716.433.8991,43.135624,-78.69688,,,,
Schenectady Rudnick Corp.,,308 State Street,,Schenectady,NY,12305,US,518.377.0458,42.8140439775422,-73.9437745573303,,,,
Ad Meyers Uniforms,,63 Flatbush Ave,,Brooklyn,NY,11217,US,718.855.4018,40.6871461538462,-73.9796953846154,,,,
Under Armour Brand House,,600 N. Michigan Ave.,,Chicago,IL,60611,US,312-690-5094,41.89254,-87.62417,,,,
Under Armour Factory House,,5220 Fashion Outlet Way,Suite 1135,Rosemont,IL,60018,US,847-678-7759,41.9754926,-87.8659742,,,,
Nordstrom's,,55 East Grand View,,Chicago,IL,60611,US,312.464.1515,41.8916887096774,-87.6263038709677,,,,
Nordstrom's,,55 East Grand Avenue,,Chicago,IL,60611,US,312.464.1515,41.8916887096774,-87.6263038709677,,,,
Finish Line,,835 N Michigan Ave,,Chicago,IL,60611,US,312.649.1184,41.8978764218459,-87.62408,,,,
Big 5 Sporting Goods,,6601 Wilshire Blvd.,,Los Angeles,CA,90048,US,213.651.2909,34.0639669122056,-118.370519459101,,,,
Big 5 Sporting Goods,,7111 Eastern Avenue,,Bell Gardens,CA,90201,US,323.560.4815,33.9685714893617,-118.164757021277,,,,
Pro Soccer,,1139 S Fair Oaks Ave.,,Pasadena,CA,91105,US,626.403.9921,34.126168,-118.15029,,,,
Big 5 Sporting Goods,,620 E. Valley Blvd.,,Alhambra,CA,91801,US,626.281.6753,34.0788558058632,-118.116716471226,,,,
Niky's Sports,,1200 S. Vail Ave,,Montebello,CA,90640,US,323.888.0680,33.9941,-118.12924,,,,
Turners Outdoorsman,,835 S. Arroyo Pkwy.,,Pasadena,CA,91105,US,626.578.0155,34.1312773920296,-118.147377391315,,,,
Finish Line,,8500 Beverly Blvd.,,Los Angeles,CA,90048,US,310.652.6889,34.07606,-118.37661,,,,
Jeff's Sporting Goods,,303 E. Valley Blvd,,San Gabriel,CA,91776,US,626.288.6141,34.0798711363636,-118.096955681818,,,,
Big 5 Sporting Goods,,301 S. Market Street,,Inglewood,CA,90301,US,310.674.4344,33.96049,-118.35195,,,,
Budget Sporting Goods,,6611 Wescott Frontage Rd,,Houston,TX,77007,US,713.864.6806,29.7732,-95.40116,,,,
Top Brass Military & Tactical-Houston,,2500 North Frwy,,Houston,TX,77009,US,713.695.9517,29.79472,-95.3713,,,,
Academy Sports & Outdoors,,2404 Southwest Freeway,,Houston,TX,77098,US,713.520.1795,29.73107,-95.41576,,,,
Soccer 4 All,,2425 Rice Blvd.,,Houston,TX,77005,US,713.522.0441,29.71745,-95.4153639196531,,,,
Golfsmith,,3005 West Loop S,,Houston,TX,77027,US,713.993.9993,29.7356040740741,-95.4588474074074,,,,
Finish Line,,5015 Westheimer,,Houston,TX,77056,US,713.439.1566,29.7408115789474,-95.4615831578947,,,,
Golf Galaxy,,5078 Richmond Avenue,,Houston,TX,77056,US,832.203.1518,29.7319459659909,-95.4628906801813,,,,
Edwin Watts,,5395 Westheimer Rd,,Houston,TX,77056,US,713.627.2411,29.7392119047619,-95.47054,,,,
C & G Police Supply,,1008 Wirt Rd,,Houston,TX,77055,US,866.927.6687,29.7849516212902,-95.4847288513306,,,,
Kale Uniforms,,1233 W. Monroe,,Chicago,IL,60607,US,312.563.0022,41.8803104545455,-87.6581345454545,,,,
Fleet Feet Sports,,1620 N. Wells Street,,Chicago,IL,60614,US,312.587.3338,41.9117346153846,-87.6347353846154,,,,
Golfsmith,,2782 N. Clybourn Avenue Bldg. C.,,Chicago,IL,60614,US,773.281.1494,41.9319,-87.6776633333333,,,,
Fleet Feet Sports,,4762 N. Lincoln Avenue,,Chicago,IL,60625,US,773.271.3338,41.9680758064516,-87.6881858064516,,,,
Kale Uniforms,,6179 N.Lincoln Ave.,,Chicago,IL,60659,US,773.463.0022,41.99472,-87.712355,,,,
Shore Galleries Inc.,,3318 W. Devon Ave.,,Lincolnwood,IL,60712,US,847.676.2900,41.9973521401246,-87.7124772357622,,,,
Finish Line,,7501 W Cermak Rd,,North Riverside,IL,60546,US,708.442.5277,41.85028,-87.81,,,,
Finish Line,,3333 W Touhy Avenue,,Lincolnwood,IL,60712,US,847.676.0970,42.0118315789474,-87.7123726315789,,,,
Buddy's All Stars,,330 N. Victory,,Burbank,CA,91502,US,818.846.8805,34.1768,-118.31808625,,,,
Under Armour Brand House,,1529 Walnut Street,,Philadelphia,PA,19102,US,215.607.3440,39.9499307,-75.1672878,,,,
Under Armour Factory House,,100 S Premium Outlets Drive,Suite 110,Blackwood,NJ,08012,US,856-302-4559,39.7848791,-75.0528183,,,,
Modell's Sporting Goods,,1528 Chestnut Street,,Philadelphia,PA,19102,US,215.972.8080,39.9511214285714,-75.1660585714286,,,,
Philadelphia Runner,,1601 Sansom St.,,Philadelphia,PA,19103,US,215.972.8333,39.9505,-75.16737,,,,
Modell's Sporting Goods,,901 Market Street,,Philadelphia,PA,19104,US,215.629.0900,39.95135,-75.15515,,,,
K.O. Sporting Goods,,2001 E Moyamensing Ave,,Philadelphia,PA,19148,US,215.336.1550,39.9234,-75.15259,,,,
Modell's Sporting Goods,,15 Snyder Avenue,,Philadelphia,PA,19148,US,215.334.9540,39.9213757142857,-75.1463142857143,,,,
REI,,7538 Westheimer Rd,,Houston,TX,77063,US,713.353.2582,29.7375872881356,-95.5022066101695,,,,
Texas Outdoor Sports,,8635 Long Point Rd,,Houston,TX,77055,US,713.827.7301,29.80302,-95.5017771111111,,,,
Academy Sports & Outdoors,,8923 Katy Fwy,,Houston,TX,77024,US,713.465.9965,29.7839912643678,-95.5087151724138,,,,
Pasadena Sporting Goods,,115 Pasadena Fwy,,Pasadena,TX,77506,US,713.477.7151,29.7113114285714,-95.2114942857143,,,,
Barcelona Sporting Goods,,10210 Old Katy Rd,,Houston,TX,77043,US,713.464.8313,29.7850391666667,-95.5507,,,,
Briley MFR & Police Supply,,1230 Lumpkin Rd,,Houston,TX,77043,US,713.932.6995,29.7911306040268,-95.5587280536913,,,,
Golfsmith,,10885 Westheimer Rd,,Houston,TX,77042-3201,US,713.334.3334,29.7367114285714,-95.5683828571429,,,,
Sun & Ski Sports,,10560 Bissonnet Street Suite 100,,Houston,TX,77099,US,281.340.5000,29.6744592307692,-95.5640096153846,,,,
Top Brass Military & Tactical-Stafford,,11941 Southwest Frwy,,Stafford,TX,77477,US,281.879.8824,29.6478181081081,-95.5713797297297,,,,
Gulf Coast Athletic Supply,,1219 Southwest Fwy,,Stafford,TX,77477,US,281.240.8440,29.64684,-95.57389,,,,
Under Armour Factory House,,6800 N 95 Ave,Suite 890,Glendale,AZ,85305,US,623-772-5559,33.5346719230769,-112.264993076923,,,,
Under Armour Factory House,,4976 Premium Outlets Way,Suite 416,Chandler,AZ,85226,US,480-639-1761,33.2875981,-111.9732968,,,,
Big 5 Sporting Goods,,3560 East Thomas Road,,Phoenix,AZ,85018,US,602.955.9601,33.48047,-112.004964074074,,,,
Sunvalco Athletic Supply,,3811 W. Indian School Rd.,,Phoenix,AZ,85019,US,602.269.7833,33.49498,-112.140611666667,,,,
Big 5 Sporting Goods,,1717 West Bethany Home Road,,Phoenix,AZ,85015,US,602.242.1806,33.5240681632653,-112.095892040816,,,,
HP2 Inc,,1630 E Bethany Home Rd,,Phoenix,AZ,85016,US,602.235.9099,33.52376,-112.04611,,,,
Buddy's All Stars,,441 South 48th Street,,Tempe,AZ,85281,US,480.921.0850,33.4251965492546,-111.977368056633,,,,
R&N Sporting Goods,,6280 S. Archer Rd,,Summit,IL,60501,US,708.594.3400,41.7772169230769,-87.8139665384615,,,,
Golf Galaxy,,4831 Golf Road,Suite B,Skokie,IL,60077,US,847.324.0890,42.0553083333333,-87.74755,,,,
Finish Line,,36 Old Orchard Ctr,,Skokie,IL,60077,US,847.677.8985,42.06241,-87.74737,,,,
Nordstrom's,,77 Old Orchard Center,,Skokie,IL,60077-1406,US,847.677.2121,42.06241,-87.74737,,,,
Wilmette Bike & Sport Shop,,605 Green Bay Road,,Wilmette,IL,60091,US,847.251.1404,42.0755506226496,-87.7082092753606,,,,
Santo Sport Store,,6312 111th St,,Chicago Ridge,IL,60415,US,708.636.1125,41.690425,-87.7766325,,,,
"Abira, Inc.",,6550 Joliet Rd,,Countryside,IL,60525,US,708.482.4800,41.7702175,-87.886775,,,,
King Keyser,,41 S. Washington Ave,,Hinsdale,IL,60521,US,630.323.4320,41.802132244898,-87.9292536734694,,,,
Vivroux Sports,,5912 Broadway,,San Antonio,TX,78209,US,210.545.9696,29.4807458719491,-98.4650781653107,,,,
Premeir Uniforms & Sales,,2111 West Ave.,,San Antonio,TX,78201,US,210.253.3406,29.4804148421053,-98.5260198947368,,,,
Golf Galaxy,,315 Northwest Loop 410,,San Antonio,TX,78216,US,210.568.0125,29.50201,-98.54887,,,,
Edwin Watts,,1050 NE Loop 410,,San Antonio,TX,78209,US,210.822.4060,29.5152809,-98.4557994,,,,
Gary Bell Athletic,,10634 Gulfsale # 5,,San Antonio,TX,78216,US,210.340.5588,29.5365522920818,-98.4898358041052,,,,
Modell's Sporting Goods,,2465 S. 24th Street,,Philadelphia,PA,19145,US,215.271.3573,39.922482244898,-75.186912244898,,,,
Modell's Sporting Goods,,3400 Aramingo Ave,Imperial Plaza Shop Ctr,Philadelphia,PA,19134,US,215.634.7677,39.99102,-75.10161,,,,
Modell's Sporting Goods,,78 South 69th Street,,Upper Darby,PA,19082,US,610.352.9503,39.9594102325581,-75.2584779069767,,,,
D.L. Fire and Police,,611 Industrial Park Rd.,,Yeadon,PA,19050,US,610.623.2343,39.9371269961945,-75.2615505352415,,,,
Modell's Sporting Goods,,101 East Olney Ave,,Philadelphia,PA,19120,US,215.924.1866,40.03528,-75.12144,,,,
Modell's Sporting Goods,,530 Baltimore Pike Rd,,Clifton Heights,PA,19018,US,610.284.9800,39.9332321052632,-75.2881147368421,,,,
Third Base Sport & Trophy,,606 Hollywood Ave,,Cherry Hill,NJ,08002,US,856.665.0114,39.9364155102041,-75.0385467346939,,,,
Public Safety Unlimited LLC,,900 Haddon Field Rd,,Cherry Hill,NJ,08042,US,856.784.7455,39.92605,-75.03276,,,,
Ampro,,30 Bunting Lane,,Primos,PA,19018,US,610.623.9000,39.92322375,-75.3001779166667,,,,
Under Armour Factory House,,4191 Camino de la Plaza,Suite #LL01,San Ysidro,CA,92173,US,619-271-3811,32.54543,-117.042703673469,,,,
Innovasport,,BLVD. GUSTAVO SALINAS 10724,FRACCIONAMIENTO AVIACION,TIJUANA,BAJA CALIFORNIA,22420,MX,,32.5124253125,-117.0023278125,,,,
Innovasport,,BLVD. GUSTAVO SALINAS 10724,FRACCIONAMIENTO AVIACION,TIJUANA,BAJA CALIFORNIA,22420,MX,,32.5124253125,-117.0023278125,,,,
Innovasport,,PASEO DE LOS HEROES 9550,ZONA URBANA RIO TIJUANA,TIJUANA,BAJA CALIFORNIA,22010,MX,,32.5138336134902,-116.979223317858,,,,
Innovasport,,PASEO DE LOS HEROES 9550,ZONA URBANA RIO TIJUANA,TIJUANA,BAJA CALIFORNIA,22010,MX,,32.5138336134902,-116.979223317858,,,,
Innovasport,,LAZARO CARDENAS S/N,EL MEDANO,LOS CABOS,BAJA CALIFORNIA,23410,MX,,32.4430611,-116.9893561,,,,
The Sport Authority,,3949 Fairway Plaza,,Pasadena,TX,77505,US,281.998.4626,29.6526327902736,-95.15187,,,,
Soccer Time,,5001 Red Bluff Rd,,Pasadena,TX,77503,US,281-479-1477,29.67224,-95.1364,,,,
Thompson Sporting Goods,,4645 W Hwy-90A,,Stafford,TX,77477,US,281.980.4488,29.62846,-95.58671,,,,
Soccer 4 All,,1306 FM 1092 Rd,,Missouri City,TX,77459,US,281.499.6665,29.6006554545455,-95.5643284848485,,,,
Soccer Center,,4322 Hwy-6 N,,Houston,TX,77084,US,(281) 550-1486,29.8364896,-95.6445814,,,,
REI,,17717 State Highway 249,,Houston,TX,77064,US,832.237.8833,29.9579209,-95.5472455,,,,
REI,,1405 W. Southern,,Tempe,AZ,85282,US,480.967.5494,33.3928588235294,-111.960861176471,,,,
Finish Line,,5000 Arizona Mills Circle,,Tempe,AZ,85282,US,480.839.0862,33.38485,-111.96697,,,,
Arizona Shorts,,425 South Mill Ave,,Tempe,AZ,85281,US,480-966-9199,33.4262026262626,-111.939961212121,,,,
Baum's Sporting Goods,,1939 W. Dunlap,,Phoenix,AZ,85021,US,602.331.9100,33.5675644444444,-112.102347777778,,,,
Players Bench,,1837 N. Scottsdale Rd,,Tempe,AZ,85281,US,480.941.9898,33.450088,-111.92646,,,,
Big 5 Sporting Goods,,7710 West Thomas Road,,Phoenix,AZ,85033,US,623.848.4800,33.4801,-112.22487,,,,
Baum's Sporting Goods,,"937 East Broadway, #7",,Tempe,AZ,85282,US,480.929.9600,33.40745,-111.925466106015,,,,
Nordstrom's,,7055 East Camelback Rd.,,Scottsdale,AZ,85251,US,480.946.4111,33.50211,-111.929563333333,,,,
Finish Line,,7014-2232 E Camelback Rd,,Scottsdale,AZ,85251,US,480.947.8815,33.5023143474222,-111.928940431955,,,,
Big 5 Sporting Goods,,921 East Southern Avenue,,Tempe,AZ,85282,US,602.491.4511,33.39296,-111.9260025,,,,
Scandinavian Ski Shop,,1621 Waukegan Road,,Glenview,IL,60025,US,847.729.0550,42.0844890909091,-87.7983227272727,,,,
T.L. Fritts Sporting Goods,,560 Chestnut St.,,Winnetka,IL,60093,US,847.446.6694,42.1064055555556,-87.7351858333333,,,,
Nordstrom's,,10 Oakbrook Center Mall,,Oakbrook,IL,60521-1830,US,630.571.2121,41.8504228,-87.9530206,,,,
Nordstrom's,,10 Oakbrook Center Mall,,Oak Brook,IL,60521-1830,US,630.571.2121,41.849930201005,-87.9566298492462,,,,
Academy Sports & Outdoors,,2727 NE Loop 410,,San Antonio,TX,78217,US,210.590.0500,29.517188,-98.409761,,,,
Finish Line,,6301 NE Loop 410,,San Antonio,TX,78238,US,210.520.4596,29.4690915,-98.6211278,,,,
Kel-Lac Uniforms,,7016 W US Highway 90,,San Antonio,TX,78227,US,210.674.0511,29.4012706,-98.6291086,,,,
Baseball Express - Team Express,,1003 E. Nakoma ste. 104,,San Antonio,TX,78216,US,210.525.9161,29.5461815789474,-98.4800063157895,,,,
The Soccer Factory,,12066 Starcrest Dr,,San Antonio,TX,78247,US,210.795.7676,29.5501544011662,-98.4645692015549,,,,
Academy Sports & Outdoors,,7555 NW Loop 410,,San Antonio,TX,78245,US,210.523.5191,29.4440647,-98.6399374,,,,
Top Brass Military-San Antonio,,11500 I-10 West,,San Antonio,TX,78230,US,210.641.2521,29.548484378801,-98.5856325035086,,,,
Good Sports,,12730 I H 10 West #300,,San Antonio,TX,78230,US,210.694.0881,29.5622904,-98.5930707,,,,
Finish Line,,15900 LA Cantera Parkway,,San Antonio,TX,78256,US,210.641.0207,29.58921,-98.61957,,,,
Modell's Sporting Goods,,2000 Route 38,,Cherry Hill,NJ,08034,US,856.665.9280,39.93887,-75.02523,,,,
Modell's Sporting Goods,,2329 Cottman Ave,,Philadelphia,PA,19149,US,215.331.9439,40.04741,-75.0593946666667,,,,
Modell's Sporting Goods,,201A Cedarbrook Plaza,,Wyncote,PA,19095,US,215.886.6660,40.0806313,-75.1628855,,,,
Chestnut Hill Sports,,8628 Germantown Ave.,,Philadelphia,PA,19118,US,215.242.6167,40.0770906825479,-75.2083369338856,,,,
Protective Control Services,,232 North Madison Ave,,Cherry Hill,NJ,08002,US,856.779.9051,39.93694,-74.99702,,,,
Dick's Sporting Goods,,399 Almonsson Rd,,Deptford,NJ,08096,US,856.384.8533,39.8304052941176,-75.1006873529412,,,,
Sixsmith Sporting Goods,,7554 Frankford Ave,,Philadelphia,PA,19136,US,215.624.6670,40.0392248148148,-75.0342522222222,,,,
Modell's Sporting Goods,,1750 Deptford Center Road,,Deptford,NJ,08096,US,856.853.8383,39.8282247709695,-75.0985479417167,,,,
Sports Outlet,,703 Black Horse Pike,,Glendora,NJ,08029,US,856.939.2030,39.8394534693878,-75.0691453061225,,,,
Innovasport,,LAZARO CARDENAS S/N,EL MEDANO,LOS CABOS,BAJA CALIFORNIA,23410,MX,,32.4430611,-116.9893561,,,,
LIVERPOOL,,"Blvd. Marina 17 Plaza Bonita Mall, Local 38-D",,BAJA CALIFORNIA,BAJA CALIFORNIA,23453,MX,01 624 1 63 73 50,32.4709,-116.93574,,,,
LIVERPOOL,,"Blvd. Marina 17 Plaza Bonita Mall, Local 38-D",,BAJA CALIFORNIA,BAJA CALIFORNIA,23453,MX,01 624 1 63 73 50,32.4709,-116.93574,,,,
Ace Uniforms & Accessories,,831 Sixth Avenue,,San Diego,CA,92101,US,619.233.0227,32.7139383673469,-117.15922,,,,
Golfsmith,,824 Camino Del Rio North,,San Diego,CA,92108,US,619.497.0568,32.7651624834141,-117.156861350096,,,,
Big 5 Sporting Goods,,3729 Rosecrans Street,,San Diego,CA,92110,US,619.298.3350,32.7521516666667,-117.204009166667,,,,
Angler's Choice,,1910 Rosecrans St,,San Diego,CA,92106,US,619.223.2324,32.7311607692308,-117.223654615385,,,,
Anglers Choice,,1910 Rosecrans St,,San Diego,CA,92106,US,619.223.2324,32.7311607692308,-117.223654615385,,,,
California Police Equipment,,4151-C El Cajon Blvd.,,San Diego,CA,92105,US,619.280.1199,32.75511,-117.10615,,,,
The Tennis Company,,4848 Tecolote Road,,San Diego,CA,92110,US,619.276.6606,32.77485,-117.20087,,,,
Big 5 Sporting Goods,,10202 Metro Parkway West,,Phoenix,AZ,85051,US,602.674.3189,33.57915,-112.12402,,,,
Team Sports Outfitters,,9250 N. 43rd Ave.  Suite 22,,Glendale,AZ,85302,US,602.995.2424,33.57031,-112.15161,,,,
Sports Korner,,4825 E. Warner Rd,,Phoenix,AZ,85044,US,480.496.9258,33.3308458476875,-111.980213967969,,,,
Big 5 Sporting Goods,,3330 Hayden Road,,Scottsdale,AZ,85251,US,480.941.4387,33.4864488888889,-111.908936868687,,,,
Warehouse Sports,,3415 S. McClintock,,Tempe,AZ,85282,US,480.820.8533,33.3916883870968,-111.909146451613,,,,
Big 5 Sporting Goods,,4722 East Ray Road,,Phoenix,AZ,85044,US,480.783.4800,33.3198852380952,-111.982993333333,,,,
Universal Police Supply,,"2090 E University Drive., Ste.111",Ste.111,Tempe,AZ,85281,US,480.968.2118,33.42207,-111.89618,,,,
Golfsmith,,880 N 54th St.,,Chandler,AZ,85226,US,480.705.6771,33.3175274747475,-111.968478080808,,,,
Nordstrom's,,15900 La Centera Pkwy,Bldg 13,San Antonio,TX,78256,US,210.332.1900,29.58921,-98.61957,,,,
Bass Pro,,"17907 Interstate 10, West",,San Antonio,TX,78257,US,210.253.8800,29.6089863243344,-98.6024773183733,,,,
Finish Line,,6909 N Loop 1604,,San Antonio,TX,78247,US,210.651.7466,29.597689,-98.350765,,,,
Barkley Feed and Supply,,32450 1H-10 West,,Boerne,TX,78006,US,888.249.2656,29.695024,-98.649523,,,,
Emergency Equipment Engineering,,4304 Twain Ave,,San Diego,CA,92120,US,800.854.2183,32.7850193691004,-117.101445774901,,,,
Big 5 Sporting Goods,,6061-A El Cajon Blvd.,,San Diego,CA,92115,US,619.583.7930,32.7612794117647,-117.067178235294,,,,
"Lococo Sports, Inc.",,3755 Murphy Canyon Road,,San Diego,CA,92123,US,858.715.6800,32.8098693275223,-117.116758502585,,,,
Soccer Fanatic: San Diego,,3755 Murphy Canyon Rd,,San Diego,CA,92123,US,858.715.6800,32.8098693275223,-117.116758502585,,,,
Real Volleyball,,4666 1/2 Mercury Street,,San Diego,CA,92111,US,858.279.5479,32.8254138701724,-117.148848353529,,,,
Big 5 Sporting Goods,,4838 Convoy Street,,San Diego,CA,92111,US,619.560.0311,32.8297515442976,-117.153240206148,,,,
Berry's Athletic Supply,,7946 Broadway,,Lemon Grove,CA,91945,US,619.466.1248,32.7428162025316,-117.027593037975,,,,
Galls/San Diego,,8841 Clairemont Mesa Blvd.,,San Diego,CA,92123,US,858.505.1900,32.8313311112749,-117.136826651438,,,,
Turners Outdoorsman,,8199 Clairemont Mesa,,Kearny Mesa,CA,92111,US,858.278.8005,32.8327304204366,-117.147125194241,,,,
Under Armour Factory House,,4401N Interstate 35,Suite 0437 and 0435,Round Rock,TX,78664,US,512-763-1569,30.5672518,-97.6898331,,,,
Rogue Equipment,,500 San Marcos St,Ste 104,Austin,TX,78702,US,512.493.0920,30.2645006756757,-97.7327981081081,,,,
REI,,601 N. Lamar,,Austin,TX,78703,US,512.482.3557,30.27184,-97.753865,,,,
Tyler's on the Drag,,2338 Guadalupe St,,Austin,TX,78705,US,512.478.5500,30.287214246664,-97.7416078391401,,,,
Finish Line,,2901 Capitol of Texas Hwy,,Austin,TX,78746,US,512.328.5325,30.2576954,-97.8069052,,,,
Nordstrom's,,2901 Capitol of Texas Hwy S.,,Austin,TX,78746,US,512.691035,30.2576954,-97.8069052,,,,
Academy Sports & Outdoors,,4970 West US Hwy 290,,Austin,TX,78735,US,512.899.3401,30.2336860692633,-97.8191277258251,,,,
Tyler Sportswear,,701 Capitol of Texas Hwy S,,Austin,TX,78746,US,512.327.9888,30.2916431,-97.8249872,,,,
Soccer USA,,4301 West William Cannon Drive,,Austin,TX,78749,US,512.320.8447,30.2219845074125,-97.8385311421124,,,,
Bull Tactical Outfitters,,"8868 Research Blvd, Ste 403",,Austin,TX,78758,US,512.377.2855,30.36831,-97.71934,,,,
Soccer Post,,9070 Research Blvd #201 B2,,Austin,TX,75758,US,512.454.4625,30.37329,-97.72733,,,,
REI,,9901 Capitol of Texas Hwy. North,Suite 200,Austin,TX,78759,US,512.343.5550,30.38968,-97.7403884,,,,
Golfsmith,,10001 Research Blvd,,Austin,TX,78759,US,512.502.9231,30.3920762739649,-97.7457906051198,,,,
Under Armour Brand House,,8687 North Central Expressway,Space E1-730,Dallas,TX,75225,US,469-680-3984,32.8697964516129,-96.77071,,,,
Under Armour Factory House,,2950 West Interstate 20,Suite 926,Grand Prairie,TX,75052,US,972-602-6744,32.6777020682614,-97.0555443372226,,,,
Under Armour Factory House,,3000 Grapevine Mills Pkwy,R002,Grapevine,TX,76051,US,972-539-0541,32.96797,-97.03708,,,,
Woods Fun Center,,11405 N Interstate 35,,Austin,TX,78753,US,512.459.3311,30.37893,-97.67449,,,,
Golf Galaxy,,10515 N. MoPac Expressway,Building H,Austin,TX,78759,US,512.692.0461,30.3934828923888,-97.7326464955603,,,,
GT Distributors,,2545 Brockton Dr. Suite 100,,Austin,TX,78761,US,512.451.8298,30.392738690172,-97.7177738608807,,,,
Golfsmith,,11000 N IH-35,,Austin,TX,78753-3159,US,512.821.4050,30.1425256,-97.7955828,,,,
Academy Sports & Outdoors,,11150 Research Blvd,,Austin,TX,78759,US,512.343.8800,30.4065690283435,-97.745692767431,,,,
Soccer USA,,"13359 Hwy 183 North, #403",,Austin,TX,78750,US,512.257.8560,30.445392139829,-97.7877174028168,,,,
Cabela's,,15570 IH35,,Buda,TX,78610,US,512.295.1100,30.08137,-97.8234009090909,,,,
Genesco Sports Enterprises,,1845 Woodall Rodgers Fwy Ste 1250,,Dallas,TX,75201,US,214.826.6565,32.7883940816327,-96.80344,,,,
Ash Allmond Associates,,1400 E Jefferson Blvd,,Dallas,TX,75203,US,214.941.9595,32.75726,-96.81128,,,,
Luke's Locker,,3607 Oak Lawn Ave,,Dallas,TX,75219,US,214.528.1290,32.812747755102,-96.8046424489796,,,,
The Beacon Company,,4438  McKinney Ave.,,Dallas,TX,75205,US,800.233.1290,32.8200359183674,-96.7889587755102,,,,
Dallas Public Safety,,2707 N. STEMMONS FWY,,Dallas,TX,75207,US,214.748.1060,32.807776,-96.8435446666667,,,,
Sbs Sports Inc,,3120 Commonwealth Dr,,Dallas,TX,75247,US,214.352.1200,32.8106352302896,-96.8628911294876,,,,
Armed Forces Merchandise DBA Texas Army Navy,,2600 W. Mockingbird Lane,,Dallas,TX,75235,US,214.902.9110,32.8289426539385,-96.8432300527705,,,,
Uniforms Incorporated,,1489 Prudential Drive,,Dallas,TX,75235,US,214.630.0924,32.8239921019233,-96.8606728673271,,,,
Finish Line,,11200 Lakeline Mall Dr,,Cedar Park,TX,78613,US,512.257.1690,30.47181,-97.80343,,,,
Under Armour Factory House,,400 South Wilson Road,Suite 500,Sunbury,OH,43074,US,740-965-3738,40.26619,-82.92193,,,,
Finish Line,,1624 North High Street,,Columbus,OH,43201,US,614.299.0607,39.9954044444444,-83.0071522222222,,,,
FrontRunner,,1344 W. Lane Ave,,Columbus,OH,43221,US,614.486.0301,40.0069121428571,-83.0467842857143,,,,
Rod's Western Palace,,3099 Silver Dr,,Columbus,OH,43224,US,614.286.8200,40.0285701603591,-82.9946374348735,,,,
Roy Tailors Uniforms,,3889 Business Park Drive,,Columbus,OH,43204,US,614.351.1566,39.9771583226576,-83.10631009309,,,,
Sports Mania,,924 N. 3rd St.,,Jacksonville,FL,32250,US,904.242.0640,30.3383924242424,-81.6420824242424,,,,
Harrison 1,,2960 Edison Ave.,,Jacksonville,FL,32254,US,904.388.0722,30.3229985714286,-81.7040485714286,,,,
Coleman's Sports Shops,,6817 Norwood Ave.,,Jacksonville,FL,32208,US,904.768.3183,30.3802025,-81.6703375,,,,
Baker's Sporting Goods,,4626 Lenox Avenue,,Jacksonville,FL,32205,US,904.388.8126,30.3176147368421,-81.7255842105263,,,,
Boyko's Big Oak Sport Shops,,6340 Beach Blvd,,Jacksonville,FL,32216,US,904.724.7616,30.2909423528099,-81.5965726886067,,,,
Shooters Firearms,,5085 West University Blvd,,Jacksonville,FL,32216,US,904.737.4495,30.267498,-81.61582,,,,
Match Point,,6600 Corporate Center Pkwy,,Jacksonville,FL,32216,US,904.470.4196,30.2557084824584,-81.6000815354279,,,,
Not Just Soccer,,6921 Preston Rd,,Dallas,TX,75205,US,214.528.5006,32.8497535714286,-96.80426,,,,
Tyler's Highland Park,,5710 W. Lovers Lane,,Dallas,TX,75209,US,214.353.0068,32.85116,-96.8147666666667,,,,
Finish Line,,8687 North Central Expressway,,Dallas,TX,75225,US,214.360.9652,32.8697964516129,-96.77071,,,,
Golf Galaxy,,9390 North Central Expressway,,Dallas,TX,75231,US,214.210.0268,32.8758421052632,-96.7697763157895,,,,
Edwin Watts,,2320 Stemmons Trail,,Dallas,TX,75220,US,214.352.9431,32.8581920484155,-96.8887141955954,,,,
The Army Store,,10606 Garland,,Dallas,TX,75218,US,214.328.3881,32.843662020202,-96.6898973737374,,,,
Eagles Nest,,4100 Merrell Road,,Dallas,TX,75229,US,214.353.5802,32.88769,-96.84184,,,,
Team Sports & Performance Apparel,,6025 Royal Ln,Suite 126,Dallas,TX,75230,US,214.378.5191,32.8948981818182,-96.8030036363636,,,,
Golden Soccer,,8440 Abrams Rd. #404,,Dallas,TX,75243,US,972.417.2463,32.8944866404758,-96.7400583169593,,,,
Mel Cotton's Sporting Goods,,1266 West San Carlos,,San Jose,CA,95126,US,408.287.5994,37.32347,-121.91049,,,,
Logitech Ice,,1500 South 10th St,,San Jose,CA,95112,US,408.999.6755,37.31989,-121.86554,,,,
Summit Uniforms,,545 Meridian Ave,,San Jose,CA,95126,US,408.293.8633,37.3183540264072,-121.913784524926,,,,
Asby Sports,,392 North Capital Avenue,,San Jose,CA,95133,US,408.259.6770,37.37212,-121.844877586207,,,,
Valley Athletic,,1256 S. Bascom Ave,,San Jose,CA,95128,US,408.291.0520,37.30243,-121.93171,,,,
Big 5 Sporting Goods,,3132 Stevens Creek Blvd,,San Jose,CA,95117,US,408.249.4370,37.32325,-121.95105,,,,
Big 5 Sporting Goods,,2249 Tully Road,,San Jose,CA,95122,US,408.258.5133,37.3275825,-121.8183425,,,,
"Vance's Shooters Supplies, Inc.",,3723 Cleveland Ave.,,Columbus,OH,43224,US,614.471.7353,40.0442891666667,-82.9586983333333,,,,
Baseball Rampage,,4265 Diplomacy Dr,,Columbus,OH,43228,US,614.876.3200,39.9992162162162,-83.1206363513514,,,,
Golfsmith,,3695 Easton Market,,Columbus,OH,43219-6025,US,614.475.6030,40.0513666316954,-82.9218442352368,,,,
Golf Galaxy,,4052 Morse Road,,Columbus,OH,43230,US,614.416.7156,40.05762,-82.90842,,,,
Merrin Athletic,,6155 M Huntley Road,,Columbus,OH,43226,US,614.436.8155,40.0909696620047,-82.9983020998698,,,,
Cops Armament & Apparel,,6161 Busch Blvd.,Suite 130,Columbus,OH,43229,US,614.781.7686,40.0914125689686,-82.9927825265264,,,,
Finish Line,,9501 Arlington Expy,,Jacksonville,FL,32225,US,904.805.8795,30.32167,-81.55079,,,,
PJ Mercantile,,127 Monument Rd.,,Jacksonville,FL,32225,US,904.725.5000,30.323536,-81.54689,,,,
Edwin Watts,,7111 Bonneval Road,,Jacksonville,FL,32256,US,904.332.0933,30.2447059416576,-81.5964757228734,,,,
Wounded Warrior Project,,7020 A C Skinner Pkwy Ste 100,,Jacksonville,FL,32256,US,904.296.7350,30.24871,-81.57992,,,,
Strike Zone Fishing,,11702 Beach Blvd.,,Jacksonville,FL,32246,US,904.641.2433,30.28694125,-81.5161508333333,,,,
Golf Galaxy,,4871 Town Center Parkway,,Jacksonville,FL,32246,US,904.641.1678,30.2548012990748,-81.534830241779,,,,
Green Acres Sporting Goods,,8774 Normandy Blvd.,,Jacksonville,FL,32221,US,904.786.5166,30.287920513031,-81.7975818092489,,,,
Finish Line,,10281 Midtown Parkway,,Jacksonville,FL,32246,US,904.805.8795,30.2580855,-81.526273,,,,
Finish Line,,1910 Wells Rd,,Orange Park,FL,32073,US,904.264.5225,30.1868520689655,-81.7360837931035,,,,
REI,,840 Brannan St.,,San Francisco,CA,94103,US,415.934.1938,37.7723896774194,-122.404050322581,,,,
Golfsmith,,735 Market St,,San Francisco,CA,94103,US,415.974.6979,37.78677,-122.40458,,,,
Lombardi Sports,,1600 Jackson Street,,San Francisco,CA,94109,US,415.771.2896,37.79414,-122.42139,,,,
Galls/San Francisco,,1740 Cesar Chavez,,San Francisco,CA,94124,US,415.824.2400,37.7498948780488,-122.393916097561,,,,
LUV Outdoor,,211 Jefferson Street,,San Francisco,CA,94133,US,650.222.5814,37.8082075510204,-122.415956326531,,,,
Academy Sports & Outdoors,,8050 Forest Ln,,Dallas,TX,75243,US,214.221.2284,32.9091787804878,-96.7668115853659,,,,
Abatix Corp,,2400 Skyline Dr,Ste 400,Mesquite,TX,75149,US,214.381.1146,32.77923,-96.6342866666667,,,,
Soccer Premier,,11538 Harry Hines Blvd,,Dallas,TX,75229,US,972.247.8333,32.9015038802057,-96.8930774148346,,,,
World of Soccer,,909 Gross Rd Ste 280,,Mesquite,TX,75149,US,972.288.0030,32.7774424324324,-96.6200864864865,,,,
REI,,4515 LBJ Freeway,,Dallas,TX,75244,US,972.490.5989,32.92636,-96.83157,,,,
All Out Baseball,,2118-A El Camino Real,,Santa Clara,CA,95050,US,408.261.2255,37.35231,-121.961791612903,,,,
Golfsmith,,4070 Stevens Creek Blvd,,San Jose,CA,95129,US,408.615.7000,37.3231633333333,-121.97313,,,,
Charlie Rose Baseball,,161 Curtner Ave,,Campbell,CA,95008,US,408.559.7673,37.2725134418429,-121.945675418807,,,,
Soccer Pro,,1338 Saratoga Ave.,,San Jose,CA,95117,US,408.551.0413,37.3000713420781,-121.982414772261,,,,
Big 5 Sporting Goods,,946 Blossom Hill Road,,San Jose,CA,95123,US,408.578.5455,37.25032,-121.86501,,,,
Big 5 Sporting Goods,,1600 West Campbell Avenue,,Campbell,CA,95008,US,408.871.7249,37.2860168115942,-121.978167391304,,,,
Mize Fast Pitch,,1610 Dell Ave Unit S,,Campbell,CA,95008,US,408-374-8842,37.263334494382,-121.957005617978,,,,
Iron Pony Motorsports,,5436 Westerville Rd,,Westerville,OH,43081,US,614.508.0040,40.0832599230107,-82.9282630173226,,,,
Kessler's Sports Shop,,801 Busch Court,,Columbus,OH,43229,US,614.841.1883,40.0964145454545,-82.9953668686869,,,,
Second Sole of Gahanna,,1245 North Hamilton Road,,Columbus,OH,43230,US,614.478.3361,40.0508505738688,-82.8640668119016,,,,
Midwest Lacrosse Company,,3840 Lattimer St,,Hilliard,OH,43026,US,614.777.8888,40.0304540816315,-83.1596442713084,,,,
AVS Uniforms Inc.-OH,,7163 East Main St.,,Reynoldsburg,OH,43068,US,614.863.6591,39.955195,-82.80623,,,,
Roush Sporting Goods,,6259 Sunbury Road,,Westerville,OH,43081,US,614.882.0880,40.0866117307692,-82.8952326923077,,,,
Golf Galaxy,,5740 Britton Parkway,,Dublin,OH,43016,US,614.717.9001,40.0708764402988,-83.1373863698249,,,,
Finish Line,,5043 Tuttle Crossing Blvd,,Dublin,OH,43016,US,614.764.4800,40.076418,-83.129892,,,,
Under Armour Brand House,,8702 Keystone Crossing,Suite 25C,Indianapolis,IN,46240,US,317-660-9407,39.9143021235102,-86.1095835571624,,,,
Finish Line,,49 W Maryland,,Indianapolis,IN,46204,US,317.634.7553,39.7656038888889,-86.1569727777778,,,,
Runner's Forum,,122 N. Delaware St,,Indianapolis,IN,46204,US,(317) 955-7463,39.76895,-86.15439,,,,
The Uniform House Inc,,1927 N Capitol Ave,,Indianapolis,IN,46202,US,317.926.4467,39.7922209215217,-86.1614812825584,,,,
Kesslers,,2956 Kessler Blvd N. Drive,,Indianapolis,IN,46222,US,317.924.1012,39.8091081818182,-86.21109,,,,
Law Enforcement & Safety Equipment,,6680 E. 21st Street,,Indianapolis,IN,46219-2299,US,317.352.0184,39.79638,-86.0529,,,,
Kessler's Sports Shop,,7215 East 21st St. Suite G,,Indianapolis,IN,46219,US,317.352.9826,39.79644,-86.0414000938188,,,,
The Running Company - Broad Ripple,,1079 Broad Ripple Ave.,,Indianapolis,IN,46220,US,317.202.0202,39.8696969827097,-86.1395632738082,,,,
Finish Line,,10300 Southside Blvd,,Jacksonville,FL,32256,US,904.363.2299,30.1821576271186,-81.5517830508474,,,,
Boot Barn,,249 Blanding Blvd.,,Orange Park,FL,32073,US,904.264.3838,30.1744102841529,-81.7452074172013,,,,
TA Sports,,Gateway Blvd.,,Fernandina Beach,FL,32034,US,904.261.1105,30.62992,-81.471,,,,
T.A. Sports,,1875 S. 14th Street,,Fernandina Beach,FL,32034,US,904.261.1105,30.6458,-81.45511,,,,
Golden Voyage,,211 Jefferson St,,San Francisco,CA,94133-1125,US,415.614.2345,37.8082075510204,-122.415956326531,,,,
Big 5 Sporting Goods,,1533 Sloat Boulevard,,San Francisco,CA,94132,US,415.681.4593,37.7339631521739,-122.490548586957,,,,
Finish Line,,3 Serramonte Center,,Daly City,CA,94015,US,650.755.8621,37.66927,-122.47106,,,,
Big 5 Sporting Goods,,314 Gellert Blvd.,,Daly City,CA,94015,US,650.994.3688,37.6680566822778,-122.468839887211,,,,
C & L Sporting Goods,,1150 Mission Rd.,,South San Francisco,CA,94080,US,650.869.6720,37.6612874223915,-122.43891634926,,,,
Hi's Tackle Box,,40 Chestnut Ave,,South San Francisco,CA,94080,US,650.588.1200,37.6562216336872,-122.432315044972,,,,
Big 5 Sporting Goods,,325 Park Street,,Alameda,CA,94501,US,510.865.6486,37.755105,-122.249735,,,,
Finish Line,,1150 El Camino Real,,San Bruno,CA,94066,US,650.588.7678,37.6362388888889,-122.420867777778,,,,
REI,,1338 San Pablo Ave.,,Berkeley,CA,94702,US,510.527.4140,37.8797975510204,-122.295648979592,,,,
Hardtke's World of Baseball,,541 Division St.,Building D,Campbell,CA,95008,US,408.866.8050,37.2627847474747,-121.959678585859,,,,
Big 5 Sporting Goods,,757 E. Calaveras Blvd.,,Milpitas,CA,95035,US,408.262.1726,37.4336448243158,-121.893394843284,,,,
REI,,400 El Paseo de Saratoga,,San Jose,CA,95130,US,408.871.8765,37.2889345826114,-121.994009866436,,,,
Sportissimo,,786B Blossom Hill Road,,Los Gatos,CA,95032,US,408.358.1300,37.2353292307692,-121.961253076923,,,,
Big 5 Sporting Goods,,721 Sunnyvale-Saratoga Road,,Sunnyvale,CA,94087,US,408.732.4280,37.3668233665862,-122.03235,,,,
Silicon Volley / Sprockets,,55 N Santa Cruz Ave,,Los Gatos,CA,95030,US,408.454.5450,37.2240175,-121.983231666667,,,,
Sling it! Lacrosse,,1966 West El Camino Real,,Mountain View,CA,94040,US,650.625.8300,37.3942436066229,-122.098295502195,,,,
REI,,43962 Fremont Blvd.,,Fremont,CA,94538,US,510.651.0305,37.51046,-121.95006,,,,
REI,,2450 Charleston Rd.,,Mountain View,CA,94043,US,650.969.1938,37.421615,-122.09739,,,,
Under Armour Factory House,,5524 New Fashion Way,Suite 400,Charlotte,NC,28278,US,704-594-8862,35.1708474,-80.9707484,,,,
Inside Out Sports,,1514 S Church St,,Charlotte,NC,28203,US,704.333.8331,35.2175758415981,-80.8585128408884,,,,
Run for Your Life,,2422 Park Rd,,Charlotte,NC,28203,US,704.358.0713,35.1980048511342,-80.8518174996766,,,,
Omega Sports,,4271B Park Road,,Charlotte,NC,28209,US,704.521.8504,35.1736233333333,-80.8511393939394,,,,
Players Sporting Goods,,5737 N. Graham Street,,Charlotte,NC,28269,US,704.598.7966,35.2915,-80.797114,,,,
Finish Line,,4400 Sharon Road,,Charlotte,NC,28211,US,704.366.7995,35.15124,-80.82862,,,,
Edwin Watts,,6701 East Independence Blvd.,,Charlotte,NC,28212,US,704.536.9021,35.17007,-80.74431,,,,
Lax World,,6811 Dublin Center Dr,,Dublin,OH,43017,US,614.336.1332,40.1051802578632,-83.0938223562532,,,,
Fleming's Referee and Sports,,2628 Billingsley Road,,Columbus,OH,43235,US,614.798.8888,40.1124341489362,-83.0859796808511,,,,
Columbus Running Company,,320 S. State St. Unit I,,Westerville,OH,43081,US,614.523.2377,40.1175327272727,-82.9285154545454,,,,
Golfsmith,,7649 New Market Center Way,,Columbus,OH,43235-1979,US,614.718.1068,40.11249,-83.08786,,,,
Soccer Plus,,34 Westerview Dr,,Westerville,OH,43081-2682,US,614.882.0909,40.1232281632653,-82.9475069387755,,,,
Columbus Running Company,,1250 Hill Road N,,Pickerington,OH,43147,US,614.863.4073,39.9133789301664,-82.7795271782777,,,,
Runner's Forum,,902 E Westfield Blvd,,Indianapolis,IN,46260,US,(317) 255-4786,39.8706740318065,-86.1428858091612,,,,
Dick's Sporting Goods,,1251 US 31 North,,Greenwood,IN,46142,US,317.271.7850,39.6328530003976,-86.1247909810522,,,,
Finish Line,,1251 US Hwy. 31 N.,,Greenwood,IN,46142,US,317.882.2579,39.6328530003976,-86.1247909810522,,,,
The Running Company- Greenwood,,1251 US 31 South,,"Greenwood,",IN,46142,US,317.887.0606,39.6328530003976,-86.1247909810522,,,,
Runner's Forum,,1001 N SR 135,Ste D9,Greenwood,IN,46142,US,(317) 865-7463,39.6330413,-86.1235722,,,,
Em-Roe Sporting Goods Co.,,7920 Georgetown Rd Ste 800,,Indianapolis,IN,46268,US,317.879.1124,39.8972123142884,-86.2409728650103,,,,
Finish Line,,8702 Keystone Crossing,,Indianapolis,IN,46240,US,317.580.9066,39.9143021235102,-86.1095835571624,,,,
Dick's Sporting Goods,,5470 East 82nd St.,,Castleton,IN,46250,US,317.578.3586,39.9052022807018,-86.0754768421053,,,,
Main Event,,6880 Hillsdale Ct,,Indianapolis,IN,46250,US,317.570.8900,39.8961324508238,-86.0486626315545,,,,
Finish Line,,6020 E 82nd St,,Indianapolis,IN,46250,US,317.594.9232,39.9053525044117,-86.0640920985327,,,,
Arch Rival,,206 Strawberry Village,,Mill Valley,CA,94941,US,415.383.0275,37.8987799400876,-122.513293981561,,,,
Big 5 Sporting Goods,,11060 San Pablo Avenue,,El Cerrito,CA,94530,US,510.237.3935,37.9178894117647,-122.313086470588,,,,
REI,,213 Corte Madera Town Center,,Corte Madera,CA,94925,US,415.927.1938,37.9284321540611,-122.5181,,,,
Montclair Sports,,1970 Mountain Blvd.,,Oakland,CA,94611,US,510.339.9313,37.82786,-122.21041,,,,
Big 5 Sporting Goods,,110 Nellen Avenue,,Corte Madera,CA,94925,US,415.924.3221,37.9389779963245,-122.516849401654,,,,
Hockey X-Sport Superstore,,210 Hegenberger Loop,,Oakland,CA,94621,US,510.638.6004,37.7366628837085,-122.195192154996,,,,
Arch Rival,,150 Bon Air Shopping Ctr,,Greenbrae,CA,94904-2417,US,415.461.6588,37.9461748796504,-122.5250570397,,,,
West Coast Shoes & Sporting Goods,,1855 Alvardo Street,,San Leandro,CA,94577,US,510.357.8149,37.717036122449,-122.159760408163,,,,
T&B Sports,,1345 Fourth Street,,San Rafael,CA,94901,US,888.453.2433,37.973453877551,-122.531309183673,,,,
Big 5 Sporting Goods,,1572 Fitzgerald Drive,,Pinole,CA,94564,US,510.222.6680,37.9914,-122.30142,,,,
Winners,,1730 South Amphlette Blvd Suite 112,,San Mateo,CA,94402,US,650.570.7937,37.5570091245475,-122.30041021934,,,,
Big 5 Sporting Goods,,2129 Newpark Mall,,Newark,CA,94560-5250,US,510.744.1194,37.5249722437866,-121.997597702274,,,,
Bluesky - Outdoor,,230 Portage Ave,,Palo Alto,CA,94306,US,650.494.9020,37.4225828712871,-122.13721970297,,,,
Finish Line,,6801 Northlake Mall Drive,,Charlotte,NC,28216,US,704.599.8827,35.3498151470588,-80.8501561764706,,,,
Golf Galaxy,,7226 Smith Corners Blvd,,Charlotte,NC,28269,US,704.973.4160,35.3515964671671,-80.8442722982221,,,,
"Elkins Running, LLC",,1816 E Arbors Dr,,Charlotte,NC,28262,US,704.503.1105,35.3362604039162,-80.7535699211193,,,,
Omega Sports,,8036 Providence Road,,Charlotte,NC,28277,US,704.541.9221,35.0987475169038,-80.7785002677842,,,,
Edwin Watts,,8500 Pineville Matthews Road,,Charlotte,NC,28226,US,704.541.6950,35.08755,-80.86226,,,,
Finish Line,,11025 Carolina Place Pkwy,,Pineville,NC,28134,US,704.542.3948,35.0828484934593,-80.8796660815591,,,,
REI,,11067 Carolina Place Pkwy.,,Pineville,NC,28134,US,704.341.7405,35.082250857013,-80.8793967242875,,,,
Dick's Sporting Goods,,10530 NE Parkway,,Matthews,NC,28105,US,704.841.3959,35.1219799,-80.715776,,,,
Grand Slam USA,,10715 Independence Pointe Pwy,,Matthews,NC,28105,US,704.847.5333,35.1201993635117,-80.7065246817558,,,,
Golf Galaxy,,8280 Castleton Corner Dr,,Indianapolis,IN,46250,US,317.845.7500,39.9080567852468,-86.0708964515686,,,,
Golfsmith,,8310 Castleton Corner Dr,,Indianapolis,IN,46250,US,317.577.0846,39.9084541563631,-86.071146968142,,,,
Sun Valley Sports,,8418 Castleton Corner Dr.,,Indianapolis,IN,46250,US,317.577.5500,39.9098600500906,-86.0720304425228,,,,
Finish Line,,2498 Futura Park Way,,Plainfield,IN,46168,US,317.837.4289,39.7115748484849,-86.3554050505051,,,,
Runner's Forum,,8100 E. US 36,Ste 6,Avon,IN,46123,US,(317) 272-7463,39.76308,-86.37907,,,,
Runner's Forum,,620 Station Dr.,,Carmel,IN,46032,US,317.844.1558,39.9606081818182,-86.1170027272727,,,,
Kerns Bros Shoes,,57 Boone Vlg,,Zionsville,IN,46077,US,317.873.5756,39.9506299200052,-86.2760433200009,,,,
In The Game Athletics,,10835 Independence Pointe Pkwy,,Matthews,NC,28105-2747,US,704.815.4263,35.1190158778626,-80.7063688549618,,,,
Run for Your Life,,7868 Rea Rd,,Charlotte,NC,28277,US,704.541.9665,35.0605802244035,-80.8133511343342,,,,
Omega Sports,,14136 Rivergate Parkway,Suite 100,Charlotte,NC,28273,US,704.583.6111,35.1038102090717,-80.9851877376037,,,,
Golf Galaxy,,10844 Providence Road,,Charlotte,NC,28277,US,704.847.2141,35.0621908,-80.7699476,,,,
Boot Barn,,8111 Concord Mills Blvd. #538,,Concord,NC,28027,US,704.979.0308,35.371461135009,-80.7184418590305,,,,
Finish Line,,8111 Concord Mills Blvd.,,Concord,NC,28027,US,704.979.0977,35.371461135009,-80.7184418590305,,,,
Bass Pro,,8181 Concord Mills Blvd,,Concord,NC,28027,US,704.979.2200,35.3716064002461,-80.7189456009845,,,,
Try Sports,,"9830  Rea Road, Suit H",,Charlotte,NC,28277,US,704.544.4626,35.0355586675981,-80.8048631170164,,,,
Lomar Specialty Advertising,,555 Pitts School Rd Ste A,,Concord,NC,28027,US,704.788.4380,35.3663768341709,-80.6607304020101,,,,
Tennis Outlet Inc.,,708 Havenwood Ln S,,Fort Worth,TX,76112,US,806.687.4112,32.7698767250722,-97.2310065502106,,,,
Finish Line,,4800 S Hulen St # 223,,Fort Worth,TX,76132,US,817.370.0441,32.67759,-97.3955,,,,
Carey's Sporting Goods,,6010 Southwest Blvd.,,Fort Worth,TX,76109,US,817.735.4794,32.6896782758621,-97.4126824137931,,,,
Official Sports,,7340 Baker Blvd,,Richland Hills,TX,76118,US,817.590.8258,32.8090336458039,-97.2207794779615,,,,
Academy Sports & Outdoors,,7441 NE Loop 820,,N. Richland Hills,TX,76180,US,817.428.1618,32.8368933,-97.2209137,,,,
Finish Line,,2260 North East Mall,,Hurst,TX,76053,US,817.595.0763,32.8324171,-97.1981965,,,,
Golfsmith,,8701 Airport Frwy,,North Richland Hills,TX,76180,US,817.281.1996,32.8364817427874,-97.1969394241324,,,,
Under Armour Brand House,,1201 Woodward Ave.,,Detroit,MI,48226,US,313-335-3162,42.3329485,-83.0482626,,,,
NANTAIS SPORTS,,2020 TECHUMSEH RD. WEST,,WINDSOR,ON,N9B 1V6,CA,(519)252-5705,42.2937466666667,-83.0511633333333,,,,
BOB REAUME SPORTS,,4275 TECHUMSEH RD. E,,WINDSOR,ON,N8W 1K2,CA,(519)945-4101,42.3065633333333,-82.9723969230769,,,,
Lucier Glove and Safety Supply,,680 North Service Rd. E.,,Windsor,ON,N8X 3J3,CA,519-251-9799,42.2785640092063,-83.0053537246313,,,,
SPORT CHEK HEARTLAND,,"3100 Howard Avenue, Unit #L1",,Windsor,ON,N8X 3Y8,CA,519-972-8379,42.2735941303494,-83.0047126284042,,,,
Sport Chek,,"3100 Howard Avenue, Suite # L1",,Windsor,ON,N8X 3Y8,CA,(519) 972-8379,42.2735941303494,-83.0047126284042,,,,
Edwin Watts,,901 West Lamar Blvd.,,Arlington,TX,76012,US,817.861.6677,32.7608673628587,-97.1175975117679,,,,
Finish Line,,3811 S. Cooper,,Arlington,TX,76015,US,817.465.2170,32.6841264705882,-97.1326441176471,,,,
Soccer Post,,4132 S. Cooper St.,,Arlington,TX,76015,US,817.784.8006,32.67967,-97.13485,,,,
Urban Athletics,,2200 Airport Frwy #520,,Bedford,TX,76022,US,817.296.7867,32.83656,-97.13184,,,,
Academy Sports & Outdoors,,1100 West Arbrook Blvd,,Arlington,TX,76014,US,817.472.9700,32.6818964349627,-97.1259536545151,,,,
Golfsmith,,1001 W IH-20,,Arlington,TX,76017-5855,US,817.557.5077,32.678209086765,-97.1212747944837,,,,
Golf Galaxy,,4000 Retail Connection Way,Suite 133,Arlington,TX,76018,US,817.622.6389,32.68085,-97.11151,,,,
Cabela's,,12901 Cabela Drive,,Ft. Worth,TX,76177,US,817.337.2400,32.96188,-97.30462,,,,
NATIONAL SPORTS CENTRE,,3100 HOWARD AVE.,,WINDSOR,ON,N8X 3Y8,CA,(905)946-5533,42.2735941303494,-83.0047126284042,,,,
PERANI'S HOCKEY WAREHOUSE,,7540 TECUMSEH RD. E,,WINDSOR,ON,N8T 1E9,CA,(519)974-8081,42.3134323655914,-82.9359496774194,,,,
Perani's Hockey World,,7540 Tecumseh rd E,,Windsor,ON,N8T 1E9,CA,#,42.3134323655914,-82.9359496774194,,,,
PHL-Magasin de Greenfield-Park,,3051 Legacy Park Drive,,Windsor,ON,N8W 5S6,CA,#,42.2534609221513,-82.9653891647169,,,,
SPORT CHEK TAUNTON,,1695 MANNING ROAD,,WINDSOR,ON,N8N 2L9,CA,#,42.3064,-82.86951,,,,
NATIONAL SPORTS CENTRE,,13580 TECUMSEH RD. E.,,ST. CLAIR BEACH,ON,N8N 3N7,CA,(905)946-5533,42.3120086896969,-82.8630833162797,,,,
The Soccer Corner,,1959 W. Southlake Blvd,,Southlake,TX,76092,US,817.748.0555,32.9404318310868,-97.1813270991484,,,,
Players Bench,,5100 State Hwy 121 Unit C,,Colleyville,TX,76034,US,817.354.2400,32.8836221212121,-97.0998349494949,,,,
GST Public Safety Supply,,1630 111th Street,,Grand Prairie,TX,75050,US,877.742.5478,32.7757,-97.04877,,,,
Channel Specialties,,6800 N. FM 157 Ste 102,,Mansfield,TX,76063,US,817.291.0129,32.526957,-97.113352,,,,
Champs,,Fregosa Ave,,Carolina,PR,00983,US,787.752.5140,32.6660507,-96.9955176,,,,
Bass Pro,,2501 Bass Pro Drive,,Grapevine,TX,76051,US,972.724.2018,32.9552701010101,-97.0460841414141,,,,
Finish Line,,3000 Grapevine Mills Parkway,,Grapevine,TX,76051,US,972.906.9455,32.96797,-97.03708,,,,
Under Armour Factory House,,5205 Airways Blvd.,Suite 700,Southaven,MS,38671,US,662-298-5269,34.93358,-89.98829,,,,
Avery Outdoors,,335 Cumberland St,,Memphis,TN,38112,US,800.333.5119,35.1426428147242,-89.9693604762428,,,,
All American Inc.,,3230 Summer Ave.,,Memphis,TN,38112,US,901.324.3783,35.14934,-89.95369,,,,
Accurate Law Enforcement,,3562 Summer Avenue,,Memphis,TN,38122,US,901.774.9595,35.149443143377,-89.9421644437767,,,,
"Shapiro Uniforms, INC.",,3929 Summer Ave.,,Memphis,TN,38122,US,901.323.6688,35.149172173913,-89.9299431884058,,,,
Ann's,,920 E Broadway,,West Memphis,AR,72301,US,870.735.9771,35.1464979591837,-90.1731812244898,,,,
Beach Grove Golf & CC,,14077 Riverside Dr,,Tecumseh,ON,N8N 1B8,CA,#,42.3206998780488,-82.8490184146341,,,,
Beach Grove Golf & CC,,14134 Riverside Dr,,Tecumseh,ON,N8N 1B6,CA,519-979-8090,42.320547804878,-82.8484914634146,,,,
ESSEX SOURCE FOR SPORTS,,25 TALBOT ST.,,ESSEX,ON,N8M 2Y1,CA,(519)776-5115,42.172748,-82.819584,,,,
Bee Jay Variety Store Ltd,,56 Richmond St,,Amherstburg,ON,N9V 1E9,CA,1-519-736-4843,42.102635625,-83.1119140625,,,,
BELLE RIVER SOURCE FOR SPORTS,,481 NOTRE DAME ST.,,BELLE RIVER,ON,N0R 1A0,CA,(519)728-3717,42.2930390909091,-82.7052281818182,,,,
Metropolitan Uniform,,438 Macomb,,Detroit,MI,48226,US,313.961.4823,42.3354166666667,-83.0434254166667,,,,
Under Armour Factory House,,1612 Pleasonton Rd.,Suite C101,Fort Bliss,TX,79906,US,915-566-0976,31.81246,-106.41675,,,,
Under Armour Factory House,,7051 South Desert Blvd,Space E-574,Canutillo,TX,79835,US,410-454-6655,31.9119689,-106.5853814,,,,
Innovasport,,TEOFILO BORUNDA 8681,PARTIDO IGLESIAS,JUAREZ,CHIHUAHUA,32618,MX,,31.67829,-106.41787,,,,
Innovasport,,TEOFILO BORUNDA 8681,PARTIDO IGLESIAS,JUAREZ,CHIHUAHUA,32618,MX,,31.67829,-106.41787,,,,
Southwest Law Enforcement Sales,,2208 Montana Avenue,,El Paso,TX,79903,US,915.544.8889,31.7776444897959,-106.47025122449,,,,
Uniforms Of Texas,,"6601 Montana Ave, Ste #D",,El Paso,TX,79925,US,915.771.6601,31.78951,-106.39827,,,,
Heroes,,3000 Grapevine Mills Pkwy Ste 114,,Grapevine,TX,76051,US,214.906.3316,32.96797,-97.03708,,,,
Finish Line,,4465 Poplar Ave.,,Memphis,TN,38117,US,901.763.3543,35.1188445454545,-89.9131248484849,,,,
Edwin Watts,,4625 Poplar Avenue,,Memphis,TN,38117,US,901.767.1244,35.116585625,-89.90784125,,,,
Pro Image,,1220 Southland Mall,,Memphis,TN,38116,US,901.332.2660,35.0199321212121,-90.0235581818182,,,,
Bass Pro,,6140 Macon Road,,Memphis,TN,38134,US,901.213.5800,35.16296418363,-89.8584752555152,,,,
Sportsman's Warehouse,,130 Marathon Way,,Southaven,MS,38671,US,662.349.5500,34.95747,-89.9920309001846,,,,
Finish Line,,6550 Towne Center Loop,,Southaven,MS,38671,US,662.349.4233,34.9545285938032,-89.996462786479,,,,
Dowdle Sporting Goods,,981 N. Germantown Pkwy,,Cordova,TN,38018,US,901.751.1198,35.1521766666667,-89.7953666666667,,,,
Finish Line,,2760 N Germantown Pkwy,,Memphis,TN,38133,US,901.371.2012,35.2009367288395,-89.792071276901,,,,
Golfsmith,,7741 Winchester Rd,,Memphis,TN,38125,US,901.755.1504,35.0493919084681,-89.8052913577541,,,,
Nantais Source for Sports,,2020 Tecumseh Rd. West,,Windsor,ON,N9B 1V6,CA,(519) 252-5705,42.2937466666667,-83.0511633333333,,,,
Sport Mart,,3051 Legacy Park Drive,,Windsor,ON,N8W 5S6,CA,(519) 967-9300,42.2534609221513,-82.9653891647169,,,,
Bikes Blades & Boards,,17020 Mark Ave.,,Grosse Pointe,MI,48230,US,313.885.1300,42.3945135,-82.922563,,,,
Dunham's,,1714 Dix Avenue,,Lincoln Park,MI,48146,US,313.388.8900,42.2580742424242,-83.1907745454545,,,,
Dunham's,,23150 W. Outer Drive,,Allen Park,MI,48101,US,313.278.2496,42.2775247665053,-83.2147671533399,,,,
Under Armour Factory House,,5050 Factory Shops Boulevard,Space 550,Castle Rock,CO,80108,US,303-814-1004,39.4134030860895,-104.875021637317,,,,
Denver Athletic Club,,1325 Glenarm Place,,Denver,CO,80204,US,303.534.1211,39.7412926530612,-104.993728571429,,,,
Forza Fitness & Performance Club,,1849 Curtis Street,,Denver,CO,80202,US,303.294.4954,39.7495204081633,-104.991782653061,,,,
Winterkids Inc.,,1935 West 12Th Avenue,,Denver,CO,80204,US,303.629.5300,39.7352285310279,-105.013016889149,,,,
REI,,1416 Platte St.,,Denver,CO,80202,US,303.756.3100,39.75571,-105.01026,,,,
Lax World,,2625 E. 3rd Avenue,,Denver,CO,80206,US,303.322.6336,39.72098,-104.956294747475,,,,
Specialty Sports Venture.West,,299 Milwaukee Street Suite 502,,Denver,CO,80206,US,775.586.6107,39.72097,-104.9522,,,,
Morse Enterprises,,108 S. Stanton,,El Paso,TX,79901,US,915.533.2746,31.7584557142857,-106.485847959184,,,,
Alamo Shooter's Supply & Uniforms,,100 S El Paso Street,,El Paso,TX,79901,US,915.543.9423,31.75776,-106.48898,,,,
Champs,,8401 Gateway West,,EL Paso,TX,79925,US,915.779.8733,31.773600576894,-106.381125375809,,,,
Big 5 Sporting Goods,,8900 Viscount Blvd.,,El Paso,TX,79925,US,915.595.4808,31.7744860765686,-106.371818229706,,,,
Big 5 Sporting Goods,,"7410 Remcon Circle, Ste. A",,El Paso,TX,79912,US,915.842.0265,31.8367374125109,-106.562104102788,,,,
Big 5 Sporting Goods,,"9813 Dyer Street, Suite 500",,El Paso,TX,79924,US,915.755.2883,31.8931453846154,-106.412872307692,,,,
Big 5 Sporting Goods,,"1313 George Dieter Dr., Ste. A",,El Paso,TX,79936,US,915.590.5961,31.72371,-106.30294,,,,
Soccer USA,,4670 Merchants Park Circle,Suite 610,Collierville,TN,38017,US,901.854.9644,35.0255851393577,-89.7190550684734,,,,
Finish Line,,4650 Merchants Park Circle,,Collierville,TN,38017,US,901.850.5331,35.02436,-89.715845,,,,
Sports of All Sorts,,345 E Commerce St,,Hernando,MS,38632-2305,US,662.429.1162,34.823754304109,-89.9840704705557,,,,
All Sports Team Supply,,146 E. Hwy 72 Suite 105,,Collierville,TN,38017,US,901.861.2221,35.0448022369619,-89.6403048718945,,,,
Sound Sports Inc.,,80 Madison Street,,Seattle,WA,98104,US,206.624.6717,47.60433,-122.337151428571,,,,
Nordstrom's,,500 Pine Street,Suite 500,Seattle,WA,98101-1603,US,206.628.2111,47.61166,-122.33651,,,,
Seattle Athletic Club/Downtown,,2020 Western Ave.,,Seattle,WA,98121,US,206.443.1111,47.610798,-122.344118,,,,
Seattle Athletic Club,,2020 Western Ave,,Seattle,WA,98121,US,206.443.1111,47.610798,-122.344118,,,,
REI,,222 Yale Ave. N.,,Seattle,WA,98109,US,206.223.1944,47.61999,-122.330417333333,,,,
Athletic Supply,,"224 W. Lake Ave, North",,Seattle,WA,98109,US,425.636.1644,47.6205115384615,-122.338481538462,,,,
Outdoor Emporium,,1701 4th Avenue South,,Seattle,WA,98134,US,206.624.6550,47.58825,-122.32906,,,,
Nichols Ski & Sports Inc,,21938 Michigan Avenue,,Dearborn,MI,48124,US,313.565.0044,42.3063865,-83.243273,,,,
Specialty Sports Venture,,299 Milwaukee Street,,Denver,CO,80206,US,303.399.1970,39.72097,-104.9522,,,,
Neve's Uniforms,,5120 Osage St.,,Denver,CO,80221,US,605.399.1000,39.7892014285714,-105.00511,,,,
Big 5 Sporting Goods,,1430 S. Colorado Blvd.,,Denver,CO,80222,US,303.756.2212,39.6905589795918,-104.940536938776,,,,
Big 5 Sporting Goods,,7111 West Alameda Avenue,,Lakewood,CO,80226,US,303.231.0861,39.71107,-105.07503,,,,
Big 5 Sporting Goods,,"7306 E. 36th Avenue Bldg 2, Suite 201",,Denver,CO,80222,US,720.941.2957,39.7673740265874,-104.902459716984,,,,
Denver Athletic,,3101 S. Platte River Dr.,,Englewood,CO,80110,US,303.761.7773,39.66045,-105.00437,,,,
Denver Athletic Supply,,3101 S Platte River Drive,,Englewood,CO,80110,US,303.761.7773,39.66045,-105.00437,,,,
"Kaufman's Menswear, Inc.",,3395 S Broadway,,Englewood,CO,80113-2427,US,303.761.6000,39.6550525,-104.98763,,,,
Bass Pro,,7970 E 49th Ave,,Denver,CO,80204,US,720.385.3600,39.78549625,-104.89535,,,,
Under Armour Brand House,,800 Boylston Street,Suite #049,Boston,MA,21658,US,617-236-1723,42.34871,-71.08238,,,,
Hilton'S Tent City,,272 Friend Street,,Boston,MA,02114,US,617.227.9242,42.364895,-71.06148,,,,
Millenium Partners,,172 Tremont Street,,Boston,MA,02111,US,617.476.8920,42.35334,-71.06427,,,,
North River Outfitter,,113 Charles Street Boston,,Boston,MA,02114,US,617-742-3900,42.35946,-71.07075,,,,
Olympia Sports,,100 Cambridgeside Pl,,Cambridge,MA,02138,US,617.621.1652,42.36705,-71.0764,,,,
Thunder Sports,,100 CambridgeSide Place,,Cambridge,MA,02141,US,617.577.0076,42.36705,-71.0764,,,,
Finish Line,,100 Cambridgeside Place,,Cambridge,MA,02141,US,617.225.0145,42.36705,-71.0764,,,,
Olympia Sports,,Prudential Center,,Boston,MA,02199,US,617.424.6499,42.3471426,-71.0825182,,,,
Bill Hatch Sports,,"4202 6th Avenue, South",,Seattle,WA,98108,US,206.343.9404,47.5660110204082,-122.326699591837,,,,
EVO,,3500 Stone Way N,,Seattle,WA,98103,US,(206) 973-4470,47.64944,-122.34274,,,,
Big 5 Sporting Goods,,4315 University Way N.E.,,Seattle,WA,98105,US,206.547.2445,47.6599971428571,-122.313135714286,,,,
Big 5 Sporting Goods,,1101 N.W. Leary Way,,Seattle,WA,98107,US,206.706.7531,47.66366,-122.37078,,,,
Blumenthal Uniforms & Equipment,,8610 Aurora Ave N,,Seattle,WA,98103,US,206.527.5277,47.6913934693878,-122.344551020408,,,,
Big 5 Sporting Goods,,2500 S.W. Barton,,Seattle,WA,98126,US,206.932.2212,47.52103,-122.36454,,,,
Escape Outdoors,,170 Bellevue Sq,,Bellevue,WA,98004,US,206.277.2731,47.6157765895954,-122.201694046243,,,,
Nordstrom's,,100 Bellevue Square,,Bellevue,WA,98004-5021,US,425.455.5800,47.61555,-122.20169,,,,
Sturtevants,,1100 Bellevue Way NE # 7,,Bellevue,WA,98004,US,425.454.6465,47.6206833333333,-122.20171,,,,
3 GI's Sports,,"9000 Holman Rd NW, Bldg B1",,Seattle,WA,98117,US,206.782.5860,47.69454,-122.37565,,,,
Under Armour Factory House,,1303 Lum Rd.,,Centralia,WA,98531,US,360-736-0162,46.7308966666667,-122.977644848485,,,,
Under Armour Factory House,,461 South Fork Ave. SW,Space 561C,North Bend,WA,98045,US,425-831-1240,47.492,-121.793533333333,,,,
Under Armour Factory House,,10600 Quil Ceda Blvd.,Suite 0357,Tulalip,WA,98271,US,360-657-3324,48.09168,-122.18563,,,,
North 40 Outfitters,,1150 S. Main Street,,Colville,WA,99114,US,509.684.1444,48.533876875,-117.904884375,,,,
North 40 Outfitters,,1227 Koala,,Omak,WA,98841,US,509.422.9840,48.42761,-119.49799,,,,
North 40 Outfitters,,8307 E Trent,,Spokane,WA,99212,US,509.922.1090,47.6789487755102,-117.293355510204,,,,
North 40 Outfitters,,1147 W. Broadway,,Moses Lake,WA,98837,US,509.765.9231,47.12074,-119.293213333333,,,,
Sportsworld,,1808 18th Street,,Lynden,WA,98264,US,360.354.3682,48.9409380837982,-122.472214020551,,,,
Slammers,,1878 South Wadsworth Blvd.,,Lakewood,CO,80232,US,303.988.7426,39.68310875,-105.08143,,,,
Rocky MTN USSSA,,1878 S Wadsworth Blvd,,Lakewood,CO,80232,US,303.459.2099,39.68310875,-105.08143,,,,
Precinct Police Products,,6350 Wadsworth Blvd.,,Arvada,CO,80003,US,303.421.1515,39.8120183673469,-105.081434897959,,,,
Larson's Ski & Sport,,4715 Kipling St,,Wheat Ridge,CO,80033,US,303.423.0654,39.78212,-105.10963,,,,
Christy Sports,,875 Parfet Street,,Lakewood,CO,80215,US,303.237.6321,39.7316271103712,-105.122210909605,,,,
Sportline of Arvada,,6510 Wadsworth Blvd.,,Arvada,CO,80003,US,303.421.6751,39.8150539220672,-105.081307988454,,,,
"Blue Star Police Supply, LLC",,6485 E Hampden Ave.,,Denver,CO,80222,US,303.759.0623,39.6530768181818,-104.913303181818,,,,
Big 5 Sporting Goods,,5185 Kipling Street,,Wheat Ridge,CO,80033,US,303.432.6532,39.79134,-105.10944,,,,
Sportsman's Warehouse,,11 W. 84th Avenue,,Thornton,CO,80260,US,303.428.6500,39.8489905050505,-104.987799494949,,,,
REI,,401 Park Dr.,Suite #3,Boston,MA,02215,US,617.236.0746,42.3436752238806,-71.1031302985075,,,,
Boston Underground,,860 Commonwealth Ave,,Boston,MA,02215,US,617.232.8680,42.350805,-71.113923125,,,,
Boston Ski Market,,860 Commonwealth Ave,,Boston,MA,02215,US,617.731.6100,42.350805,-71.113923125,,,,
Wilderness House,,1048 Commonwealth Ave,,Boston,MA,02215,US,207.885.5635,42.3518333333333,-71.1225266666667,,,,
Marathon Sports,,1654 Massachusetts Ave,,Cambridge,MA,02138,US,617.354.4161,42.38173,-71.11971,,,,
Modell's Sporting Goods,,640 Fellsway (Rte. 28),,Medford,MA,02155,US,781.395.0100,42.4074775,-71.0842427,,,,
Olympia Sports,,3850 Mystic Valley Pkwy # W119,,Medford,MA,02153,US,781.396.7212,42.4055764629617,-71.0935829259235,,,,
Modell's Sporting Goods,,170 Alewife Brook Parkway,,Cambridge,MA,02138,US,617.441.0050,42.390312,-71.141928,,,,
Olympia Sports,,339 Squire Road,,Revere,MA,02151,US,781.284.7503,42.427155,-71.0138,,,,
3 GI Sports,,9000 Holman Road N.W.,,Seattle,WA,98117,US,206.782.5860,47.69454,-122.37565,,,,
Joes Sports & Outdoor,,328 NE Northgate Way,,Seattle,WA,98125,US,206.838.0333,47.7086,-122.32559,,,,
Finish Line,,401 NE Northgate Way,,Seattle,WA,98125,US,206.367.1456,47.7086,-122.32461,,,,
Big 5 Sporting Goods,,4055 128th S.E.,,Bellevue,WA,98006,US,425.747.5230,47.5738487437717,-122.16946058974,,,,
Sturtevants Ski Mart,,13219 NE 20th Street,,Bellevue,WA,98005,US,425.637.8958,47.6280466666667,-122.164068333333,,,,
"Sporthaus Schmetzer, Inc.",,12524 Lake City Way NE,,Seattle,WA,98125,US,206.365.2161,47.7197137341135,-122.294891070234,,,,
Big 5 Sporting Goods,,14890 NE 24th Street,,Redmond,WA,98052,US,425.881.1461,47.63152,-122.140864,,,,
Island Sports,,321 High School Rd,,Bainbridge Island,WA,98110,US,206.842.8146,47.635804041614,-122.523290535929,,,,
REI,,240 Andover Parkway West,,Tukwila,WA,98188,US,206.248.1938,47.4564029411765,-122.254358529412,,,,
REI,,129 N Ely St,,Kennewick,WA,99336-2941,US,509.734.8989,46.2106540268456,-119.158954295302,,,,
REI,,3825 S. Steele St.,,Tacoma,WA,98409,US,253.671.1938,47.2223138683164,-122.468618290124,,,,
REI,,400 36th St.,,Bellingham,WA,98225,US,360.647.8955,48.7304500665714,-122.471329699322,,,,
REI,,3800 184th St. SW,Suite 952,Lynnwood,WA,98037,US,425.640.6200,47.83181,-122.28491,,,,
REI,,N. 1125 Monroe St.,,Spokane,WA,99201,US,509.328.9900,47.6674030612245,-117.42668244898,,,,
REI,,7500 166th Ave N.E.,,Redmond,WA,98052,US,425.882.1158,47.6707928282828,-122.11883979798,,,,
Holovak/Coughlin Sports,,14-16 Mill Street,,Arlington,MA,02474,US,781.648.7000,42.41718375,-71.15782375,,,,
All Seasons Sports,,638 Commonwealth Ave,,Newton Center,MA,02459,US,617.964.0820,42.336055,-71.19307,,,,
Olympia Sports,,1277 Broadway,,Saugus,MA,01906,US,781.231.5707,42.46279,-71.02477,,,,
Champs,,1201 Broadway Dr.,,Saugus,MA,01906,US,781.233.6380,42.4639,-71.02495,,,,
East Coast Alpine,,19 Irving Way,,Nahant,MA,01908,US,617.699.3505,42.4199532372379,-70.9337633274442,,,,
Sports Etc.,,1303 Massachusetts Ave.,,Arlington,MA,02476,US,781.646.1600,42.4242571428571,-71.1819771428571,,,,
Beacon Sporting Goods,,1240 Furnace Brook Parkway,,Quincy,MA,02169,US,617.479.8537,42.2445551304231,-71.0248686473398,,,,
Olympia Sports,,100 Quincy Granite Place,,Quincy,MA,02169,US,617.472.2195,42.246764,-71.0043369,,,,
Larsen Firearms,,914 S Maitland,,Pasco,WA,99301,US,509.545.0346,46.2250428571429,-119.08129,,,,
Double Eagle,,607 S. Oakes St.,,Tacoma,WA,98405,US,258.572.9460,47.2553695918367,-122.47135,,,,
Kesselring Gunshop,,4024 Old Hwy 99 N.,,Burlington,WA,98233,US,360.724.3113,48.5872978592828,-122.323020423983,,,,
"Varsity Athletics, LLC",,323 N. Pearl Street,,Ellensburg,WA,98926,US,509.962.2009,46.9946957142857,-120.547263469388,,,,
Action Sports,,430 N. Olympic Avenue,,Arlington,WA,98223,US,360.435.9505,48.1964704081633,-122.126344693878,,,,
North 40 Outfitters,,15228 N. Newport Hwy,,Mead,WA,99021,US,509.465.8100,47.7956103015075,-117.350748743719,,,,
Cascade Farm and Outdoor,,598 N Wilbur Ave.,,Walla Walla,WA,99362,US,541-868-2740,46.07856,-118.3046,,,,
Under Armour Factory House,,471 Opry Mills Dr.,Suite 471,Nashville,TN,37214,US,615-800-3788,36.2063763575917,-86.6968463575917,,,,
Nashville Sporting Goods,,169 Eighth Ave. North,,Nashville,TN,37203,US,615.259.4241,36.1608389879947,-86.7833613742317,,,,
The Athlete's House,,1700 Portland Avenue,,Nashville,TN,37212,US,615.292.7465,36.1329,-86.79608,,,,
Sport Seasons - Lionshead Village,,56 White Bridge Rd,,Nashville,TN,37205,US,615.356.3380,36.12881625,-86.85339625,,,,
Bass Pro,,323 Opry Mills Dr,,Nashville,TN,37214,US,615.514.5200,36.20369,-86.69485,,,,
Hit After Hit,,705 Airpark Center Drive,,Nashville,TN,37217,US,615.399.2287,36.0961647665733,-86.6800845163474,,,,
Lacrosse Nashville,,127 Franklin Rd Ste 120,,Brentwood,TN,37027,US,615.376.4444,36.0355,-86.7875,,,,
REI,,261 Franklin Rd.,,Brentwood,TN,37027,US,615.376.4248,36.0294567791062,-86.7908617568512,,,,
Sport Seasons - Rivergate Mall,,1000 Rivergate Pkwy,#1017,Goodlettsville,TN,37072,US,615.859.7882,36.2983549180328,-86.6998773770492,,,,
Finish Line,,1000 Rivergate Pkwy,,Goodlettsville,TN,37072,US,615.855.2100,36.2983549180328,-86.6998773770492,,,,
Boot Barn,,240 Longhollow Pike,,Goodlettsville,TN,37072,US,615.859.4600,36.32478,-86.70243,,,,
Golf Galaxy,,1610 Galleria Boulevard,,Brentwood,TN,37027,US,615.250.3803,35.9697628975852,-86.8093628525665,,,,
Safety & Security International,,1664 Mallory Lane,,Brentwood,TN,37027,US,615.425.0560,35.969866546703,-86.8117940204449,,,,
Boot Barn,,"8105 Moores Lane, #205",,Brentwood,TN,37027,US,615.373.6988,35.9658106752712,-86.802159802789,,,,
Soccer USA,,1701 Mallory Lane,Suite 300,Brentwood,TN,37027,US,615.661.9094,35.96632,-86.8138,,,,
Finish Line,,1800 Galleria Blvd.,,Franklin,TN,37067,US,615.771.0413,35.95775,-86.81128,,,,
Academy Sports & Outdoors,,1915 Mallory Ln,,Franklin,TN,37067,US,615.771.0184,35.9557875037296,-86.8173303188871,,,,
Sport Seasons - Cool Springs,,545 Cool Springs Blvd,#105,Franklin,TN,37067,US,615.778.1638,35.9469991345468,-86.8220220193907,,,,
Doug Mathews Team Sports,,106 Carr Ave,,Franklin,TN,37064-3807,US,615.595.9925,35.905881793878,-86.8748724234748,,,,
Binks Outfitters,,1715 Columbia Ave,,Franklin,TN,37064,US,615-807-2945,35.902026,-86.872201,,,,
Under Armour Factory House,,7624 W. Reno Ave,Space #B-210,Oklahoma City,OK,73128-9702,US,405-789-5452,35.4623923,-97.6469689,,,,
Bass Pro,,200 Bass Pro Drive,,Oklahoma City,OK,73104,US,405.218.5200,35.46429,-97.50354,,,,
"Special Ops Uniforms, Inc.",,505 N Portland,,Oklahoma City,OK,73107,US,405.946.3504,35.47192,-97.58333,,,,
Finish Line,,1901 NW Expressway,,Oklahoma City,OK,73118,US,405.879.2335,35.5246909,-97.5440106,,,,
Gregory's Sporting Goods,,4421 S.E. 29th,,Del City,OK,73115,US,405.672.4230,35.43525,-97.4388457142857,,,,
Finish Line,,1012 Crossroads Mall,,Oklahoma City,OK,73149,US,405.636.0867,35.3971416527885,-97.4932579593934,,,,
Mike's Soccer Kingdom,,100 N McCormick St,,Oklahoma City,OK,73127,US,405.604.4606,35.4672465656566,-97.6152875252525,,,,
Under Armour Brand House,,700 S. President Street,,Baltimore,MD,21202,US,410-528-5304,39.28298,-76.60148,,,,
Under Armour Brand House,,2575 Annapolis Mall Rd.,,Annapolis,MD,21401,US,410-571-9331,38.9890684339315,-76.5422294290375,,,,
Under Armour Factory House,,7000 Arundel Mills Circle,Space 224,Hanover,MD,21076,US,410-454-6705,39.1573631,-76.7252493,,,,
Under Armour Factory House,,6611-A Cabot Dr.,,Curtis Bay,MD,21226,US,410-255-2468,39.1972073836866,-76.5542929365441,,,,
YMCA of CENTRAL MD,,20 S Charles St Ste 600,,Baltimore,MD,21201,US,410.837.1077,39.28877,-76.61508,,,,
Merritt Athletic Club,,210 E Centre Street,,Baltimore,MD,21202,US,410.332.0906,39.2964708695652,-76.6121882608696,,,,
5K Speciality Shop,,736 South Bond Street,,Baltimore,MD,21231,US,410.342.0305,39.2830936734694,-76.5951642857143,,,,
Twid's Sporting Goods,,6001 Southeast 15th Street,,Midwest City,OK,73110,US,405.733.1757,35.44967,-97.41748,,,,
Academy Sports & Outdoors,,4261 NW 63rd Street,,Oklahoma City,OK,73116,US,405.840.4822,35.53684,-97.5953716666667,,,,
Soccer Center,,10803 N May Ave,,Oklahoma City,OK,73120,US,405.755.7261,35.5793567307692,-97.56719,,,,
Howard's Sports & Apparel,,2241 West Memorial,,Oklahoma City,OK,73134,US,405.751.9119,35.6097452406417,-97.5530557219251,,,,
Golf Galaxy,,13830 North Pennsylvania Ave,,Oklahoma City,OK,73134,US,405.748.4129,35.6111460606061,-97.5493931313131,,,,
Finish Line,,2501 W Memorial Road,,Oklahoma City,OK,73134,US,405.749.0027,35.60978,-97.55836,,,,
Athletic Village,,6909 W. Hefner Rd,,Oklahoma City,OK,73162,US,405.722.6200,35.5800945226131,-97.6355033668342,,,,
Hibbett Sports,,1141 Garth Brooks Blvd.,,Yukon,OK,73099,US,405.350.7503,35.492545,-97.760245,,,,
Athletic Village,,836 W. Danforth Rd,,Edmond,OK,73003,US,405.341.5005,35.66747,-97.4949211764706,,,,
Heartland Outdoors LLC,,1444 N Kelly Ave,,Edmond,OK,73003-3900,US,405.340.7530,35.6690811111111,-97.4960572222222,,,,
R & S Tactical Gear,,716 South Broadway,,Baltimore,MD,21231,US,443.992.0575,39.28301,-76.59347,,,,
F&F&A Jacobs & Sons Clothing,,1100 Wicomico Street,,Baltimore,MD,21230,US,410.727.6397,39.27976,-76.62869,,,,
Merritt Athletic Club,,921 E Fort Ave,,Baltimore,MD,21230,US,410.576.2004,39.27159,-76.6011606122449,,,,
Merritt Athletic Club,,3401 Boston Street,,Baltimore,MD,21224,US,410.563.0225,39.27707,-76.5684,,,,
Macrotech Accessories,,5826 Ritchie Hwy,,Baltimore,MD,21225,US,410.789.7777,39.214256,-76.614723,,,,
Shiflett & Horn Sporting Goods,,2033 Merritt Ave.,,Baltimore,MD,21222,US,410.282.1221,39.2604022016713,-76.5103610083567,,,,
Modell's Sporting Goods,,6510 Reistertown Road,,Baltimore,MD,21215,US,410.318.6500,39.3565921428571,-76.7029860714286,,,,
Barehills Pro Shop,,1420 Clarkview Rd,,Baltimore,MD,21209,US,410.828.2500,39.38166775,-76.657399,,,,
Dick's Sporting Goods,,6711 Ritchie Hwy,,Glen Burnie,MD,21061,US,410.760.3933,39.1921366666667,-76.61343,,,,
Finish Line,,3531 West Main Street,,Norman,OK,73072,US,405.579.5660,35.21847,-97.4937425,,,,
Athletic Village,,2437 W. Main,,Norman,OK,73069,US,405.364.5096,35.21853,-97.4780431914894,,,,
Academy Sports & Outdoors,,324 S. Bryant Ave,,Edmond,OK,73034,US,405.330.0174,35.7282696782962,-97.4605,,,,
Princeton Sports,,6239 Falls Road,,Baltimore,MD,21209,US,410.828.1127,39.38307,-76.65651,,,,
Maryland Police Supply,,7028 Golden Ring Road,,Baltimore,MD,21237,US,410.391.3861,39.3322732868886,-76.4916905685843,,,,
Elliott Sportwear- DBA Firehouse Group,,8327 Harford Rd,,Baltimore,MD,21234,US,410.663.3966,39.3798318181818,-76.5376563636364,,,,
Golf Galaxy,,803 Goucher Boulevard,Suite 104,Towson,MD,21286,US,443.279.3733,39.39821,-76.58633,,,,
Ski Warehouse,,7038 Aviation Blvd,,Glen Burnie,MD,21061,US,410.590.4604,39.18455,-76.652685,,,,
Merritt Athletic Club,,8757 Mylander Lane,,Towson,MD,21286,US,410.821.0160,39.3967860226462,-76.5737531541613,,,,
Merritt Athletic Club,,2076 Lord Baltimore Drive,,Baltimore,MD,21244,US,410.298.8700,39.3165272676169,-76.7518965945555,,,,
Nordstrom's,,700 Fairmount Avenue,,Towson,MD,21286-1037,US,410.296.2111,39.40401,-76.59645,,,,
Under Armour Factory House,,1155 Buck Creek Road,Suite C300,Simpsonville,KY,40067,US,502-722-8654,38.2004410311208,-85.3481191517907,,,,
Command,,961 S. Second Street,,Louisville,KY,40203,US,502.581.1235,38.239726122449,-85.756152244898,,,,
Bush-Keller Sporting Goods,,340 Vincennes Street,,New Albany,IN,47150,US,812.945.1146,38.292065,-85.80663,,,,
Kieslers Police Supply,,3300 Industrial Parkway,,Jeffersonville,IN,47130,US,812.288.5740,38.31352,-85.74997,,,,
Dick's Sporting Goods,,951 East Highway 131,,Clarksville,IN,47129,US,812.284.4891,38.3146928,-85.7574255,,,,
Finish Line,,757 E Lewis and Clark Pkwy,,Clarksville,IN,47129,US,812.280.7524,38.314988,-85.7637073,,,,
Bass Pro,,951 E Lewis and Clark Pkwy,,Clarksville,IN,47129,US,812.218.5500,38.3208011,-85.7618019,,,,
Shively Sporting Goods,,4006 Dixie Highway,,Louisville,KY,40216,US,502.448.7272,38.19166,-85.808315,,,,
Finish Line,,5000 Shelbyville Road,,Louisville,KY,40207,US,502.895.9034,38.25017,-85.62352,,,,
Bacharach Rasin Sporting Goods,,802 Gleneagles Court,,Towson,MD,21286,US,410.825.6747,39.4006825999171,-76.5723354849606,,,,
US Outdoor,,219 SW Broadway,,Portland,OR,97205,US,503.223.5937,45.5225101349159,-122.67786847506,,,,
Farpost Soccer Supply Co.,,825 SW 14th Avenue,,Portland,OR,97205,US,503.295.6875,45.5200858536585,-122.686738536585,,,,
REI,,1405 NW Johnson St.,Suite 150,Portland,OR,97209,US,503.221.1938,45.5286095918367,-122.685392857143,,,,
The Clymb,,"1104 NW 15th Avenue, 4th Floor",,Portland,OR,97209,US,503.334.3465,45.530767,-122.686471,,,,
Evo in Portland,,200 SE MLK Jr. Blvd,,Portland,OR,97214,US,503.972.5850,45.52152,-122.66179,,,,
Frank Bashor Supply,,112 N.W. 20th Avenue,,Portland,OR,97209,US,503.226.3696,45.5237952027027,-122.692282297297,,,,
Frank Bashor Supplies Inc.,,112 N.W. 20th Avenue,,Portland,OR,97209,US,503.226.3696,45.5237952027027,-122.692282297297,,,,
Next Adventure,,426 SE Grand Ave,,Portland,OR,97214,US,503.233.1960,45.5198889795918,-122.660742653061,,,,
Golf Galaxy,,5063 Shelbyville Road,,Louisville,KY,40207,US,502.893.1910,38.2502944117647,-85.6229729411765,,,,
Finish Line,,4801-A 256 Outer Loop,,Louisville,KY,40219,US,502.968.1686,38.13802,-85.6737,,,,
Dick's Sporting Goods,,3500 S. Hurstbourne Pkwy,,Louisville,KY,40299,US,502.499.9029,38.1964413612058,-85.6036485959252,,,,
Dick's Sporting Goods,,3555 Springhurst Blvd,,Louisville,KY,40241,US,502.429.0776,38.2986849989548,-85.5602057353863,,,,
Milwaukee Athletic Club,,758 N Broadway,,Milwaukee,WI,53202,US,414.273.5080,43.0401083333333,-87.9079183333333,,,,
Laacke & Joys Co.,,1433 N. Water Street,,Milwaukee,WI,53202,US,414.271.7885,43.0484708523193,-87.9101170845918,,,,
Lark Uniforms Outfitters,,3860 S Howell Ave,,Milwaukee,WI,53207,US,414.481.0740,42.9742766666667,-87.909530952381,,,,
Les Moise Inc.,,151 E. Silver Spring Dr.,,Milwaukee,WI,53217,US,414.964.5330,43.11857,-87.90917,,,,
Playmakers Sports,,5601 S. Pennsylvania,,Cudahy,WI,53110,US,414.482.0050,42.9426815803104,-87.8798983647427,,,,
Dunham's,,5656 South Packard Ave.,,Cudahy,WI,53110,US,414.769.7700,42.9414564516129,-87.8599590322581,,,,
Rogan's Shoes,,4350 South 76th St.,,Greenfield,WI,53220,US,414.327.4440,42.9653393103448,-88.0080844827586,,,,
Finish Line,,2500 N Mayfair Rd,,Wauwatosa,WI,53226,US,414.453.8983,43.0646011842105,-88.0476442105263,,,,
The Mountain Shop,,628 NE Broadway,,Portland,OR,97232,US,503.288.6768,45.5350671428571,-122.659311428571,,,,
Nordstrom's,,1001 Lloyd Center,,Portland,OR,97232-1267,US,503.287.2444,45.53362,-122.655553128492,,,,
Finish Line,,1228 Lloyd Center,,Portland,OR,97232,US,503.281.1426,45.53362,-122.654,,,,
Mountain Sports,,3375 Highway 434,,Angel Fire,OR,97232,US,505.377.3490,45.53048,-122.64323,,,,
Hawthorn Farm Athletic DBA,,4730 SW Macadam Ave Ste 201,,Portland,OR,97239,US,503.853.7472,45.4892059005786,-122.674230984508,,,,
Big Foot Lacrosse,,6517 SW Beaverton HIillsdale HWY,,Portland,OR,97225-1401,US,503.203.5901,45.4870872495031,-122.743798271365,,,,
Blumenthal Uniforms & Equipment,,9047 SW Barbur Blvd.,,Portland,OR,97219,US,503.452.5055,45.4596928571429,-122.708077959184,,,,
Joes Sports & Outdoor,,1140 N. Hayden Meadows Dr,,Portland,OR,97217,US,503.283.0318,45.5935035407553,-122.678662691352,,,,
REI,,12160 SE 82nd Ave.,,Portland,OR,97266,US,503.659.1156,45.49741,-122.57874,,,,
Big 5 Sporting Goods,,2720 San Mateo Blvd. N.E.,,Albuquerque,NM,87110,US,505.884.5026,35.1113627272727,-106.58633,,,,
Heart and Sole Sports,,2817 San Mateo Blvd NE,,Albuquerque,NM,87110,US,505.884.5300,35.1130887755102,-106.586341632653,,,,
Champs,,6600 Menaul Blvd NE,,Albuquerque,NM,87110,US,505.888.4463,35.10904,-106.57095,,,,
Finish Line,,6600 Menual NE,,Albuquerque,NM,87110,US,505.889.8010,35.10904,-106.57095,,,,
REI,,1550 Mercantile Ave. N.E.,,Albuquerque,NM,87107,US,505.247.1191,35.1354482954302,-106.607854488843,,,,
Sportsman's Warehouse,,1450 Renaissance Blvd NE,,Albuquerque,NM,87107,US,505.761.9900,35.1374053816337,-106.613252813092,,,,
Kaufman's West LLC,,1660 Eubank NE.,,Albuquerque,NM,87112,US,505.293.2300,35.0995210714286,-106.5327875,,,,
Under Armour Brand House,,3200 Las Vegas Blvd. S.,Space 1040,Las Vegas,NV,89109,US,702-267-6033,36.12773,-115.16795,,,,
Under Armour Factory House,,875 South Grand Central Parkway,Suite 3351,Las Vegas,NV,89106,US,702-470-1022,36.1637373913043,-115.156673043478,,,,
Under Armour Factory House,,7400 Las Vegas Blvd. South,Space 0318,Las Vegas,NV,89123,US,702-260-6855,36.0551182352941,-115.172342941176,,,,
Uniforms Inc.,,1070 S COommerce Street,,Las Vegas,NV,89106,US,702.382.2236,36.1632820851248,-115.152099990029,,,,
Big 5 Sporting Goods,,2797 S. Maryland Parkway,,Las Vegas,NV,89109,US,702.734.6664,36.1386904965416,-115.1369,,,,
Hahns World Of Surplus,,2908 E Lake Mead Blvd,,N Las Vegas,NV,89030,US,702.649.6819,36.1959,-115.107691818182,,,,
Big 5 Sporting Goods,,4275 E. Charleston Blvd.,,Las Vegas,NV,89104,US,702.641.2224,36.158885,-115.0814975,,,,
Big 5 Sporting Goods,,1140 S. Decatur Blvd.,,Las Vegas,NV,89102,US,702.878.6100,36.1583327073524,-115.205995593897,,,,
Golf Galaxy,,7801 West Layton Avenue,,Greenfield,WI,53220,US,414.817.9900,42.9591813316351,-88.0106561579392,,,,
Dunham's,,2550 S. 108th Street,,West Allis,WI,53227,US,414.543.7650,42.9978406779661,-88.0469027118644,,,,
Milwaukee Sporting Goods,,2929 N. 114th Street,,Milwaukee,WI,53222,US,414.475.7580,43.0717770481903,-88.0552919809561,,,,
Finish Line,,5300 S 76th St,,Greendale,WI,53129,US,414.423.9105,42.9483540740741,-88.008397037037,,,,
REI,,13100 W. Capitol Dr.,,Brookfield,WI,53005,US,262.783.6150,43.08936,-88.07383,,,,
Streicher's Police Equipment,,4777 N. 124th Street,,Milwaukee,WI,53007,US,800.541.4164,43.10419,-88.06603,,,,
Sherpers Inc.,,5750 S. 108 Street,,Hales Corners,WI,53130,US,414.425.6888,42.939505,-88.04832,,,,
Burghardt Sporting Goods,,14660 West Capitol Drive,,Brookfield,WI,53005,US,262.790.1170,43.0898693848772,-88.0946529232515,,,,
Dunham's,,17300 W. Bluemound Rd,,Brookfield,WI,53045,US,262.797.9100,43.0364017204573,-88.1283310749696,,,,
Dunham's,,9191 North 76th St.,,Milwaukee,WI,53223,US,414.354.8911,43.1852754545455,-88.0044272727273,,,,
Nordstrom's,,11900 SE 82nd,,Portland,OR,97266-7796,US,503.652.1810,45.49741,-122.57874,,,,
Finish Line,,12000 SE 82nd Ave,,Portland,OR,97266,US,503.281.1426,45.49741,-122.57874,,,,
Big 5 Sporting Goods,,5420 SE 82nd Ave.,,Portland,OR,97266,US,503.775.2445,45.4832693333333,-122.578951333333,,,,
Gateway Pro Am,,10240 NE Halsey St,,Portland,OR,97220,US,503.255.0856,45.5335459183673,-122.557543877551,,,,
Gateway Pro-Am Sports,,10240 N.E. Halsey,,Portland,OR,97220,US,503.255.0856,45.5335459183673,-122.557543877551,,,,
Wholesale Sports,,9401 SE 82nd Avenue,,Portland,OR,97266,US,503.777.8700,45.4521192929293,-122.76149969697,,,,
Golf Galaxy,,3125 SW Cedar Hills Blvd,,Beaverton,OR,97005,US,503.626.2322,45.4976220805369,-122.808141677852,,,,
Golfsmith,,10263 NE Cascades Pkwy,,Portland,OR,97220,US,503.287.0196,45.57216625,-122.55632,,,,
Golfmart ABQ,,4200 Wyoming NE,,Albuquerque,NM,87111,US,505.296.5866,35.12815,-106.55092,,,,
Boot Barn,,"6210 San Mateo, NE",,Albuquerque,AK,87109,US,505.883.7161,35.14693,-106.58634,,,,
Soccer Locker USA,,9723 Menavl Blvd,,Albuquerque,NM,87112,US,505.271.1050,35.1090234,-106.5326537,,,,
Big 5 Sporting Goods,,1915 Juan Tabo N.E.,,Albuquerque,NM,87112,US,505.275.4990,35.1027571428571,-106.515565714286,,,,
Ultimate Team Sales,,6501 Wyoming Blvd NE Ste H,,Albuquerque,NM,87109,US,505.883.3668,35.15322,-106.56117,,,,
Big 5 Sporting Goods,,3140 Coors Boulevard NW,,Albuquerque,NM,87120,US,505.836.6555,35.1174361538461,-106.701530769231,,,,
Soccer Connection,,4901 Paseo del Nort NE,Suite A,Albuqurque,NM,87113,US,505.821.2777,35.17459,-106.5901,,,,
Ultimate Dugout,,8001 Wyoming NE D5,,Albuquerque,NM,87113,US,505.796.0808,35.1755011,-106.5604552,,,,
Turf Sporting Goods,,3558 Procyon St,,Las Vegas,NV,89103,US,702.873.2478,36.1257299386765,-115.187835304871,,,,
Bass Pro,,8200 Industrial Rd,,Las Vegas,NV,89139,US,702.730.5200,36.12053,-115.18045,,,,
Quartermaster Inc.,,3879 Spring Mountain Road,,Las Vegas,NV,89102,US,702.364.1500,36.1264541413211,-115.192817683562,,,,
American Shooters Supply,,3440 Arville Steet,,Las Vegas,NV,89102,US,702.362.1223,36.1274248979592,-115.199131836735,,,,
Jock Shop,,5785 W. Sahara Ave,,Las Vegas,NV,89146,US,702.871.4910,36.1442554464286,-115.219871071429,,,,
Absolute Equipment,,4310 Losee Road,Suite 2,N. Las Vegas,NV,89031,US,702.651.6693,36.2384493939394,-115.116762121212,,,,
Big 5 Sporting Goods,,2020 W. Craig Rd. Ste. 100,,North Las Vegas,NV,89031,US,702.647.7158,36.2395070588235,-115.171600588235,,,,
Boot Barn,,6322 West Sahara Ave.,,Las Vegas,NV,89146,US,702.365.5691,36.1441784615385,-115.231805128205,,,,
Sportco Sporting Goods,,"101 S. Rainbow, #17",,Las Vegas,NV,89145,US,702.878.2284,36.17386,-115.24428,,,,
Golf Galaxy,,19030 West Bluemound Rd,,Brookfield,WI,53045,US,262.786.2660,43.03644,-88.1493453628705,,,,
Rogan's Shoes,,19770 Bluemound Road,,Brookfield,WI,53045,US,262.782.1022,43.036203125,-88.158556875,,,,
KM Sports,,2132 Silvernail Rd.,,Pewaukee,WI,53072,US,262.521.2112,43.0437968319475,-88.2613996439289,,,,
Dunham's,,220 Oak Street,,Grafton,WI,53024,US,262.375.0045,43.306264137931,-87.96752,,,,
Rogan's Shoes,,3520 Rapids Drive,,Racine,WI,53404,US,262.637.5545,42.75148,-87.82145,,,,
Cabela's,,3048 Pioneer Rd.,,Richfield,WI,53076,US,262.628.5700,43.28083,-88.189,,,,
Rogan's Shoes,,5415 Washington Ave.,,Racine,WI,53406,US,262.632.8281,42.7187221046121,-87.8447907680962,,,,
Albuquerque Running Shop,,12611 Montgomery Blvd.,,Albuquerque,NM,87111,US,505.293.2786,35.1307089464247,-106.49676676755,,,,
Big 5 Sporting Goods,,9391 Coors Blvd. N.W.,,Albuquerque,NM,87114,US,505.890.5121,35.1855846428571,-106.663346428571,,,,
"ABQ Jock Shop, Inc.",,3601-F Old Airport Rd NW,,Albuquerque,NM,87114,US,505.899.5700,35.20273,-106.65295,,,,
Santa Fe Ski Company,,10 Tramway Loop NE,,Albuquerque,NM,87122,US,505.856.6419,35.1918565241058,-106.48295949974,,,,
Big 5 Sporting Goods,,2359 Main St. S.E.,,Los Lunas,NM,87031,US,505.565.1277,34.8053375,-106.70452625,,,,
SportCo Sporting Goods,,2580 E. Sunset Rd,,Las Vegas,NV,89120,US,702.739.9750,36.0716457142857,-115.114799285714,,,,
Vegas Gunworks,,6250 Mountain Vista M-I,,Henderson,NV,89014,US,702.458.7400,36.0754176750574,-115.073157887239,,,,
Big 5 Sporting Goods,,2712 North Green Valley Parkway,,Henderson,NV,89014,US,702.434.4141,36.06996,-115.08232,,,,
Big 5 Sporting Goods,,3975 S. Buffalo Dr. Ste. #103,,Las Vegas,NV,89147,US,702.248.6836,36.1168802526784,-115.261,,,,
Golf Galaxy,,8621 West Charleston Blvd,Suite 110,Las Vegas,NV,89117,US,702.932.4110,36.15899,-115.281065,,,,
Boot Barn,,7265 Las Vegas Blvd. South,,Las Vegas,NV,89119,US,702.260.1888,36.0574009227978,-115.172446094022,,,,
Finish Line,,1300 West Sunset Road,,Henderson,NV,89014,US,702.433.6214,36.06382,-115.04032,,,,
Sportsman's Warehouse,,5647 Centennial Center Blvd.,,Las Vegas,NV,89149,US,800.286.3076,36.2638495439099,-115.256757189802,,,,
Big 5 Sporting Goods,,4902 E. Kings Canyon Road,,Fresno,CA,93727,US,209.255.1821,36.7358593877551,-119.731807959184,,,,
Big 5 Sporting Goods,,480 East Shaw Avenue,,Clovis,CA,93612,US,559.297.8201,36.8086681632653,-119.779526938776,,,,
Fresno World of Baseball,,5091 N Fresno St Ste 140,,Fresno,CA,93710,US,559.225.1421,36.8102016666667,-119.78137,,,,
Big 5 Sporting Goods,,5488 N. Blackstone Avenue,,Fresno,CA,93710,US,209.439.3351,36.8170285365854,-119.790309268293,,,,
Big 5 Sporting Goods,,3022 West Shaw Avenue,,Fresno,CA,93711,US,209.277.8135,36.8084077777778,-119.84506,,,,
First String Sports,,6585 N. Blackstone,,Fresno,CA,93710,US,559.438.2666,36.8339541666667,-119.790394444444,,,,
Midtown Sports,,6735 N. Cedar,,Fresno,CA,93710,US,559.447.5578,36.8362891176471,-119.754334411765,,,,
Soccer Express,,"6751 N Blackstone Ave, 109",,Fresno,CA,93710,US,559.432.7511,36.8366988888889,-119.790374444444,,,,
1st String Sports,,727 Clovis Ave,,Clovis,CA,93612,US,559.297.7183,36.82173,-119.7006825,,,,
REI,,7810 N. Blackstone Ave.,,Fresno,CA,93720,US,559.261.4168,36.848798,-119.790683230769,,,,
Big 5 Sporting Goods,,1544 E. Champlain Drive,,Fresno,CA,93720,US,559.434.1788,36.8672381387537,-119.756728358715,,,,
Big 5 Sporting Goods,,3356 Floral Ave,,Selma,CA,93662,US,559.896.1723,36.5763380772665,-119.631521527473,,,,
Madera Uniform,,17035 Road 26,Suite G,Madera,CA,93638,US,559.661.0777,36.9967940816327,-120.074260408163,,,,
Under Armour Factory House,,6401 West Marana Center Blvd.,Suite 504,Marana,AZ,85742,US,520-988-3915,32.3757317,-111.1012313,,,,
Baum's Sporting Goods,,2845 E. Speedway Blvd.,,Tucson,AZ,85716,US,520.881.1100,32.23612,-110.930426530612,,,,
Performance Footwear,,5350 E Broadway Blvd,Ste 170,Tucson,AZ,85711,US,520.790.0017,32.2215588888889,-110.878216666667,,,,
The Running Shop,,3055 N Campbell Ave 153,,Tucson,AZ,85719,US,520.325.5097,32.2621653061224,-110.943838979592,,,,
Arizona Archery,,1550 S Craycroft Rd,,Tucson,AZ,85711,US,928.699.0477,32.2028624050633,-110.87511,,,,
Big 5 Sporting Goods,,5695 E. Speedway Blvd,,Tucson,AZ,85712,US,520.296.3326,32.23625,-110.871086938776,,,,
Finish Line,,5870 East Broadway Blvd.,,Tucson,AZ,85711,US,520.747.2550,32.22151,-110.86712,,,,
Boot Barn,,6701 E Broadway,,Tucson,AZ,85710,US,520.731.3422,32.22112,-110.84952,,,,
Boot Barn,,3719 North Oracle,,Tucson,AZ,85705,US,520.888.1161,32.2739594871795,-110.978241282051,,,,
Yarrum Inc DBA Play it Again Sports,,7280 E Broadway Blvd,,Tucson,AZ,85710-1407,US,520.296.6888,32.22094,-110.837414411765,,,,
Golfsmith,,4439 N Oracle Rd,,Tucson,AZ,85705,US,520.887.0113,32.2869142857143,-110.97828,,,,
Champs,,4500 N. Oracle Rd,,Tucson,AZ,85705,US,520.888.1878,32.2888944594595,-110.978143378378,,,,
Finish Line,,4500 N. Oracle Rd.,,Tucson,AZ,85705,US,520.888.0761,32.2888944594595,-110.978143378378,,,,
Big 5 Sporting Goods,,"4901 North Stone Avenue, Suite 4",,Tucson,AZ,85704,US,520.292.2778,32.29538,-110.97126,,,,
Golf Galaxy,,4848 North Old Oracle Road,,Tucson,AZ,85705,US,520.202.2116,32.2928942132827,-110.979517035252,,,,
Big 5 Sporting Goods,,6441 S. Midvale Park Rd.,,Tucson,AZ,85746,US,520.573.4135,32.1347329411765,-110.99889,,,,
Baum's Sporting Goods,,6446 N. Oracle Road,,Tucson,AZ,85704,US,520.797.7779,32.3236854603717,-110.974899274087,,,,
Sportsman's Warehouse,,3945 West Costco,,Tucson,AZ,85741,US,520.877.4500,32.3293191307691,-111.048591642521,,,,
Big 5 Sporting Goods,,10390 North La Canada Drive,,Oro Valley,AZ,85737,US,520.742.4987,32.39468,-110.99568,,,,
Under Armour Factory House,,13000 Folsom Blvd.,Space 1555,Folsom,CA,95630,US,916-365-9408,38.6431647,-121.1865656,,,,
REI,,1790 Exp Parkway,,Sacramento,CA,95815,US,916.924.8900,38.5984020935024,-121.450393639627,,,,
BareBones Workwear,,"767 Ikea Court, Suite 120",,West Sacramento,CA,95605,US,916.372.9327,38.5899661728173,-121.550920466447,,,,
Surf and Skate,,2001 Arden Way #200,,Sacramento,CA,95825,US,916.927.2005,38.59623,-121.41911,,,,
Kombat Soccer,,5958 South Land Park Drive,,Sacramento,CA,95822,US,916.391.3788,38.51889,-121.512697333333,,,,
Blumenthal Uniforms & Equipment,,3133 Arden Way,,Sacramento,CA,95825,US,916.256.3300,38.5958933333333,-121.390943333333,,,,
Big 5 Sporting Goods,,3420 Arden Way,,Sacramento,CA,95825,US,916.488.5060,38.5958,-121.38463,,,,
Atlanta Activewear,,996 Virginia Ave NE,,Atlanta,GA,30306,US,404.276.1677,33.782315,-84.354865,,,,
Phidippides,,1544 Piedmont Road NE,,Atlanta,GA,30324,US,404.875.4268,33.796380403737,-84.369639596263,,,,
Command,,1315-A Chattahoochee Dr.,,Atlanta,GA,30318,US,404.873.1777,33.80229,-84.43087,,,,
Sprong LLC,,"375 Pharr Road, Ste 502",,Atlanta,GA,30305,US,404.846.7074,33.8370346153846,-84.3755330769231,,,,
Deka Athletics,,375 Pharr Road #501,,Atlanta,GA,30305,US,404.869.9600,33.8370346153846,-84.3755330769231,,,,
Edwin Watts,,"3141 Piedmont Road, NE",,Atlanta,GA,30305,US,404.816.2166,33.8429849180328,-84.371041147541,,,,
Golfsmith,,"3495 Buckead Loop NE, STE 215",,Atlanta,GA,30326,US,404.816.2281,33.8487275887255,-84.3700840544527,,,,
Big 5 Sporting Goods,,980 Florin Road Suite A,,Sacramento,CA,95831,US,916.393.1831,38.4957586466379,-121.523057894849,,,,
Sierra Police Supply,,4931 Arnold Avenue,,McClellan,CA,95652,US,916.640.0552,38.6562523945408,-121.386860922117,,,,
Athletics Unlimited,,4648 Whitney Ave,,Sacramento,CA,95821,US,916.483.2352,38.6283574418605,-121.356122790698,,,,
Big 5 Sporting Goods,,6251 Mack Road,,Sacramento,CA,95823,US,916.427.0978,38.47431,-121.429269104478,,,,
Lacrosse Fanatic,,9500 MICRON AVE #114,,Sacramento,CA,95827,US,916.363.8700,38.5621526234345,-121.344598411104,,,,
Big 5 Sporting Goods,,3637 Elk Horn Boulevard,,North Highlands,CA,95660,US,916.332.6511,38.69037,-121.38089250379,,,,
Big 5 Sporting Goods,,4794 Manzanita Ave.,,Carmichael,CA,95608,US,916.972.1067,38.6529668,-121.3276536,,,,
BareBones Workwear,,"5800 Madison Avenue, Suite Y-1",,Sacramento,CA,95841,US,916.334.9327,38.6605982824687,-121.329016834525,,,,
Big 5 Sporting Goods,,10755 Folsom Boulevard,,Rancho Cordova,CA,95670,US,916.852.0898,38.5974304848956,-121.286079069,,,,
Champs,,72 S. Dekalb Mall,,Decatur,GA,30034,US,404.243.8036,33.7797938,-84.2721172,,,,
Champs,,3393 Peachtree Rd NE,,Atlanta,GA,30326,US,404.237.2205,33.84893,-84.365,,,,
REI,,1800 N.E. Expressway,,Atlanta,GA,30329,US,404.633.6508,33.8400033,-84.3213882,,,,
Big Peach Running Company,,3881 Peachtree Rd NE,,Atlanta,GA,30319,US,404-483-9272,33.8574933851141,-84.344481087396,,,,
Pumpin Iron Pro Shop,,4279 Rosewell Rd,,Atlanta,GA,30342,US,404.943.9911,33.87161,-84.38103,,,,
Tactical Gear Supply,,4864 Ash Street,,Forest Park,GA,30297,US,404.366.0631,33.6197208108108,-84.3616681081081,,,,
Finish Line,,1313 Cumberland Mall,,Atlanta,GA,30339,US,770.434.0024,33.8787973469388,-84.4693395918367,,,,
BareBones Workwear,,10849 Olson Drive,,Rancho Cordova,CA,95670,US,916.363.9327,38.5937097008855,-121.285571237126,,,,
Big 5 Sporting Goods,,6620 Laguna Blvd.,,Elk Grove,CA,95758,US,916.691.9112,38.42331,-121.426644724711,,,,
Surf and Skate,,7440 Laguna Blvd. #108,,Elk Grove,CA,95758,US,916.683.3333,38.423375553401,-121.417302446293,,,,
Outdoor Kids,,1970 5Th Street  Suite C,,Davis,CA,95616,US,530.297.5437,38.5487366666667,-121.727503333333,,,,
Soccer City,,9633 E Stockton Blvd,,Elk Grove,CA,95624,US,916.985.8837,38.4077246042443,-121.384965300774,,,,
Fleet Feet,,615 2nd St,,Davis,CA,95616,US,530.758.6453,38.5432771428571,-121.740928571429,,,,
Davis Sports Shop,,204 E Street,,Davis,CA,95616,US,530.753.2572,38.543302244898,-121.741104693878,,,,
Big 5 Sporting Goods,,7833 Greenback Lane,,Citrus Heights,CA,95610,US,916.726.5566,38.6784627285859,-121.273739934998,,,,
Finish Line,,1445 W Southern Ave,,Mesa,AZ,85202,US,480.898.8806,33.3930132142857,-111.862707857143,,,,
"Ski Pro, Inc.",,1924 W. 8Th Street,,Mesa,AZ,85201,US,480.962.6910,33.4294324489796,-111.872309183673,,,,
Big 5 Sporting Goods,,1244 South Gilbert Road Suite 101,,Mesa,AZ,85204,US,480.507.0137,33.3927677777778,-111.78832,,,,
"Sport Venture, Inc.",,160 E Corporate Pl,,Chandler,AZ,85225,US,602.625.4198,33.340773877551,-111.837721326531,,,,
PGA TOUR Superstore,,2031 N. Arizona Ave,,Chandler,AZ,85225,US,480.214.4370,33.3357972727273,-111.841751515152,,,,
Under Armour Factory House,,1843 Village West Pkwy,Suite C109,Kansas City,KS,66111,US,913-788-8867,39.125523756498,-94.829203756498,,,,
"Blue Chip Athletic, Inc.",,330 E 14th Ave,,North Kansas City,MO,64116,US,816.471.2499,39.1341669387755,-94.5770173469388,,,,
Cimarron Lumber,,4000 Main St,,Kansas City,MO,64111-2326,US,816.756.3000,39.05417,-94.58623,,,,
Nill Bros. Sporting Goods,,2814 So. 44th St,,Kansas City,KS,66106,US,913.384.4242,39.0523867969666,-94.6802740376807,,,,
Dick's Sporting Goods,,5600 Antioch Rd.,,Merriam,KS,66202,US,913.432.3945,39.0273133333333,-94.6864683333333,,,,
Sports Central,,6014 NW 9 Hwy,,Kansas City,MO,64152,US,816.741.0049,39.205001,-94.6831522,,,,
"RDL, Inc",,5323 Roswell Rd,,Atlanta,GA,30342-1977,US,404.252.3216,33.9005609097242,-84.3800084843289,,,,
Four Seasons Sporting Goods,,5549 Old National Hwy,,College Park,GA,30349,US,404.768.7989,33.60421,-84.47196,,,,
Jonquil Sporting Goods,,1848 Spring Road,,Smyrna,GA,30080,US,770.432.1194,33.8836255125014,-84.4996264249336,,,,
Surf and Skate,,12417 Fair Oaks Blvd. #600,,Fair Oaks,CA,95628,US,916.721.5000,38.6777,-121.2622,,,,
Under Armour Factory House,,20 City Blvd. West,Suite 1500,Orange,CA,92868,US,714-941-1556,33.7848294,-117.8935314,,,,
Big 5 Sporting Goods,,"205 East 4th Street, B-115",,Long Beach,CA,90802,US,562.495.3034,33.7717395918367,-118.190496734694,,,,
Quartermaster Inc.,,750 Long Beach Blvd.,,Long Beach,CA,90813,US,562.436.6247,33.7761033333333,-118.189303333333,,,,
Galls/Long Beach Uniform,,2789 Long Beach Blvd.,,Long Beach,CA,90806,US,562.424.0220,33.8080868467703,-118.189462273871,,,,
Big 5 Sporting Goods,,2000 North Arizona Avenue,,Chandler,AZ,85224,US,602.821.9226,33.33512,-111.84175,,,,
Sportsman's Warehouse,,1750 S. Greenfield Rd.,,Mesa,AZ,85206,US,480.558.1111,33.3828016088633,-111.738773503889,,,,
Big 5 Sporting Goods,,965 South Val Vista Drive,,Gilbert,AZ,85296,US,480.892.2043,33.3325469158878,-111.75557,,,,
Team Sports Outfitters,,1721 E. Warner,,Tempe,AZ,85284,US,480.491.0459,33.3346404697987,-111.912288120805,,,,
Golf Galaxy,,2915 West Ray Road,Suite 1,Chandler,AZ,85224,US,480.385.1201,33.3202840711289,-111.891833083714,,,,
Under Armour Factory House,,1600 Premium Outlets Blvd,Suite 441,Nortfolk,VA,23502,US,410-454-6701,36.8780575,-76.1930517,,,,
Rally Point Tactical,,1236 Jensen Dr Ste 103,,Virginia Beach,VA,23451,US,757.963.0742,36.8351962545105,-76.0019258936728,,,,
Grand Slam USA,,2682 B Dean Dr.,,Virginia Beach,VA,23452,US,757.431.0505,36.8379592215642,-76.0627445715086,,,,
"Tactical Distributors, LLC",,476 Viking Dr Ste 101,,Virginia Beach,VA,23452,US,866.916.6905,36.8285721212265,-76.0693246713733,,,,
Golf Galaxy,,4000 Virginia Beach Boulevard,Suite 214B,Virginia Beach,VA,23452,US,757.305.9837,36.84143640625,-76.11276125,,,,
Premier Soccer,,3376 Princess Anne Rd Ste 207,,Virginia Beach,VA,23456,US,757.428.0970,36.7737633333333,-76.0884366666667,,,,
Legends,,4586 Virginia Beach Blvd,,Virginia Beach,VA,23462,US,757.499.5357,36.843648,-76.135296,,,,
MC Sports,,400 NW Barry Rd,,Kansas City,MO,64155,US,816.468.7477,39.24642,-94.5851,,,,
Dick's Sporting Goods,,8660 North Madison,,Kansas City,MO,64155,US,816.436.3524,39.2526220897906,-94.5931746658377,,,,
Dick's Sporting Goods,,17730 East 39th Street,,Independence,MO,64055,US,816.350.0089,39.0483695133985,-94.3705405112711,,,,
Liddle Sport Shop,,1006 Main St,,Blue Springs,MO,64015,US,816.229.3606,39.0940669622947,-94.355557253559,,,,
"Sitzmark, Inc.",,10500 Marty Street,,Overland Park,KS,66212,US,913.341.5330,38.93828,-94.67075,,,,
Uniform Sales Of America,,"120 Interstate West Parkway, Suite 400",,Lithia Springs,GA,30122,US,770.944.0596,33.7694416342925,-84.5995244968597,,,,
Nordstrom's,,4390 Ashford-Dunwoody Rd,,Atlanta,GA,30346-1504,US,770.394.1141,33.9220269265765,-84.3388736473897,,,,
Finish Line,,1105 Southlake Mall,,Morrow,GA,30260,US,678.422.3362,33.573195,-84.35402,,,,
REI,,1165 Perimeter Center West,Suite 200,Atlanta,GA,30338,US,770.901.9200,33.9305829070272,-84.3498103489351,,,,
Edwin Watts,,1581 Cobb Pkwy,,Marietta,GA,30060,US,770.955.9500,33.913331569492,-84.4970274982163,,,,
Kesslers,,4299 N.E. Expressway,,Doraville,GA,30340,US,770.723.9359,33.8969992,-84.2490292,,,,
Turners Outdoorsman,,2201 E. Willow St.,,Signal Hill,CA,90755,US,562.424.8628,33.80449,-118.16548,,,,
Big 5 Sporting Goods,,4780 East Pacific Coast Hwy.,,Long Beach,CA,90804,US,562.498.7994,33.78664,-118.13787,,,,
Big 5 Sporting Goods,,529 S. Gaffey,,San Pedro,CA,90731,US,310.519.1339,33.73916375,-118.29234125,,,,
D&D Sportswear,,4144 Woodruff Ave,,Lakewood,CA,90713,US,562.429.9633,33.8334485714286,-118.11654,,,,
Big 5 Sporting Goods,,5247 Lakewood Blvd.,,Lakewood,CA,90712,US,562.634.7779,33.8525764705882,-118.142820196078,,,,
Big 5 Sporting Goods,,"20700 Avalon Blvd., Suite #425",,Carson,CA,90746,US,310.538.5340,33.8438447103406,-118.263308112983,,,,
California Pro Sports,,1740 Palos Verdes Dr N,,Harbor City,CA,90710,US,310.548.6012,33.7791379400428,-118.308628850601,,,,
Tilly's,,7350 Carson Blvd,,Long Beach,CA,90808,US,(562) 496-0012,33.83132,-118.088243743017,,,,
East Valley Sports,,6306 E. Main Street,,Mesa,AZ,85205,US,480.832.8172,33.4159417647059,-111.695185882353,,,,
Finish Line,,6555 E. Southern Ave.,,Mesa,AZ,85206,US,480.854.6998,33.3938862857143,-111.689748857143,,,,
Extreme Outfitters,,4807-A Shore Drive,,Virgina Beach,VA,23455,US,757.363.0909,36.904369,-76.135901,,,,
Tidewater Distributors,,4940 Rutherford Rd,#300,Virginia Beach,VA,23455,US,757.318.6652,36.8931925116088,-76.1428965794295,,,,
GSS Gear,,1569 Diamond Springs Rd.,Suite D,Virginia Beach,VA,23455,US,757.227.6757,36.89788,-76.18048,,,,
Legends,,880 N. Military Why Ste 102,,Norfolk,VA,23502,US,757.461.4555,36.852931875,-76.209871875,,,,
Champs,,1401 Greenbriar Pkwy,,Chesapeake,VA,23320,US,757.424.6911,36.7764579411765,-76.2301847058824,,,,
Legends,,1401 Greenbrier Pwky,Greenbrier Mall,Chesapeake,VA,23320,US,757.366.5904,36.7764579411765,-76.2301847058824,,,,
Winning Edge Sport & Trophy,,109 C Gainsborough Sq.,,Chesapeake,VA,23320,US,757.548.5165,36.7414988449903,-76.2450063525534,,,,
Finish Line,,300 Monticello Avenue,,Norfolk,VA,23510,US,757.893.1601,36.84952,-76.28962,,,,
The Sports Zone,,725 W 21st St,,Norfolk,VA,23517,US,757.588.7700,36.87027,-76.29474,,,,
Nill Bros. Sporting Goods,,13240 West 87th Parkway,,Lenexa,KS,66215,US,913.438.9300,38.97102,-94.739263877551,,,,
Finish Line,,11633 West 95th Street,,Overland Park,KS,66214,US,913.859.0577,38.95648,-94.7183005333333,,,,
Cabela's,,10300 Cabela Drive,,Kansas City,KS,66111,US,913.328.0322,39.12043,-94.81591,,,,
Finish Line,,1837 Village West Parkway,,Kansas City,KS,66111,US,913.328.1044,39.1254426651847,-94.8291226651847,,,,
Nill Bros. Sporting Goods,,7204 West 119th St,,Overland Park,KS,66213,US,913.345.8655,38.9130036585366,-94.6705836585366,,,,
OMB Police Supply,,9736 Legler Road,,Lenexa,KS,66219,US,913.438.5507,38.9525947587759,-94.7724322645686,,,,
Linedrive,,14711 W. 112th Street,,Lenexa,KS,66215,US,913.663.4737,38.92549,-94.7577057197231,,,,
Umpire Express,,11443 Strang Line Rd,,Lenexa,KS,66215,US,913.948.8320,38.9212577801307,-94.759958260433,,,,
Golf Galaxy,,8510 West 135th Street,,Overland Park,KS,66223,US,913.905.0274,38.88385,-94.68426625,,,,
Best Buy Soccer,,4315 NE Expressway,,Atlanta,GA,30340,US,770.458.7815,33.8974302,-84.248507,,,,
"Smyrna Police Distributors, Inc.",,630 B Windy Hill Road,,Smyrna,GA,30080,US,770.434.1986,33.894481509434,-84.5346313207547,,,,
Tilly's,,2645 Pacific Coast Highway,,Torrance,CA,90505,US,(310) 534-1642,33.7913466666667,-118.332173333333,,,,
Soccer Central Inc.,,12130 E Carson Street,,Hawaiian Gardens,CA,90716,US,562.421.2292,33.83142,-118.07307,,,,
Big 5 Sporting Goods,,2745 Pacific Coast Highway,,Torrance,CA,90505,US,310.326.9528,33.7929061538462,-118.334304615385,,,,
Max 5 Sports,,20610 Manhattan Pl,Suite 104,Torrance,CA,90501,US,310.618.0265,33.8437048993289,-118.31138261745,,,,
Finish Line,,333 Los Cerritos Mall,,Cerritos,CA,90703,US,562.924.6777,33.8620421932373,-118.092583583055,,,,
Big 5 Sporting Goods,,11310 183rd Street,,Cerritos,CA,90701,US,562.860.5411,33.8656020215233,-118.092947740057,,,,
Major Surplus Survival,,435 W Alondra Blvd,,Gardena,CA,90248,US,310.324.8855,33.8855525015472,-118.282114965962,,,,
Los Angeles Police Revolver,,1 Academy Drive,,Los Angeles,CA,90086,US,323.221.5222,33.77906,-118.35919,,,,
Big 5 Sporting Goods,,14970 Golden West Street,,Westminster,CA,92683,US,714.897.0554,33.7446328571429,-118.006992857143,,,,
Big 5 Sporting Goods,,18308 Hawthorne Blvd.,,Torrance,CA,90504,US,310.371.8488,33.8645423165036,-118.35248,,,,
Turners Outdoorsman,,18305 Hawthorne Blvd.,,Torrance,CA,90504,US,310.214.8724,33.8645662311558,-118.3527,,,,
KAY,,619 HIGH ST.,,PORTSMOUTH,VA,23704,US,757-484-0015,36.8352411111111,-76.3046277777778,,,,
Champs,,4200 Portsmouth Blvd,,Chesapeake,VA,23321,US,757.465.8596,36.82321,-76.41491,,,,
Finish Line,,4200 Portsmouth Blvd,,Chesapeake,VA,23321,US,757.488.5558,36.82321,-76.41491,,,,
Dick's Sporting Goods,,"15280 West 119th St,.",,Olathe,KS,66062,US,913.436.3524,38.91284,-94.7639640595737,,,,
The Golf Stop,,12066 W 135th Street,,Overland Park,KS,66221,US,913.559.4659,38.8837656084656,-94.7253546031746,,,,
Bass Pro,,12051 S. Renner Blvd,,Olathe,KS,66062,US,913.254.5200,38.9087038913584,-94.77962,,,,
Nill Bros. Sporting Goods,,2071 East Santa Fe,,Olathe,KS,66062,US,913.764.1488,38.88368,-94.7810324590164,,,,
Big 5 Sporting Goods,,8990 Knott Avenue,,Buena Park,CA,90620,US,714.229.0135,33.8321138181818,-118.010902181818,,,,
Under Armour Factory House,,21209 Nebraska Crossing Dr,C100,Gretna,NE,68028,US,402-332-3896,41.0987053,-96.2501675,,,,
Alamar Uniforms,,3105 Leaveworth Street,,Omaha,NE,68145,US,402.341.8790,41.25239,-95.95901,,,,
Don's Uniforms DBA Pioneer Uniforms,,2517 Leaveworth Street,,Omaha,NE,68105,US,402.341.5607,41.25242,-95.94868,,,,
Canfield's Sporting Goods,,8457 W Center Road,,Omaha,NE,68124,US,800.333.2263,41.2342184782609,-96.045697826087,,,,
Soccer Zone,,4123 South 84th Street,,Omaha,NE,68127,US,402.331.9550,41.2194355102041,-96.04312,,,,
Nebraska Sporting Goods,,4304 South 84th Street,,Omaha,NE,68127,US,402.331.1150,41.217522244898,-96.04311,,,,
