store_name,store_number,address,address2,city,state,zip_code,country,phone_number,latitude,longitude,store_hours,store_type,other_fields,coming_soon
Baskin Robbins,345079,5800 Westover Ave,Elmendorf Air Force Base,Anchorage,AK,99506,US,907-753-4486,61.245084,-149.819461,,,,
Baskin Robbins,362220,5678 Debarr Rd,,Anchorage,AK,99504,US,907-337-6441,61.209656,-149.77492,,,,
Baskin Robbins,336654,3030 Denali St,Ste 7,Anchorage,AK,99503,US,907-276-1955,61.192829,-149.876884,"Mon 11:00-22:00, Tue 11:00-22:00, Wed 11:00-22:00, Thu 11:00-22:00, Fri 11:00-22:00, Sat 11:00-22:00, Sun 11:00-22:00",,,
Baskin Robbins,353708,135 W Dimond Blvd,,Anchorage,AK,99515,US,907-349-3642,61.1458,-149.881595,"Mon 11:00-22:00, Tue 11:00-22:00, Wed 11:00-22:00, Thu 11:00-22:00, Fri 11:00-22:00, Sat 11:00-22:00, Sun 11:00-22:00",,,
Baskin Robbins,355237,800 E Dimond Blvd,Suite 104,Anchorage,AK,99515,US,907-336-3331,61.144503,-149.866722,"Mon 11:00-22:00, Tue 11:00-22:00, Wed 11:00-22:00, Thu 11:00-22:00, Fri 11:00-22:00, Sat 11:00-22:00, Sun 11:00-22:00",,,
Baskin Robbins,342337,6336 Bay St,Horse Shoe Bay,West Vancouver,BC,V7W2G9,CA,604-913-0004,49.374246,-123.272913,,,,
Baskin Robbins,335239,1327 Marine Dr,Norgate Place,North Vancouver,BC,V7P3E5,CA,604-987-7433,49.323921,-123.113159,"Mon 11:00-22:00, Tue 11:00-22:00, Wed 11:00-22:00, Thu 11:00-22:00, Fri 11:00-22:00, Sat 11:00-22:00, Sun 11:00-22:00",,,
Baskin Robbins,343894,6351 - 152nd Street,Unit 101,Surrey,BC,V3S3K8,CA,604-597-6498,49.103488,-122.80113,"Mon 11:00-22:00, Tue 11:00-22:00, Wed 11:00-22:00, Thu 11:00-22:00, Fri 11:00-22:00, Sat 11:00-22:00, Sun 11:00-22:00",,,
Baskin Robbins,335241,19585 Fraser Hwy,,Surrey,BC,V3S6K7,CA,604-530-7655,49.114107,-122.680135,"Mon 11:00-22:00, Tue 11:00-22:00, Wed 11:00-22:00, Thu 11:00-22:00, Fri 11:00-22:00, Sat 11:00-22:00, Sun 11:00-22:00",,,
Baskin Robbins,335318,328 Esplanade Ave,,Harrison Hot Springs,BC,V0M1K0,CA,604-796-5563,49.303227,-121.781756,"Mon 11:00-22:00, Tue 11:00-22:00, Wed 11:00-22:00, Thu 11:00-22:00, Fri 11:00-22:00, Sat 11:00-22:00, Sun 11:00-22:00",,,
Baskin Robbins,353604,2323 E Section St,Suite 100,Mount Vernon,WA,98274,US,360-419-9600,48.414133,-122.31256,"Mon 10:00-23:00, Tue 10:00-23:00, Wed 10:00-23:00, Thu 10:00-23:00, Fri 10:00-23:00, Sat 10:00-23:0024HOURS, Sun 10:00-23:0024HOURS",,,
Baskin Robbins,361862,32760 State Rte 2o,,Oak Harbor,WA,98277,US,360-675-3103,48.304188,-122.645654,"Mon 11:00-22:00, Tue 11:00-22:00, Wed 11:00-22:00, Thu 11:00-22:00, Fri 11:00-22:00, Sat 11:00-22:00, Sun 11:00-22:00",,,
Baskin Robbins,360766,1611 E. Front St,,Port Angeles,WA,98362,US,360-452-7777,48.10828,-123.40376,"Mon 11:00-22:00, Tue 11:00-22:00, Wed 11:00-22:00, Thu 11:00-22:00, Fri 11:00-22:00, Sat 11:00-22:00, Sun 11:00-22:00",,,
Baskin Robbins,330862,3411 169th Pl NE #1,,Arlington,WA,98223,US,360-659-1661,48.150237,-122.184857,"Mon 11:00-22:00, Tue 11:00-22:00, Wed 11:00-22:00, Thu 11:00-22:00, Fri 11:00-22:00, Sat 11:00-22:00, Sun 11:00-22:00",,,
Baskin Robbins,361861,9501 State Ave,Ste B,Marysville,WA,98270,US,360-659-0777,48.081883,-122.173601,"Mon 11:00-22:00, Tue 11:00-22:00, Wed 11:00-22:00, Thu 11:00-22:00, Fri 11:00-22:00, Sat 11:00-22:00, Sun 11:00-22:00",,,
Baskin Robbins,360708,4019 Colby Ave,,Everett,WA,98201,US,425-259-6336,47.964039,-122.207571,"Mon 11:00-22:00, Tue 11:00-22:00, Wed 11:00-22:00, Thu 11:00-22:00, Fri 11:00-22:00, Sat 11:00-22:00, Sun 11:00-22:00",,,
Baskin Robbins,360705,5802 Evergreen Way,,Everett,WA,98203,US,425-353-3444,47.945236,-122.216359,"Mon 11:00-22:00, Tue 11:00-22:00, Wed 11:00-22:00, Thu 11:00-22:00, Fri 11:00-22:00, Sat 11:00-22:00, Sun 11:00-22:00",,,
Baskin Robbins,361878,1402 SE Everett Mall Way,Space 9F,Everett,WA,98208,US,425-355-3100,47.91059,-122.21339,"Mon 11:00-22:00, Tue 11:00-22:00, Wed 11:00-22:00, Thu 11:00-22:00, Fri 11:00-22:00, Sat 11:00-22:00, Sun 11:00-22:00",,,
Baskin Robbins,362005,530 Sw Everett Mall Way,Suite 102,Everett,WA,98204,US,425-348-3100,47.903611,-122.242425,"Mon 11:00-22:00, Tue 11:00-22:00, Wed 11:00-22:00, Thu 11:00-22:00, Fri 11:00-22:00, Sat 11:00-22:00, Sun 11:00-22:00",,,
Baskin Robbins,361874,1421 Avenue D,,Snohomish,WA,98290,US,360-568-5366,47.929178,-122.0993,"Mon 11:00-22:00, Tue 11:00-22:00, Wed 11:00-22:00, Thu 11:00-22:00, Fri 11:00-22:00, Sat 11:00-22:00, Sun 11:00-22:00",,,
Baskin Robbins,362009,11014 19th Ave SE,Ste #9,Everett,WA,98208,US,425-316-3131,47.898182,-122.208149,"Mon 11:00-22:00, Tue 11:00-22:00, Wed 11:00-22:00, Thu 11:00-22:00, Fri 11:00-22:00, Sat 11:00-22:00, Sun 11:00-22:00",,,
Baskin Robbins,350586,13116 39th Ave SE,,Everett,WA,98208,US,425-385-8511,47.878271,-122.180103,"Mon 11:00-22:00, Tue 11:00-22:00, Wed 11:00-22:00, Thu 11:00-22:00, Fri 11:00-22:00, Sat 11:00-22:00, Sun 11:00-22:00",,,
Baskin Robbins,361885,15704 Mill Creek Blvd #20,,Mill Creek,WA,98012,US,425-385-3131,47.855784,-122.218763,"Mon 11:00-22:00, Tue 11:00-22:00, Wed 11:00-22:00, Thu 11:00-22:00, Fri 11:00-22:00, Sat 11:00-22:00, Sun 11:00-22:00",,,
Baskin Robbins,337670,4615 196th St SW STE #142,,Lynnwood,WA,98036,US,425-776-8823,47.821952,-122.295507,"Mon 11:00-22:00, Tue 11:00-22:00, Wed 11:00-22:00, Thu 11:00-22:00, Fri 11:00-22:00, Sat 11:00-22:00, Sun 11:00-22:00",,,
Baskin Robbins,361902,18817 State Rd 2,,Monroe,WA,98272,US,360-805-0639,47.862832,-121.978626,"Mon 11:00-22:00, Tue 11:00-22:00, Wed 11:00-22:00, Thu 11:00-22:00, Fri 11:00-22:00, Sat 11:00-22:00, Sun 11:00-22:00",,,
Baskin Robbins,332178,22833 Bothell Everett Hwy,Ste 112,Bothell,WA,98021,US,425-489-3981,47.790723,-122.216817,"Mon 11:00-22:00, Tue 11:00-22:00, Wed 11:00-22:00, Thu 11:00-22:00, Fri 11:00-22:00, Sat 11:00-22:00, Sun 11:00-22:00",,,
Baskin Robbins,360711,926 N 185th,,Seattle,WA,98133,US,206-542-5054,47.763341,-122.347562,"Mon 11:00-22:00, Tue 11:00-22:00, Wed 11:00-22:00, Thu 11:00-22:00, Fri 11:00-22:00, Sat 11:00-22:00, Sun 11:00-22:00",,,
Baskin Robbins,360742,10007 Main St,,Bothell,WA,98011,US,425-486-3131,47.759887,-122.207277,"Mon 11:00-22:00, Tue 11:00-22:00, Wed 11:00-22:00, Thu 11:00-22:00, Fri 11:00-22:00, Sat 11:00-22:00, Sun 11:00-22:00",,,
Baskin Robbins,361858,10315 Silverdale Way Nw,,Silverdale,WA,98383,US,360-698-3152,47.657341,-122.690569,"Mon 10:00-21:00, Tue 10:00-21:00, Wed 10:00-21:00, Thu 10:00-21:00, Fri 10:00-21:00, Sat 10:00-21:00, Sun 11:00-18:00",,,
Baskin Robbins,361901,14027 NE Woodinville Duvall Rd,Woodinville Plaza,Woodinville,WA,98072,US,425-487-1558,47.754263,-122.152189,"Mon 11:00-21:00, Tue 11:00-21:00, Wed 11:00-21:00, Thu 11:00-21:00, Fri 11:00-21:00, Sat 11:00-21:00, Sun 11:00-21:00",,,
Baskin Robbins,360703,826 NE Northgate Way,,Seattle,WA,98125,US,206-364-4320,47.709312,-122.31893,"Mon 11:00-22:00, Tue 11:00-22:00, Wed 11:00-22:00, Thu 11:00-22:00, Fri 11:00-22:00, Sat 11:00-22:00, Sun 11:00-22:00",,,
Baskin Robbins,361899,401 Northgate Mall,,Seattle,WA,98125,US,206-364-9344,47.708817,-122.319881,"Mon 11:00-22:00, Tue 11:00-22:00, Wed 11:00-22:00, Thu 11:00-22:00, Fri 11:00-22:00, Sat 11:00-22:00, Sun 11:00-22:00",,,
Baskin Robbins,360750,12673 NE 85th St,,Kirkland,WA,98033,US,425-827-3132,47.679163,-122.171297,"Mon 11:00-22:00, Tue 11:00-22:00, Wed 11:00-22:00, Thu 11:00-22:00, Fri 11:00-22:00, Sat 11:00-22:00, Sun 11:00-22:00",,,
Baskin Robbins,360727,660 Elliott Ave W,,Seattle,WA,98119,US,206-284-3372,47.62622,-122.367586,"Mon 11:00-22:00, Tue 11:00-22:00, Wed 11:00-22:00, Thu 11:00-22:00, Fri 11:00-22:00, Sat 11:00-22:00, Sun 11:00-22:00",,,
Baskin Robbins,362011,17181 Redmond Way,Suite 900,Redmond,WA,98052,US,425-883-0031,47.670659,-122.111587,"Mon 11:00-22:00, Tue 11:00-22:00, Wed 11:00-22:00, Thu 11:00-22:00, Fri 11:00-22:00, Sat 11:00-22:00, Sun 11:00-22:00",,,
Baskin Robbins,361844,2255 140th Ave Ne,,Bellevue,WA,98005,US,425-643-3136,47.630409,-122.154188,"Mon 11:00-22:00, Tue 11:00-22:00, Wed 11:00-22:00, Thu 11:00-22:00, Fri 11:00-22:00, Sat 11:00-22:00, Sun 11:00-22:00",,,
Baskin Robbins,360748,4111 SW Admiral Way,,Seattle,WA,98116,US,206-932-7771,47.581138,-122.384152,"Mon 11:00-22:00, Tue 11:00-22:00, Wed 11:00-22:00, Thu 11:00-22:00, Fri 11:00-22:00, Sat 11:00-22:00, Sun 11:00-22:00",,,
Baskin Robbins,360699,1400 156th Ave Ne,,Bellevue,WA,98007,US,425-747-8500,47.622604,-122.132104,"Mon 11:00-22:00, Tue 11:00-22:00, Wed 11:00-22:00, Thu 11:00-22:00, Fri 11:00-22:00, Sat 11:00-22:00, Sun 11:00-22:00",,,
Baskin Robbins,361840,2001 Rainier Ave S,,Seattle,WA,98144,US,206-324-0031,47.585347,-122.303948,"Mon 11:00-22:00, Tue 11:00-22:00, Wed 11:00-22:00, Thu 11:00-22:00, Fri 11:00-22:00, Sat 11:00-22:00, Sun 11:00-22:00",,,
Baskin Robbins,361866,2900 78th Ave Se,,Mercer Island,WA,98040,US,206-236-2781,47.58441,-122.233482,"Mon 11:00-22:00, Tue 11:00-22:00, Wed 11:00-22:00, Thu 11:00-22:00, Fri 11:00-22:00, Sat 11:00-22:00, Sun 11:00-22:00",,,
Baskin Robbins,360730,15100 Se 38th St,Suite 102,Bellevue,WA,98006,US,425-746-1331,47.576644,-122.138807,"Mon 11:00-22:00, Tue 11:00-22:00, Wed 11:00-22:00, Thu 11:00-22:00, Fri 11:00-22:00, Sat 11:00-22:00, Sun 11:00-22:00",,,
Baskin Robbins,361852,1590 Nw Gilman Blvd,Meadows Shopping Ctr Ste 8,Issaquah,WA,98027,US,425-392-8524,47.54599,-122.06115,"Mon 11:00-22:00, Tue 11:00-22:00, Wed 11:00-22:00, Thu 11:00-22:00, Fri 11:00-22:00, Sat 11:00-22:00, Sun 11:00-22:00",,,
Baskin Robbins,360762,993 Southcenter Mall,,Tukwila,WA,98188,US,206-248-2805,47.465771,-122.312818,"Mon 11:00-22:00, Tue 11:00-22:00, Wed 11:00-22:00, Thu 11:00-22:00, Fri 11:00-22:00, Sat 11:00-22:00, Sun 11:00-22:00",,,
Baskin Robbins,360740,520 Rainer Ave S,,Renton,WA,98057,US,425-226-3113,47.475815,-122.214663,"Mon 11:00-22:00, Tue 11:00-22:00, Wed 11:00-22:00, Thu 11:00-22:00, Fri 11:00-22:00, Sat 11:00-22:00, Sun 11:00-22:00",,,
Baskin Robbins,345157,17819 108th Ave SE,,Renton,WA,98055,US,425-793-3544,47.442779,-122.197044,"Mon 11:00-22:00, Tue 11:00-22:00, Wed 11:00-22:00, Thu 11:00-22:00, Fri 11:00-22:00, Sat 11:00-22:00, Sun 11:00-22:00",,,
Baskin Robbins,361880,17330 140th Ave SE,Ste F-1,Renton,WA,98058,US,425-255-5688,47.446093,-122.152442,"Mon 11:00-22:00, Tue 11:00-22:00, Wed 11:00-22:00, Thu 11:00-22:00, Fri 11:00-22:00, Sat 11:00-22:00, Sun 11:00-22:00",,,
Baskin Robbins,360758,23627 Pacific Hwy S,,Des Moines,WA,98198,US,206-824-2470,47.394682,-122.294989,"Mon 11:00-22:00, Tue 11:00-22:00, Wed 11:00-22:00, Thu 11:00-22:00, Fri 11:00-22:00, Sat 11:00-22:00, Sun 11:00-22:00",,,
Baskin Robbins,332509,458 SW Mt Si Blvd,,North Bend,WA,98045,US,425-888-4422,47.488175,-121.791866,"Mon 11:00-22:00, Tue 11:00-22:00, Wed 11:00-22:00, Thu 11:00-22:00, Fri 11:00-22:00, Sat 11:00-22:00, Sun 11:00-22:00",,,
Baskin Robbins,340049,25620 102nd Place SE,,Kent,WA,98030,US,253-859-9510,47.372448,-122.204496,"Mon 11:00-22:00, Tue 11:00-22:00, Wed 11:00-22:00, Thu 11:00-22:00, Fri 11:00-22:00, Sat 11:00-22:00, Sun 11:00-22:00",,,
Baskin Robbins,332170,16729 SE 272nd St,,Kent,WA,98042,US,253-638-9931,47.357026,-122.118371,"Mon 11:00-22:00, Tue 11:00-22:00, Wed 11:00-22:00, Thu 11:00-22:00, Fri 11:00-22:00, Sat 11:00-22:00, Sun 11:00-22:00",,,
Baskin Robbins,360747,31434 Pacific Hwy S,,Federal Way,WA,98003,US,253-839-2550,47.320352,-122.312393,"Mon 11:00-22:00, Tue 11:00-22:00, Wed 11:00-22:00, Thu 11:00-22:00, Fri 11:00-22:00, Sat 11:00-22:00, Sun 11:00-22:00",,,
Baskin Robbins,361893,1946 S. Seatac Mall  B-42,Seatac Mall,Federal Way,WA,98003,US,253-946-3375,47.313669,-122.304322,"Mon 11:00-22:00, Tue 11:00-22:00, Wed 11:00-22:00, Thu 11:00-22:00, Fri 11:00-22:00, Sat 11:00-22:00, Sun 11:00-22:00",,,
Baskin Robbins,361875,2138 SW 336th St,,Federal Way,WA,98023,US,253-661-6429,47.301176,-122.360693,"Mon 11:00-22:00, Tue 11:00-22:00, Wed 11:00-22:00, Thu 11:00-22:00, Fri 11:00-22:00, Sat 11:00-22:00, Sun 11:00-22:00",,,
Baskin Robbins,361898,1702 Auburn Way N,,Auburn,WA,98002,US,253-939-2996,47.323171,-122.220539,"Mon 11:00-22:00, Tue 11:00-22:00, Wed 11:00-22:00, Thu 11:00-22:00, Fri 11:00-22:00, Sat 11:00-22:00, Sun 11:00-22:00",,,
Baskin Robbins,360706,6214 6th Ave,,Tacoma,WA,98406,US,253-244-5501,47.255399,-122.520149,"Mon 11:00-22:00, Tue 11:00-22:00, Wed 11:00-22:00, Thu 11:00-22:00, Fri 11:00-22:00, Sat 11:00-22:00, Sun 11:00-22:00",,,
Baskin Robbins,360744,918 Auburn Way S,,Auburn,WA,98002,US,253-833-0303,47.300164,-122.220652,"Mon 11:00-22:00, Tue 11:00-22:00, Wed 11:00-22:00, Thu 11:00-22:00, Fri 11:00-22:00, Sat 11:00-22:00, Sun 11:00-22:00",,,
Baskin Robbins,361845,622 S Sprague Ave,,Tacoma,WA,98405,US,253-272-3100,47.254903,-122.463463,"Mon 11:00-22:00, Tue 11:00-22:00, Wed 11:00-22:00, Thu 11:00-22:00, Fri 11:00-22:00, Sat 11:00-22:00, Sun 11:00-22:00",,,
Baskin Robbins,361836,4326 Bridgeport Way W,,Tacoma,WA,98466,US,253-565-6078,47.217304,-122.537042,"Mon 11:00-22:00, Tue 11:00-22:00, Wed 11:00-22:00, Thu 11:00-22:00, Fri 11:00-22:00, Sat 11:00-22:00, Sun 11:00-22:00",,,
Baskin Robbins,361834,4502 S. Steele St,Suite 321,Tacoma,WA,98409,US,253-472-8037,47.217758,-122.467359,"Mon 11:00-22:00, Tue 11:00-22:00, Wed 11:00-22:00, Thu 11:00-22:00, Fri 11:00-22:00, Sat 11:00-22:00, Sun 11:00-22:00",,,
Baskin Robbins,361825,1314 72nd St E # 4305,Tacoma Vista Shopping Center,Tacoma,WA,98404,US,253-539-5711,47.191659,-122.411847,"Mon 11:00-22:00, Tue 11:00-22:00, Wed 11:00-22:00, Thu 11:00-22:00, Fri 11:00-22:00, Sat 11:00-22:00, Sun 11:00-22:00",,,
Baskin Robbins,360700,6125 100th St Sw,,Tacoma,WA,98499,US,253-584-1180,47.166637,-122.518037,"Mon 11:00-22:00, Tue 11:00-22:00, Wed 11:00-22:00, Thu 11:00-22:00, Fri 11:00-22:00, Sat 11:00-22:00, Sun 11:00-22:00",,,
Baskin Robbins,340779,1201 Valley Ave,Suite 109,Sumner,WA,98390,US,253-891-3103,47.204143,-122.229372,"Mon 11:00-22:00, Tue 11:00-22:00, Wed 11:00-22:00, Thu 11:00-22:00, Fri 11:00-22:00, Sat 11:00-22:00, Sun 11:00-22:00",,,
Baskin Robbins,360746,1422 E Main Ave,,Puyallup,WA,98372,US,253-848-6713,47.191837,-122.273183,"Mon 11:00-22:00, Tue 11:00-22:00, Wed 11:00-22:00, Thu 11:00-22:00, Fri 11:00-22:00, Sat 11:00-22:00, Sun 11:00-22:00",,,
Baskin Robbins,342209,7489 North Academy Blvd,,Colorado Springs,CO,80920,US,719-592-0077,38.936279,-104.797901,"Mon 11:00-22:00, Tue 11:00-22:00, Wed 11:00-22:00, Thu 11:00-22:00, Fri 11:00-22:00, Sat 11:00-22:00, Sun 11:00-22:00",,,
Baskin Robbins,349188,1710 Briargate Blvd.,Space #6508,Colorado Springs,CO,80920,US,719-265-8989,38.945491,-104.79583,"Mon 10:00-21:00, Tue 10:00-21:00, Wed 10:00-21:00, Thu 10:00-21:00, Fri 10:00-21:00, Sat 10:00-21:00, Sun 11:00-18:00",,,
Baskin Robbins,361420,4845 N. Academy Blvd,,Colorado Springs,CO,80918,US,719-594-4442,38.901891,-104.768928,,,,
Baskin Robbins,331200,1690 E Cheyenne Mountain Blvd,,Colorado Springs,CO,80906,US,719-576-3331,38.794663,-104.802444,"Mon 11:00-22:00, Tue 11:00-22:00, Wed 11:00-22:00, Thu 11:00-22:00, Fri 11:00-22:00, Sat 11:00-22:00, Sun 11:00-22:00",,,
Baskin Robbins,360159,1534 N Circle Dr,,Colorado Springs,CO,80909,US,719-630-3131,38.854641,-104.775955,"Mon 11:00-22:00, Tue 11:00-22:00, Wed 11:00-22:00, Thu 11:00-22:00, Fri 11:00-22:00, Sat 11:00-22:00, Sun 11:00-22:00",,,
Baskin Robbins,360163,3865 E. Pikes Peak Ave,,Colorado Springs,CO,80909,US,719-597-7072,38.831863,-104.755843,"Mon 11:00-22:00, Tue 11:00-22:00, Wed 11:00-22:00, Thu 11:00-22:00, Fri 11:00-22:00, Sat 11:00-22:00, Sun 11:00-22:00",,,
Baskin Robbins,340428,6048 Stetson Hill Blvd,,Colorado Springs,CO,80922,US,719-572-0077,38.910965,-104.719721,"Mon 11:00-22:00, Tue 11:00-22:00, Wed 11:00-22:00, Thu 11:00-22:00, Fri 11:00-22:00, Sat 11:00-22:00, Sun 11:00-22:00",,,
Baskin Robbins,360167,28206 Highway 74,,Evergreen,CO,80439,US,303-674-2537,39.632897,-105.318886,"Mon 11:00-22:00, Tue 11:00-22:00, Wed 11:00-22:00, Thu 11:00-22:00, Fri 11:00-22:00, Sat 11:00-22:00, Sun 11:00-22:00",,,
Baskin Robbins,348692,4833 Front St,Ste C,Castle Rock,CO,80104,US,303-663-1960,39.409885,-104.863931,"Mon 11:00-22:00, Tue 11:00-22:00, Wed 11:00-22:00, Thu 11:00-22:00, Fri 11:00-22:00, Sat 11:00-22:00, Sun 11:00-22:00",,,
Baskin Robbins,361424,6764 W. Coal Mine Ave,,Littleton,CO,80123,US,303-979-7613,39.595263,-105.072274,,,,
Baskin Robbins,345235,3626 Highlands Ranch Pkwy,Suite C120,Highlands Ranch,CO,80126,US,303-346-5955,39.543514,-104.946179,"Mon 11:00-22:00, Tue 11:00-22:00, Wed 11:00-22:00, Thu 11:00-22:00, Fri 11:00-22:00, Sat 11:00-22:00, Sun 11:00-22:00",,,
Baskin Robbins,346534,91 W. Mineral Ave,Suite 140,Littleton,CO,80120,US,303-797-1121,39.573621,-104.990286,"Mon 11:00-22:00, Tue 11:00-22:00, Wed 11:00-22:00, Thu 11:00-22:00, Fri 11:00-22:00, Sat 11:00-22:00, Sun 11:00-22:00",,,
Baskin Robbins,362045,10920 S. Parker Rd,Unit B2,Parker,CO,80134,US,303-841-1171,39.520306,-104.765183,,,,
Baskin Robbins,360184,3912 Wadsworth Blvd,,Wheat Ridge,CO,80033,US,303-422-4222,39.771789,-105.081288,"Mon 11:00-22:00, Tue 11:00-22:00, Wed 11:00-22:00, Thu 11:00-22:00, Fri 11:00-22:00, Sat 11:00-22:00, Sun 11:00-22:00",,,
Baskin Robbins,332338,1155 S. Havana St,Unit 63,Aurora,CO,80012,US,303-368-9000,39.695685,-104.866077,"Mon 11:00-22:00, Tue 11:00-22:00, Wed 11:00-22:00, Thu 11:00-22:00, Fri 11:00-22:00, Sat 11:00-22:00, Sun 11:00-22:00",,,
Baskin Robbins,361430,16861 E. Iliff Ave,,Aurora,CO,80013,US,303-755-2334,39.673737,-104.791515,,,,
Baskin Robbins,353436,14200 E Alameda Ave,Unit 2071A,Aurora,CO,80012,US,720-216-1136,39.70712,-104.822676,"Mon 10:00-21:00, Tue 10:00-21:00, Wed 10:00-21:00, Thu 10:00-21:00, Fri 10:00-21:00, Sat 10:00-21:00, Sun 11:00-18:00",,,
Baskin Robbins,361432,8424 Federal Blvd,Summit Square,Westminster,CO,80031,US,303-426-6191,39.841752,-105.024892,"Mon 11:00-22:00, Tue 11:00-22:00, Wed 11:00-22:00, Thu 11:00-22:00, Fri 11:00-22:00, Sat 11:00-22:00, Sun 11:00-22:00",,,
Baskin Robbins,361429,3944 E 120th Ave,,Denver,CO,80233,US,720-872-8373,39.914217,-104.941119,"Mon 11:00-22:00, Tue 11:00-22:00, Wed 11:00-22:00, Thu 11:00-22:00, Fri 11:00-22:00, Sat 11:00-22:00, Sun 11:00-22:00",,,
Baskin Robbins,353643,2704 S Prairie Ave,,Pueblo,CO,81005,US,719-564-7474,38.221517,-104.643201,"Mon 11:00-22:00, Tue 11:00-22:00, Wed 11:00-22:00, Thu 11:00-22:00, Fri 11:00-22:00, Sat 11:00-22:00, Sun 11:00-22:00",,,
Baskin Robbins,348309,815 E 17th Ave,Suite C1,Longmont,CO,80504,US,303-774-0310,40.187466,-105.074209,"Mon 11:00-22:00, Tue 11:00-22:00, Wed 11:00-22:00, Thu 11:00-22:00, Fri 11:00-22:00, Sat 11:00-22:00, Sun 11:00-22:00",,,
Baskin Robbins,351842,281 E 29th St,Suite C,Loveland,CO,80538,US,970-667-1208,40.42334,-105.073765,"Mon 11:00-22:00, Tue 11:00-22:00, Wed 11:00-22:00, Thu 11:00-22:00, Fri 11:00-23:00, Sat 11:00-23:00, Sun 11:00-22:00",,,
Baskin Robbins,356597,2028 35th Ave,Suite B1,Greeley,CO,80634,US,970-330-4242,40.405894,-104.732665,"Mon 11:00-22:00, Tue 11:00-22:00, Wed 11:00-22:00, Thu 11:00-22:00, Fri 11:00-22:00, Sat 11:00-22:00, Sun 11:00-22:00",,,
Baskin Robbins,361097,723 E 16th St,,Cheyenne,WY,82001,US,307-635-2588,41.135532,-104.806947,"Mon 11:00-22:00, Tue 11:00-22:00, Wed 11:00-22:00, Thu 11:00-22:00, Fri 11:00-22:00, Sat 11:00-22:00, Sun 11:00-22:00",,,
Baskin Robbins,360148,32 Town Plaza,,Durango,CO,81301,US,970-247-1231,37.274632,-107.882843,"Mon 11:00-22:00, Tue 11:00-22:00, Wed 11:00-22:00, Thu 11:00-22:00, Fri 11:00-22:00, Sat 11:00-22:00, Sun 11:00-22:00",,,
Baskin Robbins,361416,717 Paseo Del Pueblo Sur,,Taos,NM,87571,US,575-758-0031,36.406739,-105.575954,,,,
Baskin Robbins,348618,1111 N Riverside Dr,,Espanola,NM,87532,US,505-747-0184,36.001276,-106.062806,"Mon 11:00-22:00, Tue 11:00-22:00, Wed 11:00-22:00, Thu 11:00-22:00, Fri 11:00-22:00, Sat 11:00-22:00, Sun 11:00-22:00",,,
Baskin Robbins,360157,3030 E Main St,San Juan Village Ctr/Ste Q,Farmington,NM,87402,US,505-327-3140,36.744409,-108.166186,"Mon 11:00-22:00, Tue 11:00-22:00, Wed 11:00-22:00, Thu 11:00-22:00, Fri 11:00-22:00, Sat 11:00-22:00, Sun 11:00-22:00",,,
Baskin Robbins,355721,556 N Guadalupe St,Suite B1,Santa Fe,NM,87501,US,505-820-3131,35.693546,-105.95074,"Mon 11:00-22:00, Tue 11:00-22:00, Wed 11:00-22:00, Thu 11:00-22:00, Fri 11:00-22:00, Sat 11:00-22:00, Sun 11:00-22:00",,,
Baskin Robbins,361409,1841 Cerrillos Rd,,Santa Fe,NM,87505,US,505-982-9031,35.665004,-105.972397,"Mon 11:00-22:00, Tue 11:00-22:00, Wed 11:00-22:00, Thu 11:00-22:00, Fri 11:00-22:00, Sat 11:00-22:00, Sun 11:00-22:00",,,
Baskin Robbins,334770,4056 Cerrillos Rd,Ste C-1,Santa Fe,NM,87505,US,505-474-3131,35.661991,-105.978347,"Mon 11:00-22:00, Tue 11:00-22:00, Wed 11:00-22:00, Thu 11:00-22:00, Fri 11:00-22:00, Sat 11:00-22:00, Sun 11:00-22:00",,,
Baskin Robbins,362401,1521 E. Fulton St,,Garden City,KS,67846,US,620-275-9794,37.964137,-100.858319,"Mon 04:00-21:30, Tue 04:00-21:30, Wed 04:00-21:30, Thu 04:00-21:30, Fri 04:00-21:30, Sat 04:00-21:30, Sun 04:00-21:30",,,
Baskin Robbins,353785,2345 Southern Blvd SE,,Rio Rancho,NM,87124,US,505-994-3057,35.24217,-106.688762,"Mon 11:00-22:00, Tue 11:00-22:00, Wed 11:00-22:00, Thu 11:00-22:00, Fri 11:00-22:00, Sat 11:00-22:00, Sun 11:00-22:00",,,
Baskin Robbins,345326,3410 State Highway 528 NW,Unit 110,Albuquerque,NM,87114,US,505-899-2860,35.205391,-106.65045,"Mon 11:00-22:00, Tue 11:00-22:00, Wed 11:00-22:00, Thu 11:00-22:00, Fri 11:00-22:00, Sat 11:00-22:00, Sun 11:00-22:00",,,
Baskin Robbins,360156,11052 Montgomery Blvd NE,,Albuquerque,NM,87111,US,505-294-5756,35.130614,-106.517187,,,,
Baskin Robbins,304248,5502 4th St NW,,Albuquerque,NM,87107,US,505-345-3723,35.138267,-106.641234,"Mon 24HOURS, Tue 24HOURS, Wed 24HOURS, Thu 24HOURS, Fri 24HOURS, Sat 24HOURS, Sun 24HOURS",,,
Baskin Robbins,361411,3515 San Mateo Blvd NE,,Albuquerque,NM,87110,US,505-884-7083,35.122671,-106.586541,"Mon 11:00-22:00, Tue 11:00-22:00, Wed 11:00-22:00, Thu 11:00-22:00, Fri 11:00-22:00, Sat 11:00-22:00, Sun 11:00-22:00",,,
Baskin Robbins,362057,8400 Menaul Blvd Ne Ste E,,Albuquerque,NM,87112,US,505-294-3101,35.109055,-106.550936,"Mon 11:00-22:00, Tue 11:00-22:00, Wed 11:00-22:00, Thu 11:00-22:00, Fri 11:00-22:00, Sat 11:00-22:00, Sun 11:00-22:00",,,
Baskin Robbins,337494,5241 Ouray Rd Nw #C,,Albuquerque,NM,87120,US,505-831-3831,35.112553,-106.701387,"Mon 11:00-22:00, Tue 11:00-22:00, Wed 11:00-22:00, Thu 11:00-22:00, Fri 11:00-22:00, Sat 11:00-22:00, Sun 11:00-22:00",,,
Baskin Robbins,360152,2201 Central Ave NW,,Albuquerque,NM,87104,US,505-843-6390,35.095444,-106.673374,"Mon 11:00-22:00, Tue 11:00-22:00, Wed 11:00-22:00, Thu 11:00-22:00, Fri 11:00-22:00, Sat 11:00-22:00, Sun 11:00-22:00",,,
Baskin Robbins,345169,300 San Pedro NE,Tingley Coliseum,Albuquerque,NM,87108,US,505-480-7581,35.076953,-106.577429,,,,
Baskin Robbins,304676,1902 Central Ave SE,,Albuquerque,NM,87106,US,505-843-6552,35.080946,-106.625232,"Mon 24HOURS, Tue 24HOURS, Wed 24HOURS, Thu 24HOURS, Fri 24HOURS, Sat 24HOURS, Sun 24HOURS",,,
Baskin Robbins,330825,"2200 Sunport Blvd, SE",Albuquerque Intl Airport,Albuquerque,NM,87106,US,505-275-0813,35.050075,-106.619816,"Mon 11:00-22:00, Tue 11:00-22:00, Wed 11:00-22:00, Thu 11:00-22:00, Fri 11:00-22:00, Sat 11:00-22:00, Sun 11:00-22:00",,,
Baskin Robbins,361419,3457 Highway 47,,Los Lunas,NM,87031,US,505-865-7654,34.810815,-106.698602,"Mon 11:00-22:00, Tue 11:00-22:00, Wed 11:00-22:00, Thu 11:00-22:00, Fri 11:00-22:00, Sat 11:00-22:00, Sun 11:00-22:00",,,
Baskin Robbins,345909,1205 E Highway 66,,Gallup,NM,87301,US,505-722-5445,35.529764,-108.724478,"Mon 11:00-22:00, Tue 11:00-22:00, Wed 11:00-22:00, Thu 11:00-22:00, Fri 11:00-22:00, Sat 11:00-22:00, Sun 11:00-22:00",,,
Baskin Robbins,355498,4411 Soncy Ave,,Amarillo,TX,79119,US,806-731-8616,35.162433,-101.937654,"Mon 05:00-22:00, Tue 05:00-22:00, Wed 05:00-22:00, Thu 05:00-22:00, Fri 05:00-22:00, Sat 05:00-22:00, Sun 05:00-22:00",,,
Baskin Robbins,354018,2823 Western Ave,,Amarillo,TX,79109,US,806-553-2274,35.18442,-101.883586,"Mon 05:00-22:00, Tue 05:00-22:00, Wed 05:00-22:00, Thu 05:00-22:00, Fri 05:00-22:00, Sat 05:00-22:00, Sun 05:00-22:00",,,
Baskin Robbins,361092,29 E 1230 N,,Provo,UT,84604,US,801-377-0031,40.250669,-111.658025,"Mon 11:00-22:00, Tue 11:00-22:00, Wed 11:00-22:00, Thu 11:00-22:00, Fri 11:00-22:00, Sat 11:00-22:00, Sun 11:00-22:00",,,
Baskin Robbins,361099,210 N State St,,Orem,UT,84057,US,801-224-0731,40.301036,-111.6966,"Mon 11:00-22:00, Tue 11:00-22:00, Wed 11:00-22:00, Thu 11:00-22:00, Fri 11:00-22:00, Sat 11:00-22:00, Sun 11:00-22:00",,,
Baskin Robbins,356269,Dorado del Mar Shopping Center,,Dorado,PR,00646,PU,--,,,,,,
Baskin Robbins,361106,9497 S. 700 E,,Sandy,UT,84070,US,801-572-4064,40.579538,-111.871502,"Mon 11:00-22:00, Tue 11:00-22:00, Wed 11:00-22:00, Thu 11:00-22:00, Fri 11:00-22:00, Sat 11:00-22:00, Sun 11:00-22:00",,,
Baskin Robbins,361101,1465 E. 2100 S,,Salt Lake City,UT,84105,US,801-484-1351,40.726173,-111.849143,"Mon 11:00-22:00, Tue 11:00-22:00, Wed 11:00-22:00, Thu 11:00-22:00, Fri 11:00-22:00, Sat 11:00-22:00, Sun 11:00-22:00",,,
Baskin Robbins,335190,576 E 400 S,,Salt Lake City,UT,84102,US,801-355-1480,40.760063,-111.874374,"Mon 11:00-22:00, Tue 11:00-22:00, Wed 11:00-22:00, Thu 11:00-22:00, Fri 11:00-22:00, Sat , Sun ",,,
Baskin Robbins,345958,11428 S. District Dr,Suite 200,South Jordan,UT,84095,US,801-727-0601,40.544307,-111.984044,"Mon 11:00-22:00, Tue 11:00-22:00, Wed 11:00-22:00, Thu 11:00-22:00, Fri 11:00-22:00, Sat 11:00-22:00, Sun 11:00-22:00",,,
Baskin Robbins,361095,530 S Main St,,Bountiful,UT,84010,US,801-298-9931,40.883933,-111.880022,"Mon 11:00-22:00, Tue 11:00-22:00, Wed 11:00-22:00, Thu 11:00-22:00, Fri 11:00-22:00, Sat 11:00-22:00, Sun 11:00-22:00",,,
Baskin Robbins,361105,3490 W 3500 S,,West Valley City,UT,84119,US,801-969-1071,40.696908,-111.973441,"Mon 11:00-22:00, Tue 11:00-22:00, Wed 11:00-22:00, Thu 11:00-22:00, Fri 11:00-22:00, Sat 11:00-22:00, Sun 11:00-22:00",,,
Baskin Robbins,361111,1088 E Gentile St,Fairfield Plaza Shopping Ctr,Layton,UT,84041,US,801-546-3100,41.061582,-111.944694,"Mon 11:00-22:00, Tue 11:00-22:00, Wed 11:00-22:00, Thu 11:00-22:00, Fri 11:00-23:00, Sat 11:00-23:00, Sun 11:00-22:00",,,
Baskin Robbins,332210,3000 Highway 30 W,,Kearney,NE,68847,US,308-234-6556,40.742781,-98.950254,"Mon 09:00-21:30, Tue 09:00-21:30, Wed 09:00-21:30, Thu 09:00-21:30, Fri 09:00-21:30, Sat 09:00-21:30, Sun 09:00-21:30",,,
Baskin Robbins,361096,3675 Harrison Blvd,,Ogden,UT,84403,US,801-627-1444,41.196483,-111.948981,"Mon 11:00-22:00, Tue 11:00-22:00, Wed 11:00-22:00, Thu 11:00-22:00, Fri 11:00-22:00, Sat 11:00-22:00, Sun 11:00-22:00",,,
Baskin Robbins,361104,435 State St,,Clearfield,UT,84015,US,801-825-3131,41.107551,-112.019254,"Mon 11:00-22:00, Tue 11:00-22:00, Wed 11:00-22:00, Thu 11:00-22:00, Fri 11:00-22:00, Sat 11:00-22:00, Sun 11:00-22:00",,,
Baskin Robbins,361093,1166 Washington Blvd,,Ogden,UT,84404,US,801-621-3333,41.244646,-111.970216,"Mon 11:00-22:00, Tue 11:00-22:00, Wed 11:00-22:00, Thu 11:00-22:00, Fri 11:00-22:00, Sat 11:00-22:00, Sun 11:00-22:00",,,
Baskin Robbins,362407,1904 N Diers Ave,,Grand Island,NE,68803,US,308-381-7222,40.940199,-98.384481,"Mon 11:00-22:00, Tue 11:00-22:00, Wed 11:00-22:00, Thu 11:00-22:00, Fri 11:00-22:00, Sat 11:00-22:00, Sun 11:00-22:00",,,
Baskin Robbins,354801,4328 50th St,,Lubbock,TX,79413,US,806-686-0825,33.549279,-101.904627,"Mon 05:00-22:00, Tue 05:00-22:00, Wed 05:00-22:00, Thu 05:00-22:00, Fri 05:00-22:00, Sat 05:00-22:00, Sun 05:00-22:00",,,
Baskin Robbins,352510,7723 Milwaukee Ave,,Lubbock,TX,79424,US,806-589-0196,33.52203,-101.956478,"Mon 05:00-22:00, Tue 05:00-22:00, Wed 05:00-22:00, Thu 05:00-22:00, Fri 05:00-22:00, Sat 05:00-22:00, Sun 05:00-22:00",,,
Baskin Robbins,360210,1104 S Milton Rd,,Flagstaff,AZ,86001,US,928-779-1012,35.186921,-111.661273,"Mon 10:30-22:00, Tue 10:30-22:00, Wed 10:30-22:00, Thu 10:30-22:00, Fri 10:30-22:00, Sat 10:30-22:00, Sun 10:30-22:00",,,
Baskin Robbins,352573,7901 University Ave,,Lubbock,TX,79423,US,806-686-1306,33.522334,-101.870004,"Mon 05:00-22:00, Tue 05:00-22:00, Wed 05:00-22:00, Thu 05:00-22:00, Fri 05:00-22:00, Sat 05:00-22:00, Sun 05:00-22:00",,,
Baskin Robbins,332208,4700 S. Lincoln Ave,,York,NE,68467,US,402-362-2902,40.818119,-97.597779,"Mon 11:00-22:00, Tue 11:00-22:00, Wed 11:00-22:00, Thu 11:00-22:00, Fri 11:00-22:00, Sat 11:00-22:00, Sun 11:00-22:00",,,
Baskin Robbins,352678,150 State Route 179,Suite #3,Sedona,AZ,86336,US,928-282-4800,34.865319,-111.763868,"Mon 10:00-22:00, Tue 10:00-22:00, Wed 10:00-22:00, Thu 10:00-22:00, Fri 10:00-22:00, Sat 10:00-22:00, Sun 10:00-22:00",,,
Baskin Robbins,361103,1253 E 17th St,,Idaho Falls,ID,83404,US,208-524-3131,43.482537,-112.010707,"Mon 11:00-22:00, Tue 11:00-22:00, Wed 11:00-22:00, Thu 11:00-22:00, Fri 11:00-22:00, Sat 11:00-22:00, Sun 11:00-22:00",,,
Baskin Robbins,356720,2696 Pioneer Rd,Suite A,Saint George,UT,84790,US,435-673-1950,37.06207,-113.584918,"Mon 11:00-22:00, Tue 11:00-22:00, Wed 11:00-22:00, Thu 11:00-22:00, Fri 11:00-22:00, Sat 11:00-22:00, Sun 11:00-22:00",,,
Baskin Robbins,348398,2126 N Webb Rd,,Wichita,KS,67206,US,316-260-3103,37.7217,-97.22627,"Mon 11:00-21:00, Tue 11:00-21:00, Wed 11:00-21:00, Thu 11:00-21:00, Fri 11:00-22:00, Sat 11:00-22:00, Sun 12:00-21:00",,,
Baskin Robbins,360151,1492 Missouri Ave,,Las Cruces,NM,88001,US,575-521-3100,32.295387,-106.757435,"Mon 11:00-22:00, Tue 11:00-22:00, Wed 11:00-22:00, Thu 11:00-22:00, Fri 11:00-22:00, Sat 11:00-22:00, Sun 11:00-22:00",,,
Baskin Robbins,361475,1012 W 6th St,Westside Shopping Ctr,Junction City,KS,66441,US,785-762-4655,39.028653,-96.847752,"Mon 10:00-22:00, Tue 10:00-22:00, Wed 10:00-22:00, Thu 10:00-22:00, Fri 10:00-22:00, Sat 10:00-22:00, Sun 12:00-22:00",,,
Baskin Robbins,354303,320 N 3rd St,Suite 110,Manhattan,KS,66502,US,785-537-3136,39.182111,-96.559907,"Mon 11:00-22:00, Tue 11:00-22:00, Wed 11:00-22:00, Thu 11:00-22:00, Fri 11:00-22:00, Sat 11:00-22:00, Sun 11:00-22:00",,,
Baskin Robbins,332321,3111 Nw 12th St,,Lincoln,NE,68521,US,402-441-5777,40.844085,-96.739703,"Mon 10:00-22:00, Tue 10:00-22:00, Wed 10:00-22:00, Thu 10:00-22:00, Fri 10:00-22:00, Sat 10:00-22:00, Sun 10:00-22:00",,,
Baskin Robbins,350836,1144 W Iron Springs Rd,,Prescott,AZ,86305,US,928-777-7001,34.559895,-112.484576,"Mon 11:00-22:00, Tue 11:00-22:00, Wed 11:00-22:00, Thu 11:00-22:00, Fri 11:00-22:00, Sat 11:00-22:00, Sun 11:00-22:00",,,
Baskin Robbins,361615,111 S. 24th St W,,Billings,MT,59102,US,406-652-1351,45.767512,-108.576202,"Mon 11:00-22:00, Tue 11:00-22:00, Wed 11:00-22:00, Thu 11:00-22:00, Fri 11:00-22:00, Sat 11:00-22:00, Sun 11:00-22:00",,,
Baskin Robbins,356724,308 6th Ave N,,Billings,MT,59101,US,--,45.800033,-108.477152,,,,
Baskin Robbins,361412,9574 Dyer St,,El Paso,TX,79924,US,915-755-3132,31.884786,-106.417957,,,,
Baskin Robbins,336761,405 Main St,Heights Town Center Ste C,Billings,MT,59105,US,406-252-7767,45.806526,-108.474168,"Mon 11:00-22:00, Tue 11:00-22:00, Wed 11:00-22:00, Thu 11:00-22:00, Fri 11:00-22:00, Sat 11:00-22:00, Sun 11:00-22:00",,,
Baskin Robbins,350303,931 N Resler Dr,Ste 101,El Paso,TX,79912,US,915-587-8431,31.864307,-106.558117,"Mon 11:00-22:00, Tue 11:00-22:00, Wed 11:00-22:00, Thu 11:00-22:00, Fri 11:00-22:00, Sat 11:00-22:00, Sun 11:00-22:00",,,
Baskin Robbins,349057,Marshall Rd,Building 1613,Fort Bliss,TX,79906,US,915-562-3005,31.819974,-106.431091,"Mon 10:30-18:00, Tue 10:30-18:00, Wed 10:30-18:00, Thu 10:30-18:00, Fri 10:30-18:00, Sat 10:30-18:00, Sun 10:30-18:00",,,
Baskin Robbins,351390,12379 Edgemere Blvd,Suite 107,El Paso,TX,79938,US,915-855-3131,31.793529,-106.259922,"Mon 10:30-22:00, Tue 10:30-22:00, Wed 10:30-22:00, Thu 10:30-22:00, Fri 10:30-22:00, Sat 11:00-22:00, Sun 11:00-22:00",,,
Baskin Robbins,361414,10790 Pebble Hills Dr,Pebble Village,El Paso,TX,79935,US,915-593-3131,31.784563,-106.325448,,,,
Baskin Robbins,362056,5640 Montana Ave #A,,El Paso,TX,79925,US,915-772-8311,31.783563,-106.421987,,,,
Baskin Robbins,347250,7502 N May Ave,,Oklahoma City,OK,73116,US,405-418-4191,35.546331,-97.565633,"Mon 10:30-21:00, Tue 10:30-21:00, Wed 10:30-21:00, Thu 10:30-21:00, Fri 10:30-21:30, Sat 10:30-21:30, Sun 11:00-21:30",,,
Baskin Robbins,351825,615 Martin St N,Suite 1,Pell City,AL,35125,US,205-338-3297,33.593371,-86.282997,"Mon 05:00-21:00, Tue 05:00-21:00, Wed 05:00-21:00, Thu 05:00-21:00, Fri 05:00-22:00, Sat 05:00-22:00, Sun 05:00-21:00",,,
Baskin Robbins,355292,426 AL Highway 69 S,Petro Travel Plaza,Hanceville,AL,35077,US,256-615-6178,34.050724,-86.872547,"Mon 24HOURS, Tue 24HOURS, Wed 24HOURS, Thu 24HOURS, Fri 24HOURS, Sat 24HOURS, Sun 24HOURS",,,
Baskin Robbins,346411,1523 Veterans Pkwy,Suite A,Columbus,GA,31901,US,706-257-0305,32.475243,-84.988011,"Mon 05:00-22:00, Tue 05:00-22:00, Wed 05:00-22:00, Thu 05:00-22:00, Fri 05:00-22:00, Sat 05:00-22:00, Sun 05:00-22:00",,,
Baskin Robbins,352798,2526 North Hills St,Suite B,Meridian,MS,39305,US,601-482-1007,32.408817,-88.707002,"Mon 11:00-22:00, Tue 11:00-22:00, Wed 11:00-22:00, Thu 11:00-22:00, Fri 11:00-22:00, Sat 11:00-22:00, Sun 11:00-22:00",,,
Baskin Robbins,348229,2445 Airport Thruway,,Columbus,GA,31904,US,706-507-3300,32.519227,-84.955271,"Mon 11:00-22:00, Tue 11:00-22:00, Wed 11:00-22:00, Thu 11:00-22:00, Fri 11:00-22:00, Sat 11:00-22:00, Sun 11:00-22:00",,,
Baskin Robbins,350708,3201 Macon Rd,Ste A,Columbus,GA,31906,US,706-984-8209,32.48118,-84.94262,"Mon 05:00-22:00, Tue 05:00-22:00, Wed 05:00-22:00, Thu 05:00-22:00, Fri 05:00-22:00, Sat 05:00-22:00, Sun 06:00-22:00",,,
Baskin Robbins,337982,1140 Highway 45 S,Fast Break,West Point,MS,39773,US,662-494-8183,33.559431,-88.659039,"Mon 11:00-22:00, Tue 11:00-22:00, Wed 11:00-22:00, Thu 11:00-22:00, Fri 11:00-22:00, Sat 11:00-22:00, Sun 11:00-22:00",,,
Baskin Robbins,335944,868 Highway 12 W,,Starkville,MS,39759,US,662-323-3108,33.435018,-88.864681,"Mon 11:00-22:00, Tue 11:00-22:00, Wed 11:00-22:00, Thu 11:00-22:00, Fri 11:00-22:00, Sat 11:00-22:00, Sun 11:00-22:00",,,
Baskin Robbins,354848,1024 6th Ave SE,,Decatur,AL,35601,US,256-274-9192,34.591567,-86.979942,"Mon 05:00-22:00, Tue 05:00-22:00, Wed 05:00-22:00, Thu 05:00-22:00, Fri 05:00-22:00, Sat 05:00-22:00, Sun 05:00-22:00",,,
Baskin Robbins,355726,85 Commerce Dr,,Villa Rica,GA,30180,US,770-459-8200,33.727755,-84.940624,"Mon 05:00-22:00, Tue 05:00-22:00, Wed 05:00-22:00, Thu 05:00-22:00, Fri 05:00-22:00, Sat 05:00-22:00, Sun 05:00-22:00",,,
Baskin Robbins,355715,850 East Main Street,,Philadelphia,MS,39350,US,601-389-8015,32.770657,-89.0939,"Mon 10:00-23:00, Tue 10:00-23:00, Wed 10:00-23:00, Thu 10:00-23:00, Fri 10:00-23:00, Sat 10:00-23:00, Sun 10:00-23:00",,,
Baskin Robbins,352698,12 Bailey Station Dr,,Sharpsburg,GA,30277,US,770-253-0022,33.407901,-84.674281,"Mon 05:00-23:00, Tue 05:00-23:00, Wed 05:00-23:00, Thu 05:00-23:00, Fri 05:00-23:00, Sat 05:00-23:00, Sun 05:00-23:00",,,
Baskin Robbins,360576,5000 Whitesburg Dr S,Suite 156,Huntsville,AL,35802,US,256-881-7920,34.688047,-86.568266,"Mon 11:00-22:00, Tue 11:00-22:00, Wed 11:00-22:00, Thu 11:00-22:00, Fri 11:00-22:00, Sat 11:00-22:00, Sun 11:00-22:00",,,
Baskin Robbins,362296,3064 Ross Clark Cir,,Dothan,AL,36301,US,334-792-8221,31.225872,-85.432133,,,,
Baskin Robbins,350436,7830 Highway 72 W,Ste 285,Madison,AL,35758,US,256-722-5755,34.753814,-86.742194,"Mon 11:00-22:00, Tue 11:00-22:00, Wed 11:00-22:00, Thu 11:00-22:00, Fri 11:00-22:00, Sat 11:00-22:00, Sun 11:00-22:00",,,
Baskin Robbins,354924,5341 Highway 178 W,,Fulton,MS,38843,US,662-862-9998,34.264431,-88.446343,"Mon 11:00-22:00, Tue 11:00-22:00, Wed 11:00-22:00, Thu 11:00-22:00, Fri 11:00-22:00, Sat 11:00-22:00, Sun 11:00-22:00",,,
Baskin Robbins,354743,3655 W Anthem Way,Suite C-113,Anthem,AZ,85086,US,623-551-3561,33.864138,-112.139122,"Mon 11:00-22:00, Tue 11:00-22:00, Wed 11:00-22:00, Thu 11:00-22:00, Fri 11:00-22:00, Sat 11:00-22:00, Sun 11:00-22:00",,,
Baskin Robbins,350788,4760 Jonesboro Rd,,Union City,GA,30291,US,770-969-9181,33.56868,-84.54003,"Mon 05:00-22:00, Tue 05:00-22:00, Wed 05:00-22:00, Thu 05:00-22:00, Fri 05:00-22:00, Sat 05:00-22:00, Sun 06:00-22:00",,,
Baskin Robbins,348602,4150 Macland Rd,Ste 235,Powder Springs,GA,30127,US,770-222-5199,33.90284,-84.67326,"Mon 11:00-22:00, Tue 11:00-22:00, Wed 11:00-22:00, Thu 11:00-22:00, Fri 11:00-22:00, Sat 11:00-22:00, Sun 11:00-22:00",,,
Baskin Robbins,345475,4795 US Hwy 90,,Pace,FL,32571,US,850-995-6122,30.603292,-87.124615,"Mon 10:00-22:00, Tue 10:00-22:00, Wed 10:00-22:00, Thu 10:00-22:00, Fri 10:00-22:00, Sat 10:00-22:00, Sun 11:30-22:00",,,
Baskin Robbins,360875,1011 West Main St,,Tupelo,MS,38801,US,601-844-3144,34.256939,-88.719315,"Mon 11:00-22:00, Tue 11:00-22:00, Wed 11:00-22:00, Thu 11:00-22:00, Fri 11:00-22:00, Sat 11:00-22:00, Sun 11:00-22:00",,,
Baskin Robbins,347710,7087 Highway 85,,Riverdale,GA,30274,US,770-909-0011,33.561567,-84.414363,"Mon 05:00-23:00, Tue 05:00-23:00, Wed 05:00-23:00, Thu 05:00-23:00, Fri 05:00-23:00, Sat 05:00-23:00, Sun 06:00-22:00",,,
Baskin Robbins,335553,836 Harmony Ln,,Tupelo,MS,38804,US,662-844-3137,34.314306,-88.70648,"Mon 11:00-22:00, Tue 11:00-22:00, Wed 11:00-22:00, Thu 11:00-22:00, Fri 11:00-22:00, Sat 11:00-22:00, Sun 11:00-22:00",,,
Baskin Robbins,310095,2475 Dallas Hwy SW,,Marietta,GA,30064,US,770-792-6677,33.945772,-84.6232,"Mon 05:00-22:00, Tue 05:00-22:00, Wed 05:00-22:00, Thu 05:00-22:00, Fri 05:00-22:00, Sat 06:00-22:00, Sun 06:00-22:00",,,
Baskin Robbins,340398,1800 N Expressway,US 19,Griffin,GA,30223,US,770-467-9534,33.284279,-84.290628,"Mon 04:00-22:00, Tue 04:00-22:00, Wed 04:00-22:00, Thu 04:00-22:00, Fri 04:00-23:00, Sat 04:00-23:00, Sun 04:00-22:00",,,
Baskin Robbins,352036,11286 Tara Blvd,,Hampton,GA,30228,US,770-472-9906,33.447204,-84.323794,"Mon 05:00-22:00, Tue 05:00-22:00, Wed 05:00-22:00, Thu 05:00-22:00, Fri 05:00-22:00, Sat 05:00-22:00, Sun 05:00-22:00",,,
Baskin Robbins,355775,304 E 9 Mile Rd,,Pensacola,FL,32514,US,850-549-3301,30.533398,-87.26172,"Mon 05:00-22:00, Tue 05:00-22:00, Wed 05:00-22:00, Thu 05:00-22:00, Fri 05:00-22:00, Sat 05:00-22:00, Sun 05:00-22:00",,,
Baskin Robbins,355078,1152 John Sims Pkwy E,,Niceville,FL,32578,US,850-729-0490,30.516331,-86.465993,"Mon 05:00-22:00, Tue 05:00-22:00, Wed 05:00-22:00, Thu 05:00-22:00, Fri 05:00-22:00, Sat 05:00-22:00, Sun 05:00-22:00",,,
Baskin Robbins,354928,502 Highway 16 E,,Carthage,MS,39051,US,601-267-5888,32.735717,-89.527962,"Mon 11:00-22:00, Tue 11:00-22:00, Wed 11:00-22:00, Thu 11:00-22:00, Fri 11:00-22:00, Sat 11:00-22:00, Sun 11:00-22:00",,,
Baskin Robbins,336991,5663 Jonesboro Rd,,Lake City,GA,30260,US,770-961-4701,33.600557,-84.339628,"Mon 24HOURS, Tue 24HOURS, Wed 24HOURS, Thu 24HOURS, Fri 24HOURS, Sat 24HOURS, Sun 24HOURS",,,
Baskin Robbins,307688,670 S Marietta Pkwy,,Marietta,GA,30060,US,770-423-5947,33.942991,-84.533261,"Mon 24HOURS, Tue 24HOURS, Wed 24HOURS, Thu 24HOURS, Fri 24HOURS, Sat 24HOURS, Sun 24HOURS",,,
Baskin Robbins,302140,2651 Cobb Pky NW,,Atlanta,GA,30339,US,770-952-2009,33.888226,-84.473489,"Mon 05:00-23:00, Tue 05:00-23:00, Wed 05:00-23:00, Thu 05:00-23:00, Fri 05:00-00:00, Sat 05:00-00:00, Sun 06:00-23:00",,,
Baskin Robbins,345433,29455 N. Cave Creek Rd,,Phoenix,AZ,85331,US,480-563-1014,33.755848,-111.990452,"Mon 11:00-22:00, Tue 11:00-22:00, Wed 11:00-22:00, Thu 11:00-22:00, Fri 11:00-22:00, Sat 11:00-22:00, Sun 11:00-22:00",,,
Baskin Robbins,342426,6501 E. Greenway Pkwy,Suite #2,Scottsdale,AZ,85254,US,480-998-0310,33.625698,-111.94136,,,,
Baskin Robbins,361441,4547 E Cactus Rd,,Phoenix,AZ,85032,US,602-996-2904,33.599158,-111.983869,,,,
Baskin Robbins,361445,4326 W. Bell Rd,Ste 1,Glendale,AZ,85308,US,602-978-4249,33.639468,-112.152409,,,,
Baskin Robbins,345444,24870 N. Lake Pleasant Pkwy,Suite 101,Peoria,AZ,85383,US,623-566-4013,33.710439,-112.272899,"Mon 11:00-22:00, Tue 11:00-22:00, Wed 11:00-22:00, Thu 11:00-22:00, Fri 11:00-22:00, Sat 11:00-22:00, Sun 11:00-22:00",,,
Baskin Robbins,361437,7665 W. Bell Rd,Suite 101,Peoria,AZ,85380,US,623-486-5447,33.638063,-112.223648,"Mon 11:00-22:00, Tue 11:00-22:00, Wed 11:00-22:00, Thu 11:00-22:00, Fri 11:00-22:00, Sat 11:00-22:00, Sun 11:00-22:00",,,
Baskin Robbins,361447,8841 N 19th Ave,Ste 1,Phoenix,AZ,85021,US,602-997-5144,33.565494,-112.099519,,,,
Baskin Robbins,361449,4406 E. Main St,#101,Mesa,AZ,85205,US,480-924-1251,33.415537,-111.736318,,,,
Baskin Robbins,361457,1229 S. Power Rd S,Ste 103,Mesa,AZ,85206,US,480-985-3131,33.393088,-111.684635,,,,
Baskin Robbins,352144,15423 W Waddell Rd,Suite 103,Surprise,AZ,85379,US,623-584-0256,33.60901,-112.392522,"Mon 11:00-22:00, Tue 11:00-22:00, Wed 11:00-22:00, Thu 11:00-22:00, Fri 11:00-22:00, Sat 11:00-22:00, Sun 11:00-22:00",,,
Baskin Robbins,361443,3108 S. McClintock Dr,Southern Palms Center Ste 1,Tempe,AZ,85282,US,480-820-3916,33.395162,-111.909163,,,,
Baskin Robbins,355039,1939 E Baseline Rd,Suite 112,Gilbert,AZ,85233,US,480-813-4988,33.377088,-111.788979,"Mon 11:00-22:00, Tue 11:00-22:00, Wed 11:00-22:00, Thu 11:00-22:00, Fri 11:00-22:00, Sat 11:00-22:00, Sun 11:00-22:00",,,
Baskin Robbins,360206,4021 N. 75th Ave,,Phoenix,AZ,85033,US,623-846-2944,33.493825,-112.220534,"Mon 10:30-22:00, Tue 10:30-22:00, Wed 10:30-22:00, Thu 10:30-22:00, Fri 10:30-22:00, Sat 10:30-22:00, Sun 10:30-22:00",,,
Baskin Robbins,360208,1715 E Guadalupe Rd,,Tempe,AZ,85283,US,480-839-5154,33.363463,-111.912712,"Mon 11:00-22:00, Tue 11:00-22:00, Wed 11:00-22:00, Thu 11:00-22:00, Fri 11:00-22:00, Sat 11:00-22:00, Sun 11:00-22:00",,,
Baskin Robbins,343776,13000 W. Indian School Rd,Suite A-11,Litchfield Park,AZ,85340,US,623-535-4488,33.494724,-112.33899,"Mon 11:00-22:00, Tue 11:00-22:00, Wed 11:00-22:00, Thu 11:00-22:00, Fri 11:00-22:00, Sat 11:00-22:00, Sun 11:00-22:00",,,
Baskin Robbins,343521,2487 S Gilbert Rd,,Gilbert,AZ,85295,US,480-899-4859,33.304355,-111.789652,"Mon 11:00-22:00, Tue 11:00-22:00, Wed 11:00-22:00, Thu 11:00-22:00, Fri 11:00-22:00, Sat 11:00-22:00, Sun 11:00-22:00",,,
Baskin Robbins,336381,741 Townpark Ln NW,,Kennesaw,GA,30144,US,678-355-5518,34.035906,-84.572133,"Mon 05:00-23:00, Tue 05:00-23:00, Wed 05:00-23:00, Thu 05:00-23:00, Fri 05:00-23:00, Sat 05:00-23:00, Sun 06:00-23:00",,,
Baskin Robbins,361925,4350 Bayou Blvd,Ste 2,Pensacola,FL,32503,US,850-484-9000,30.466028,-87.204508,"Mon 10:00-22:00, Tue 10:00-22:00, Wed 10:00-22:00, Thu 10:00-22:00, Fri 10:00-22:00, Sat 10:00-22:00, Sun 11:30-22:00",,,
Baskin Robbins,350432,682 Boulevard NE,,Atlanta,GA,30308,US,404-810-0010,33.77337,-84.371234,"Mon 05:00-23:00, Tue 05:00-23:00, Wed 05:00-23:00, Thu 05:00-23:00, Fri 05:00-23:00, Sat 06:00-23:00, Sun 06:00-23:00",,,
Baskin Robbins,308655,2885 Canton Hwy,,Marietta,GA,30066,US,770-422-3375,34.021243,-84.528892,"Mon 05:00-22:00, Tue 05:00-22:00, Wed 05:00-22:00, Thu 05:00-22:00, Fri 05:00-22:00, Sat 05:00-22:00, Sun 06:00-22:00",,,
Baskin Robbins,360574,2335 Peachtree Rd NE,,Atlanta,GA,30305,US,404-261-6215,33.817418,-84.388726,"Mon 10:00-22:00, Tue 10:00-22:00, Wed 10:00-22:00, Thu 10:00-22:00, Fri 10:00-22:00, Sat 10:00-22:00, Sun 11:30-22:00",,,
Baskin Robbins,341198,98 Veteran's Blvd,,Kosciusko,MS,39090,US,662-289-1288,33.040734,-89.57788,"Mon 11:00-22:00, Tue 11:00-22:00, Wed 11:00-22:00, Thu 11:00-22:00, Fri 11:00-22:00, Sat 11:00-22:00, Sun 11:00-22:00",,,
Baskin Robbins,304785,2765 Sandy Plains Rd,,Marietta,GA,30066,US,770-977-2722,34.016724,-84.492849,"Mon 05:00-22:00, Tue 05:00-22:00, Wed 05:00-22:00, Thu 05:00-22:00, Fri 05:00-23:00, Sat 05:00-23:00, Sun 06:00-22:00",,,
Baskin Robbins,331209,91 Eglin Pkwy NE,,Fort Walton Beach,FL,32548,US,850-302-0200,30.417174,-86.607539,"Mon 11:00-22:00, Tue 11:00-22:00, Wed 11:00-22:00, Thu 11:00-22:00, Fri 11:00-22:00, Sat 11:00-22:00, Sun 11:00-22:00",,,
Baskin Robbins,336992,9755 Hwy 92,,Woodstock,GA,30188,US,770-926-7770,34.086839,-84.527956,"Mon 24HOURS, Tue 24HOURS, Wed 24HOURS, Thu 24HOURS, Fri 24HOURS, Sat 24HOURS, Sun 04:00-23:00",,,
Baskin Robbins,336181,875 Towne Lake Parkway,Ste 130,Woodstock,GA,30188,US,770-928-2582,34.101845,-84.532994,"Mon 24HOURS, Tue 24HOURS, Wed 24HOURS, Thu 24HOURS, Fri 24HOURS, Sat 24HOURS, Sun 24HOURS",,,
Baskin Robbins,302116,2704 Candler Rd,,Decatur,GA,30034,US,404-241-8226,33.710625,-84.271511,"Mon 24HOURS, Tue 24HOURS, Wed 24HOURS, Thu 24HOURS, Fri 24HOURS, Sat 24HOURS, Sun 24HOURS",,,
Baskin Robbins,355088,4811 Lower Roswell Rd,,Marietta,GA,30068,US,678-504-7170,33.96679,-84.411184,"Mon 11:00-22:00, Tue 11:00-22:00, Wed 11:00-22:00, Thu 11:00-22:00, Fri 11:00-22:00, Sat 11:00-22:00, Sun 11:00-22:00",,,
Baskin Robbins,342407,230 Hammond Dr,Ste 332,Atlanta,GA,30328,US,404-252-6311,33.919134,-84.379026,"Mon 10:30-22:30, Tue 10:30-22:30, Wed 10:30-22:30, Thu 10:30-22:30, Fri 10:30-22:30, Sat 10:30-22:30, Sun 10:30-22:30",,,
Baskin Robbins,355380,1012 Highway 98 E,,Destin,FL,32541,US,850-837-0300,30.386705,-86.471886,"Mon 05:00-22:00, Tue 05:00-22:00, Wed 05:00-22:00, Thu 05:00-22:00, Fri 05:00-22:00, Sat 05:00-22:00, Sun 05:00-22:00",,,
Baskin Robbins,360870,10102 N Rodney Parham Rd,Suite A,Little Rock,AR,72227,US,501-227-5656,34.765908,-92.386303,"Mon 11:00-22:00, Tue 11:00-22:00, Wed 11:00-22:00, Thu 11:00-22:00, Fri 11:00-22:00, Sat 11:00-22:00, Sun 11:00-22:00",,,
Baskin Robbins,360209,13220 W. Van Buren St,# 110,Goodyear,AZ,85338,US,623-932-4420,33.45016,-112.343611,"Mon 11:00-22:00, Tue 11:00-22:00, Wed 11:00-22:00, Thu 11:00-22:00, Fri 11:00-22:00, Sat 11:00-22:00, Sun 11:00-22:00",,,
Baskin Robbins,339871,4025 E. Chandler Blvd,Ste 64,Phoenix,AZ,85048,US,480-704-2731,33.305099,-111.995194,"Mon 11:00-22:00, Tue 11:00-22:00, Wed 11:00-22:00, Thu 11:00-22:00, Fri 11:00-22:00, Sat 11:00-22:00, Sun 11:00-22:00",,,
Baskin Robbins,349096,15530 W  Roosevelt St,Ste E105,Goodyear,AZ,85338,US,623-882-3311,33.45787,-112.39306,"Mon 11:00-22:00, Tue 11:00-22:00, Wed 11:00-22:00, Thu 11:00-22:00, Fri 11:00-22:00, Sat 11:00-22:00, Sun 11:00-22:00",,,
Baskin Robbins,349116,21151 E Rittenhouse Rd,Suite 105,Queen Creek,AZ,85142,US,480-888-8877,33.25383,-111.63108,"Mon 11:00-22:00, Tue 11:00-22:00, Wed 11:00-22:00, Thu 11:00-22:00, Fri 11:00-22:00, Sat 11:00-22:00, Sun 11:00-22:00",,,
Baskin Robbins,332927,5000 Sunland Gin Rd,,Casa Grande,AZ,85222,US,520-423-2015,32.828362,-111.671162,"Mon 11:00-22:00, Tue 11:00-22:00, Wed 11:00-22:00, Thu 11:00-22:00, Fri 11:00-22:00, Sat 11:00-22:00, Sun 11:00-22:00",,,
Baskin Robbins,339292,7555 N. La Cholla Blvd,,Tucson,AZ,85741,US,520-531-9198,32.336965,-111.012595,"Mon 11:00-22:00, Tue 11:00-22:00, Wed 11:00-22:00, Thu 11:00-22:00, Fri 11:00-22:00, Sat 11:00-22:00, Sun 11:00-22:00",,,
Baskin Robbins,336977,4676 E. Grant Rd,,Tucson,AZ,85712,US,520-795-7142,32.250474,-110.893153,"Mon 24HOURS, Tue 24HOURS, Wed 24HOURS, Thu 24HOURS, Fri 24HOURS, Sat 24HOURS, Sun 24HOURS",,,
Baskin Robbins,337492,904 E. University Blvd,,Tucson,AZ,85719,US,520-882-7711,32.231561,-110.957837,"Mon 06:00-21:00, Tue 06:00-21:00, Wed 06:00-21:00, Thu 06:00-21:00, Fri 06:00-21:00, Sat 06:00-21:00, Sun 06:00-21:00",,,
Baskin Robbins,360173,2648 E. Speedway Blvd,,Tucson,AZ,85716,US,520-327-6451,32.235863,-110.932867,"Mon 11:00-22:00, Tue 11:00-22:00, Wed 11:00-22:00, Thu 11:00-22:00, Fri 11:00-22:00, Sat 11:00-22:00, Sun 11:00-22:00",,,
Baskin Robbins,352194,3455 Stockton Hill Rd,,Kingman,AZ,86409,US,928-757-2415,35.224003,-114.036937,"Mon 11:00-22:00, Tue 11:00-22:00, Wed 11:00-22:00, Thu 11:00-22:00, Fri 11:00-22:00, Sat 11:00-22:00, Sun 11:00-22:00",,,
Baskin Robbins,360178,8670 E. Broadway Blvd,,Tucson,AZ,85710,US,520-721-4171,32.220451,-110.807517,"Mon 11:00-22:00, Tue 11:00-22:00, Wed 11:00-22:00, Thu 11:00-22:00, Fri 11:00-22:00, Sat 11:00-22:00, Sun 11:00-22:00",,,
Baskin Robbins,304990,1655 W. Valencia Rd,Suite 101,Tucson,AZ,85746,US,520-729-1407,32.133587,-111.000008,"Mon 05:00-23:00, Tue 05:00-23:00, Wed 05:00-23:00, Thu 05:00-23:00, Fri 05:00-23:00, Sat 05:00-20:00, Sun 06:00-21:00",,,
Baskin Robbins,343855,8140 S. Houghton Rd,Unit 120,Tucson,AZ,85747,US,520-574-0405,32.105357,-110.783908,"Mon 11:00-22:00, Tue 11:00-22:00, Wed 11:00-22:00, Thu 11:00-22:00, Fri 11:00-22:00, Sat 11:00-22:00, Sun 11:00-22:00",,,
Baskin Robbins,352280,15980 S Rancho Sahuarita Blvd,Suite 100,Sahuarita,AZ,85629,US,520-207-4194,31.959858,-110.984078,"Mon 05:00-22:00, Tue 05:00-22:00, Wed 05:00-22:00, Thu 05:00-22:00, Fri 05:00-22:00, Sat 05:00-21:00, Sun 06:00-21:00",,,
Baskin Robbins,354195,2840 Highway 95,Ste 204,Bullhead City,AZ,86442,US,928-758-2060,35.083127,-114.596884,"Mon 11:00-22:00, Tue 11:00-22:00, Wed 11:00-22:00, Thu 11:00-22:00, Fri 11:00-22:00, Sat 11:00-22:00, Sun 11:00-22:00",,,
Baskin Robbins,348376,700 Schillinger Rd S,Suite 9,Mobile,AL,36695,US,251-635-1555,30.67534,-88.225701,"Mon 11:00-22:00, Tue 11:00-22:00, Wed 11:00-22:00, Thu 11:00-22:00, Fri 11:00-22:00, Sat 11:00-22:00, Sun 11:00-22:00",,,
Baskin Robbins,360835,205 Gulf Breeze Pkwy,,Gulf Breeze,FL,32561,US,850-934-6958,30.366417,-87.171528,"Mon 10:00-22:00, Tue 10:00-22:00, Wed 10:00-22:00, Thu 10:00-22:00, Fri 10:00-22:00, Sat 10:00-22:00, Sun 10:00-22:00",,,
Baskin Robbins,330524,5558 Peachtree Industrial Blvd,,Chamblee,GA,30341,US,770-454-1574,33.899518,-84.301501,"Mon 05:00-23:00, Tue 05:00-23:00, Wed 05:00-23:00, Thu 05:00-23:00, Fri 05:00-23:00, Sat 06:00-23:00, Sun 06:00-23:00",,,
Baskin Robbins,302060,4760 Memorial Dr,,Decatur,GA,30032,US,404-292-6111,33.78591,-84.23479,"Mon 24HOURS, Tue 24HOURS, Wed 24HOURS, Thu 24HOURS, Fri 24HOURS, Sat 24HOURS, Sun 24HOURS",,,
Baskin Robbins,354213,10800 Alpharetta Hwy,Suite 232,Roswell,GA,30076,US,770-545-8197,34.044694,-84.341032,"Mon 11:00-22:00, Tue 11:00-22:00, Wed 11:00-22:00, Thu 11:00-22:00, Fri 11:00-22:00, Sat 11:00-22:00, Sun 11:00-22:00",,,
Baskin Robbins,352613,4092 Lawrenceville Hwy,,Tucker,GA,30084,US,470-268-5236,33.850947,-84.215161,"Mon 05:00-22:00, Tue 05:00-22:00, Wed 05:00-22:00, Thu 05:00-22:00, Fri 05:00-22:00, Sat 05:00-22:00, Sun 05:00-22:00",,,
Baskin Robbins,341137,239 Highway 30 West,Gas Mart,New Albany,MS,38652,US,662-534-3728,34.496635,-89.032955,"Mon 10:00-22:30, Tue 10:00-22:30, Wed 10:00-22:30, Thu 10:00-22:30, Fri 10:00-23:00, Sat 10:00-23:00, Sun 10:00-22:30",,,
Baskin Robbins,334708,5075 Peachtree Pkwy,Suite 201,Norcross,GA,30092,US,678-966-0909,33.984724,-84.213739,"Mon 24HOURS, Tue 24HOURS, Wed 24HOURS, Thu 24HOURS, Fri 24HOURS, Sat 24HOURS, Sun 24HOURS",,,
Baskin Robbins,302851,5161 Highway 78,,Stone Mountain,GA,30087,US,678-344-9920,33.82433,-84.108575,"Mon 24HOURS, Tue 24HOURS, Wed 24HOURS, Thu 24HOURS, Fri 24HOURS, Sat 24HOURS, Sun 24HOURS",,,
Baskin Robbins,344447,1890 Highway 20 SE,,Conyers,GA,30013,US,770-922-8888,33.637452,-84.013921,"Mon 05:00-22:00, Tue 05:00-22:00, Wed 05:00-22:00, Thu 05:00-22:00, Fri 05:00-22:00, Sat 05:00-22:00, Sun 05:00-22:00",,,
Baskin Robbins,344501,2105 S. Harper Rd,,Corinth,MS,38834,US,662-287-7731,34.914494,-88.501056,"Mon 11:00-22:00, Tue 11:00-22:00, Wed 11:00-22:00, Thu 11:00-22:00, Fri 11:00-22:00, Sat 11:00-22:00, Sun 11:00-22:00",,,
Baskin Robbins,330803,2280 Salem Rd SE,Ste 100,Conyers,GA,30013,US,770-761-9711,33.628584,-83.977786,"Mon 05:00-22:00, Tue 05:00-22:00, Wed 05:00-22:00, Thu 05:00-22:00, Fri 05:00-22:00, Sat 05:00-22:00, Sun 05:00-22:00",,,
Baskin Robbins,354229,2847 Battlefield Pkwy,,Fort Oglethorpe,GA,30742,US,706-861-3131,,,"Mon 11:00-22:00, Tue 11:00-22:00, Wed 11:00-22:00, Thu 11:00-22:00, Fri 11:00-22:00, Sat 11:00-22:00, Sun 12:00-22:00",,,
Baskin Robbins,349271,13000 Chenal Pkwy,Ste 114,Little Rock,AR,72211,US,501-219-8515,34.755667,-92.418141,"Mon 11:00-22:00, Tue 11:00-22:00, Wed 11:00-22:00, Thu 11:00-22:00, Fri 11:00-22:00, Sat 11:00-22:00, Sun 11:00-22:00",,,
Baskin Robbins,350232,6805 Cantrell Rd,,Little Rock,AR,72207,US,501-404-0083,34.768387,-92.350862,"Mon 05:00-22:00, Tue 05:00-22:00, Wed 05:00-22:00, Thu 05:00-22:00, Fri 05:00-22:00, Sat 05:00-22:00, Sun 05:00-22:00",,,
Baskin Robbins,362414,Hwy 65 By-Pass,Exxon C-Stop,Clinton,AR,72031,US,501-745-2217,35.112966,-92.424592,"Mon 11:00-22:00, Tue 11:00-22:00, Wed 11:00-22:00, Thu 11:00-22:00, Fri 11:00-22:00, Sat 11:00-22:00, Sun 11:00-22:00",,,
Baskin Robbins,337879,2400 Springhill Rd,Big Red # 128,Bryant,AR,72022,US,501-847-5810,34.616904,-92.516077,"Mon 11:00-22:00, Tue 11:00-22:00, Wed 11:00-22:00, Thu 11:00-22:00, Fri 11:00-22:00, Sat 11:00-22:00, Sun 11:00-22:00",,,
Baskin Robbins,341933,1611 N. Reynolds,Big Red Fina #130,Bryant,AR,72022,US,501-847-9340,34.610084,-92.493701,"Mon 11:00-22:00, Tue 11:00-22:00, Wed 11:00-22:00, Thu 11:00-22:00, Fri 11:00-22:00, Sat 11:00-22:00, Sun 11:00-22:00",,,
Baskin Robbins,332226,1075 Hwy 65 N,,Greenbrier,AR,72058,US,501-679-7171,35.204864,-92.389784,"Mon 11:00-22:00, Tue 11:00-22:00, Wed 11:00-22:00, Thu 11:00-22:00, Fri 11:00-22:00, Sat 11:00-22:00, Sun 11:00-22:00",,,
Baskin Robbins,338274,111 Bill Foster Memorial Hwy,,Cabot,AR,72023,US,501-605-0306,34.944576,-92.060503,"Mon 11:00-22:00, Tue 11:00-22:00, Wed 11:00-22:00, Thu 11:00-22:00, Fri 11:00-22:00, Sat 11:00-22:00, Sun 11:00-22:00",,,
Baskin Robbins,346069,12410 Highway 5,Big Red #132,Cabot,AR,72023,US,501-941-3770,34.998139,-92.07096,"Mon 11:00-22:00, Tue 11:00-22:00, Wed 11:00-22:00, Thu 11:00-22:00, Fri 11:00-22:00, Sat 11:00-22:00, Sun 11:00-22:00",,,
Baskin Robbins,336353,2908 Congo Rd.S/O Fina Big Red,,Benton,AR,72015,US,501-315-3500,34.590179,-92.569223,"Mon 11:00-22:00, Tue 11:00-22:00, Wed 11:00-22:00, Thu 11:00-22:00, Fri 11:00-22:00, Sat 11:00-22:00, Sun 11:00-22:00",,,
Baskin Robbins,339637,620 Military Rd,,Benton,AR,72015,US,501-860-6068,34.569319,-92.586026,"Mon 11:00-22:00, Tue 11:00-22:00, Wed 11:00-22:00, Thu 11:00-22:00, Fri 11:00-22:00, Sat 11:00-22:00, Sun 11:00-22:00",,,
Baskin Robbins,350531,100 Fish Lake Rd,,Atkins,AR,72823,US,501-354-4263,35.220974,-92.82596,"Mon 11:00-22:00, Tue 11:00-22:00, Wed 11:00-22:00, Thu 11:00-22:00, Fri 11:00-22:00, Sat 11:00-22:00, Sun 11:00-22:00",,,
Baskin Robbins,335530,100 N. Rock,,Sheridan,AR,72150,US,870-942-3950,34.306937,-92.398933,"Mon 11:00-22:00, Tue 11:00-22:00, Wed 11:00-22:00, Thu 11:00-22:00, Fri 11:00-22:00, Sat 11:00-22:00, Sun 11:00-22:00",,,
Baskin Robbins,336810,1605 Riverpark Plaza,Big Red #214,Malvern,AR,72104,US,501-337-1200,34.405516,-92.848168,"Mon 11:00-22:00, Tue 11:00-22:00, Wed 11:00-22:00, Thu 11:00-22:00, Fri 11:00-22:00, Sat 11:00-22:00, Sun 11:00-22:00",,,
Baskin Robbins,352020,3340 Central Ave,,Hot Springs,AR,71913,US,501-609-9610,34.474138,-93.060333,"Mon 05:00-22:00, Tue 05:00-22:00, Wed 05:00-22:00, Thu 05:00-22:00, Fri 05:00-22:00, Sat 05:00-22:00, Sun 05:00-22:00",,,
Baskin Robbins,335684,1250 Truman Baker Dr,,Searcy,AR,72143,US,501-305-2676,35.234786,-91.698677,"Mon 11:00-22:00, Tue 11:00-22:00, Wed 11:00-22:00, Thu 11:00-22:00, Fri 11:00-22:00, Sat 11:00-22:00, Sun 11:00-22:00",,,
Baskin Robbins,361212,950 Herndon Ave Ste 107,Trading Post Shopping Ctr,Clovis,CA,93612,US,559-323-4848,36.837537,-119.698801,"Mon 11:00-22:00, Tue 11:00-22:00, Wed 11:00-22:00, Thu 11:00-22:00, Fri 11:00-22:00, Sat 11:00-22:00, Sun 11:00-22:00",,,
Baskin Robbins,333518,1666 Bissell Ave,Bldg 82301,Fort Huachuca,AZ,85613,US,520-459-4275,31.54927,-110.354149,"Mon 11:00-20:00, Tue 11:00-20:00, Wed 11:00-20:00, Thu 11:00-20:00, Fri 11:00-20:00, Sat 11:00-20:00, Sun 11:00-20:00",,,
Baskin Robbins,361873,510 S Boulder Hwy,,Henderson,NV,89015,US,702-564-7482,36.034489,-114.976112,"Mon 11:00-22:00, Tue 11:00-22:00, Wed 11:00-22:00, Thu 11:00-22:00, Fri 11:00-22:00, Sat 11:00-22:00, Sun 11:00-22:00",,,
Baskin Robbins,335473,10604 S Eastern Ave,,Henderson,NV,89052,US,702-896-5674,35.996963,-115.101705,"Mon 11:00-22:00, Tue 11:00-22:00, Wed 11:00-22:00, Thu 11:00-22:00, Fri 11:00-22:00, Sat 11:00-22:00, Sun 11:00-22:00",,,
Baskin Robbins,356105,2300 Paseo Verde Parkway,GVR Food Court,Henderson,NV,89052,US,702-489-4281,36.020683,-115.09008,"Mon 10:00-23:00, Tue 10:00-23:00, Wed 10:00-23:00, Thu 10:00-23:00, Fri 10:00-01:00, Sat 10:00-01:00, Sun 10:00-23:00",,,
Baskin Robbins,310419,4640 E Sunset Rd,,Henderson,NV,89014,US,702-458-1108,36.071037,-115.072413,"Mon 11:00-22:00, Tue 11:00-22:00, Wed 11:00-22:00, Thu 11:00-22:00, Fri 11:00-22:00, Sat 11:00-22:00, Sun 11:00-22:00",,,
Baskin Robbins,361870,4860 S Eastern Ave,,Las Vegas,NV,89119,US,702-451-4976,36.100843,-115.118752,"Mon 11:00-22:00, Tue 11:00-22:00, Wed 11:00-22:00, Thu 11:00-22:00, Fri 11:00-22:00, Sat 11:00-22:00, Sun 11:00-22:00",,,
Baskin Robbins,361214,4420 E Charleston Blvd,Ste 1,Las Vegas,NV,89104,US,702-459-6925,36.159072,-115.078174,"Mon 11:00-22:00, Tue 11:00-22:00, Wed 11:00-22:00, Thu 11:00-22:00, Fri 11:00-22:00, Sat 11:00-22:00, Sun 11:00-22:00",,,
Baskin Robbins,346484,4360 Blue Diamond Rd,Suite 106,Las Vegas,NV,89139,US,702-269-0091,36.040535,-115.19021,"Mon 11:00-22:00, Tue 11:00-22:00, Wed 11:00-22:00, Thu 11:00-22:00, Fri 11:00-22:00, Sat 11:00-22:00, Sun 11:00-22:00",,,
Baskin Robbins,347634,4500 W. Tropicana Ave,The Orleans Hotel and Casino,Las Vegas,NV,89103,US,702-365-7111,36.102147,-115.201637,"Mon 11:00-23:00, Tue 11:00-23:00, Wed 11:00-23:00, Thu 11:00-23:00, Fri 11:00-00:00, Sat 11:00-00:00, Sun 11:00-23:00",,,
Baskin Robbins,361871,3301 S Jones Blvd,,Las Vegas,NV,89146,US,702-362-3177,36.128946,-115.225069,"Mon 10:00-22:00, Tue 10:00-22:00, Wed 10:00-22:00, Thu 10:00-22:00, Fri 10:00-22:00, Sat 10:00-22:00, Sun 10:00-22:00",,,
Baskin Robbins,352260,5515 Camino Al Norte,Suite 110,North Las Vegas,NV,89031,US,702-910-3131,36.26003,-115.155947,"Mon 11:00-22:00, Tue 11:00-22:00, Wed 11:00-22:00, Thu 11:00-22:00, Fri 11:00-22:00, Sat 11:00-22:00, Sun 11:00-22:00",,,
Baskin Robbins,361223,4906 W Lone Mountain Rd #A105,,Las Vegas,NV,89130,US,702-655-8834,36.246894,-115.209405,"Mon 11:00-22:00, Tue 11:00-22:00, Wed 11:00-22:00, Thu 11:00-22:00, Fri 11:00-22:00, Sat 11:00-22:00, Sun 11:00-22:00",,,
Baskin Robbins,330698,9151 W. Sahara Ave,,Las Vegas,NV,89117,US,702-256-8831,36.144163,-115.295004,"Mon 10:30-22:00, Tue 10:30-22:00, Wed 10:30-22:00, Thu 10:30-22:00, Fri 10:30-23:00, Sat 10:30-23:00, Sun 10:30-22:00",,,
Baskin Robbins,342370,6454 Sky Pointe Dr,Suite 110,Las Vegas,NV,89131,US,702-880-8801,36.277639,-115.263037,"Mon 11:00-22:00, Tue 11:00-22:00, Wed 11:00-22:00, Thu 11:00-22:00, Fri 11:00-22:00, Sat 11:00-22:00, Sun 11:00-22:00",,,
Baskin Robbins,335411,3935 Lawrenceville Hwy,,Lilburn,GA,30047,US,770-921-8669,33.906138,-84.112184,"Mon 05:00-22:00, Tue 05:00-22:00, Wed 05:00-22:00, Thu 05:00-22:00, Fri 05:00-22:00, Sat 06:00-22:00, Sun 06:00-22:00",,,
Baskin Robbins,360927,3720 Hardy St,,Hattiesburg,MS,39402,US,601-264-8989,31.324738,-89.344231,"Mon 11:00-22:00, Tue 11:00-22:00, Wed 11:00-22:00, Thu 11:00-22:00, Fri 11:00-22:00, Sat 11:00-22:00, Sun 11:00-22:00",,,
Baskin Robbins,302564,3435 Peachtree Industrial Blvd,,Duluth,GA,30096,US,678-206-0576,34.006894,-84.170442,"Mon 05:00-23:00, Tue 05:00-23:00, Wed 05:00-23:00, Thu 05:00-23:00, Fri 05:00-23:00, Sat 05:00-23:00, Sun 06:00-23:00",,,
Baskin Robbins,307881,3725 Club Dr,,Duluth,GA,30096,US,770-564-2783,33.942229,-84.127685,"Mon 05:00-22:00, Tue 05:00-22:00, Wed 05:00-22:00, Thu 05:00-22:00, Fri 05:00-22:30, Sat 06:00-22:30, Sun 06:00-22:00",,,
Baskin Robbins,332489,Highway 75 & Highway 32,Water Valley Gas Mart,Water Valley,MS,38965,US,601-473-2222,34.06618,-89.49708,"Mon 11:00-22:00, Tue 11:00-22:00, Wed 11:00-22:00, Thu 11:00-22:00, Fri 11:00-22:00, Sat 11:00-22:00, Sun 11:00-22:00",,,
Baskin Robbins,344368,4850 Hwy 17,,Pickens,MS,39146,US,662-472-2674,32.836062,-89.906898,"Mon 11:00-22:00, Tue 11:00-22:00, Wed 11:00-22:00, Thu 11:00-22:00, Fri 11:00-22:00, Sat 11:00-22:00, Sun 11:00-22:00",,,
Baskin Robbins,340639,6504 Ringgold Rd,,East Ridge,TN,37412,US,423-531-3911,34.989379,-85.209016,"Mon 11:00-22:00, Tue 11:00-22:00, Wed 11:00-22:00, Thu 11:00-22:00, Fri 11:00-22:00, Sat 11:00-22:00, Sun 11:00-22:00",,,
Baskin Robbins,351323,1942 Atkinson Rd,Ste 900,Lawrenceville,GA,30043,US,770-339-0011,33.977536,-84.080089,"Mon 05:00-22:00, Tue 05:00-22:00, Wed 05:00-22:00, Thu 05:00-22:00, Fri 05:00-23:00, Sat 06:00-23:00, Sun 06:00-22:00",,,
Baskin Robbins,362271,3153 Highway 278 NE,Newton Plaza,Covington,GA,30014,US,678-342-6888,33.602945,-83.858217,"Mon 05:00-23:00, Tue 05:00-23:00, Wed 05:00-23:00, Thu 05:00-23:00, Fri 05:00-23:00, Sat 05:00-23:00, Sun 05:00-23:00",,,
Baskin Robbins,348387,645 Holly Bush Rd,,Brandon,MS,39047,US,601-829-0211,32.399514,-89.946392,"Mon 10:00-22:00, Tue 10:00-22:00, Wed 10:00-22:00, Thu 10:00-22:00, Fri 10:00-22:00, Sat 10:00-20:00, Sun 11:00-18:00",,,
Baskin Robbins,360894,6990 E Brainerd Rd,,Chattanooga,TN,37421,US,423-892-5131,35.01793,-85.173029,"Mon 11:00-22:00, Tue 11:00-22:00, Wed 11:00-22:00, Thu 11:00-22:00, Fri 11:00-22:00, Sat 11:00-22:00, Sun 11:00-22:00",,,
Baskin Robbins,340542,3111 Watson Blvd,,Warner Robins,GA,31093,US,478-953-1333,32.616588,-83.694446,"Mon 05:00-22:00, Tue 05:00-22:00, Wed 05:00-22:00, Thu 05:00-22:00, Fri 05:00-23:00, Sat 05:00-23:00, Sun 05:00-22:00",,,
Baskin Robbins,307475,121 Tom Hill Sr Blvd,,Macon,GA,31210,US,478-475-0770,32.900274,-83.687737,"Mon 05:00-22:00, Tue 05:00-22:00, Wed 05:00-22:00, Thu 05:00-22:00, Fri 05:00-23:00, Sat 05:00-23:00, Sun 05:00-22:00",,,
Baskin Robbins,353762,1911 Highway 471,Lakeside Foodmart,Brandon,MS,39047,US,601-829-4433,32.366146,-89.968214,"Mon 11:00-22:00, Tue 11:00-22:00, Wed 11:00-22:00, Thu 11:00-22:00, Fri 11:00-22:00, Sat 11:00-22:00, Sun 11:00-22:00",,,
Baskin Robbins,350499,625 Signal Mountain Rd,,Chattanooga,TN,37405,US,423-490-9931,35.122833,-85.350209,"Mon 11:00-22:00, Tue 11:00-22:00, Wed 11:00-22:00, Thu 11:00-22:00, Fri 11:00-22:00, Sat 11:00-22:00, Sun 11:00-22:00",,,
Baskin Robbins,345162,3701 Camden Rd,,Pine Bluff,AR,71603,US,870-879-0699,34.197262,-92.053905,"Mon 11:00-22:00, Tue 11:00-22:00, Wed 11:00-22:00, Thu 11:00-22:00, Fri 11:00-22:00, Sat 11:00-22:00, Sun 11:00-22:00",,,
Baskin Robbins,338714,408 E. 22nd St,Citgo/Stuttgart One Stop,Stuttgart,AR,72160,US,870-673-4445,34.478968,-91.548278,"Mon 11:00-22:00, Tue 11:00-22:00, Wed 11:00-22:00, Thu 11:00-22:00, Fri 11:00-22:00, Sat 11:00-22:00, Sun 11:00-22:00",,,
Baskin Robbins,348366,1414 N. Main St,,Brinkley,AR,72021,US,870-734-1124,34.906611,-91.197662,"Mon 11:00-22:00, Tue 11:00-22:00, Wed 11:00-22:00, Thu 11:00-22:00, Fri 11:00-22:00, Sat 11:00-22:00, Sun 11:00-22:00",,,
Baskin Robbins,351762,104 N 1st St,,Glenwood,AR,71943,US,870-356-2770,34.326198,-93.551361,"Mon 11:00-22:00, Tue 11:00-22:00, Wed 11:00-22:00, Thu 11:00-22:00, Fri 11:00-22:00, Sat 11:00-22:00, Sun 11:00-22:00",,,
Baskin Robbins,347238,1509 S. Saint Louis St,,Batesville,AR,72501,US,870-793-4316,35.764547,-91.641375,"Mon 11:00-22:00, Tue 11:00-22:00, Wed 11:00-22:00, Thu 11:00-22:00, Fri 11:00-22:00, Sat 11:00-22:00, Sun 11:00-22:00",,,
Baskin Robbins,346649,701 Highway 65 S,,Dumas,AR,71639,US,870-382-2165,33.877529,-91.481843,"Mon 11:00-22:00, Tue 11:00-22:00, Wed 11:00-22:00, Thu 11:00-22:00, Fri 11:00-22:00, Sat 11:00-22:00, Sun 11:00-22:00",,,
Baskin Robbins,353118,104 E 13th St,,Murfreesboro,AR,71958,US,870-285-2719,34.070429,-93.68861,"Mon 11:00-22:00, Tue 11:00-22:00, Wed 11:00-22:00, Thu 11:00-22:00, Fri 11:00-22:00, Sat 11:00-22:00, Sun 11:00-22:00",,,
Baskin Robbins,348881,2319 N Washington St,Circle N Exxon #100,Forrest City,AR,72335,US,870-633-2545,35.031207,-90.789704,"Mon 11:00-22:00, Tue 11:00-22:00, Wed 11:00-22:00, Thu 11:00-22:00, Fri 11:00-22:00, Sat 11:00-22:00, Sun 11:00-22:00",,,
Baskin Robbins,332326,988 S. Falls Blvd,,Wynne,AR,72396,US,870-238-3714,35.21622,-90.786927,"Mon 11:00-22:00, Tue 11:00-22:00, Wed 11:00-22:00, Thu 11:00-22:00, Fri 11:00-22:00, Sat 11:00-22:00, Sun 11:00-22:00",,,
Baskin Robbins,355779,3052 Highway 62,Suite 30,Mountain Home,AR,72653,US,870-492-4920,36.350426,-92.3681,"Mon 10:30-22:00, Tue 10:30-22:00, Wed 10:30-22:00, Thu 10:30-22:00, Fri 10:00-23:00, Sat 10:00-23:00, Sun 11:30-22:00",,,
Baskin Robbins,332218,901 Highway 71 N,,Mena,AR,71953,US,479-394-0363,34.586263,-94.222322,"Mon 11:00-22:00, Tue 11:00-22:00, Wed 11:00-22:00, Thu 11:00-22:00, Fri 11:00-22:00, Sat 11:00-22:00, Sun 11:00-22:00",,,
Baskin Robbins,355885,921 W Center St,,Greenwood,AR,72936,US,479-252-6556,35.21697,-94.27138,"Mon 10:00-22:00, Tue 10:00-22:00, Wed 10:00-22:00, Thu 10:00-22:00, Fri 10:00-23:00, Sat 10:00-23:00, Sun 10:00-22:00",,,
Baskin Robbins,334919,1615 N. Hervey,Exxon Super Station,Hope,AR,71801,US,870-777-7662,33.680184,-93.606231,"Mon 11:00-22:00, Tue 11:00-22:00, Wed 11:00-22:00, Thu 11:00-22:00, Fri 11:00-22:00, Sat 11:00-22:00, Sun 11:00-22:00",,,
Baskin Robbins,336510,7685 N. Blackstone Avenue,,Fresno,CA,93720,US,559-438-8790,36.847732,-119.791397,"Mon 11:00-22:00, Tue 11:00-22:00, Wed 11:00-22:00, Thu 11:00-22:00, Fri 11:00-22:00, Sat 11:00-22:00, Sun 11:00-22:00",,,
Baskin Robbins,361156,6648 N Cedar Ave,,Fresno,CA,93710,US,559-299-2939,36.834787,-119.753128,"Mon 11:00-22:00, Tue 11:00-22:00, Wed 11:00-22:00, Thu 11:00-22:00, Fri 11:00-22:00, Sat 11:00-22:00, Sun 11:00-22:00",,,
Baskin Robbins,361040,5711 N. 1st St,,Fresno,CA,93710,US,559-431-0781,36.821434,-119.771833,"Mon 11:00-22:00, Tue 11:00-22:00, Wed 11:00-22:00, Thu 11:00-22:00, Fri 11:00-22:00, Sat 11:00-22:00, Sun 11:00-22:00",,,
Baskin Robbins,332096,1928 Clovis Ave,,Clovis,CA,93612,US,559-298-3435,36.80894,-119.701498,"Mon 10:00-22:00, Tue 10:00-22:00, Wed 10:00-22:00, Thu 10:00-22:00, Fri 10:00-22:00, Sat 10:00-22:00, Sun 10:00-22:00",,,
Baskin Robbins,361073,1731 W Bullard Ave,Ste 136,Fresno,CA,93711,US,559-431-0206,36.822536,-119.824727,"Mon 11:00-22:00, Tue 11:00-22:00, Wed 11:00-22:00, Thu 11:00-22:00, Fri 11:00-22:00, Sat 11:00-22:00, Sun 11:00-22:00",,,
Baskin Robbins,349439,2180 W Cleveland Ave,,Madera,CA,93637,US,559-673-3100,36.97379,-120.08086,"Mon 11:00-22:00, Tue 11:00-22:00, Wed 11:00-22:00, Thu 11:00-22:00, Fri 10:00-22:00, Sat 10:00-22:00, Sun 10:00-22:00",,,
Baskin Robbins,354605,645 E Shaw Ave #KK3,,Fresno,CA,93710,US,559-241-0144,36.806931,-119.775893,"Mon 10:00-21:00, Tue 10:00-21:00, Wed 10:00-21:00, Thu 10:00-21:00, Fri 10:00-21:00, Sat 10:00-21:00, Sun 11:00-19:00",,,
Baskin Robbins,332453,3183 W Shaw Ave,,Fresno,CA,93711,US,559-229-3131,36.807923,-119.84869,"Mon 11:00-22:00, Tue 11:00-22:00, Wed 11:00-22:00, Thu 11:00-22:00, Fri 11:00-22:00, Sat 11:00-22:00, Sun 11:00-22:00",,,
Baskin Robbins,361026,3002 N Cedar Ave,,Fresno,CA,93703,US,559-222-1612,36.778001,-119.753955,"Mon 11:00-22:00, Tue 11:00-22:00, Wed 11:00-22:00, Thu 11:00-22:00, Fri 11:00-22:00, Sat 11:00-22:00, Sun 11:00-22:00",,,
Baskin Robbins,360128,310 E Shields Ave,,Fresno,CA,93704,US,559-227-7013,36.779277,-119.808514,"Mon 10:00-22:00, Tue 10:00-22:00, Wed 10:00-22:00, Thu 10:00-22:00, Fri 10:00-22:00, Sat 10:00-22:00, Sun 10:00-22:00",,,
Baskin Robbins,353818,4425 W Ashlan Ave,Suite #105,Fresno,CA,93722,US,559-271-0310,36.793019,-119.871989,"Mon 10:00-22:00, Tue 10:00-22:00, Wed 10:00-22:00, Thu 10:00-22:00, Fri 10:00-22:00, Sat 10:00-22:00, Sun 10:00-22:00",,,
Baskin Robbins,348752,5150 E Kings Canyon Rd,Peachtree Plaza,Fresno,CA,93727,US,559-252-3131,36.73559,-119.720492,"Mon 10:00-22:00, Tue 10:00-22:00, Wed 10:00-22:00, Thu 10:00-22:00, Fri 10:00-22:00, Sat 10:00-22:00, Sun 10:00-22:00",,,
Baskin Robbins,353019,585 I St,,Reedley,CA,93654,US,559-638-3555,36.601258,-119.460737,"Mon 10:00-22:00, Tue 10:00-22:00, Wed 10:00-22:00, Thu 10:00-22:00, Fri 10:00-22:00, Sat 10:00-22:00, Sun 10:00-22:00",,,
Baskin Robbins,362111,78520 Highway 111,,La Quinta,CA,92253,US,760-625-1263,33.714807,-116.294316,,,,
Baskin Robbins,362112,31375 Date Palm Dr,Ste G,Cathedral City,CA,92234,US,760-324-8188,33.840156,-116.458485,"Mon 11:00-22:00, Tue 11:00-22:00, Wed 11:00-22:00, Thu 11:00-22:00, Fri 11:00-22:00, Sat 11:00-22:00, Sun 11:00-22:00",,,
Baskin Robbins,333528,Langford Lake Rd,Bldg 918,Fort Irwin,CA,92310,US,337-537-3540,35.264695,-116.69857,"Mon 11:00-20:00, Tue 11:00-20:00, Wed 11:00-20:00, Thu 11:00-20:00, Fri 11:00-20:00, Sat 11:00-20:00, Sun 11:00-20:00",,,
Baskin Robbins,355092,300 S Highland Springs Ave,Suite 8C,Banning,CA,92220,US,951-769-1891,33.924297,-116.945051,"Mon 11:00-22:00, Tue 11:00-22:00, Wed 11:00-22:00, Thu 11:00-22:00, Fri 11:00-22:00, Sat 11:00-22:00, Sun 11:00-22:00",,,
Baskin Robbins,362089,1881 E Florida Ave,,Hemet,CA,92544,US,951-766-1911,33.747594,-116.952317,"Mon 11:00-21:00, Tue 11:00-21:00, Wed 11:00-21:00, Thu 11:00-21:00, Fri 11:00-21:00, Sat 11:00-21:00, Sun 11:00-21:00",,,
Baskin Robbins,341547,3503 W Stetson Ave,"Building 10ab, Unit G",Hemet,CA,92545,US,951-929-9862,33.729496,-117.006887,"Mon 11:00-21:00, Tue 11:00-21:00, Wed 11:00-21:00, Thu 11:00-21:00, Fri 11:00-21:00, Sat 11:00-21:00, Sun 11:00-21:00",,,
Baskin Robbins,353652,1410 Main St,,Ramona,CA,92065,US,760-789-0210,33.03823,-116.875205,"Mon 05:00-22:00, Tue 05:00-22:00, Wed 05:00-22:00, Thu 05:00-22:00, Fri 05:00-22:00, Sat 05:00-22:00, Sun 05:00-22:00",,,
Baskin Robbins,360067,405a E State St,,Redlands,CA,92373,US,909-792-4322,34.056737,-117.178295,"Mon 11:00-22:00, Tue 11:00-22:00, Wed 11:00-22:00, Thu 11:00-22:00, Fri 11:00-22:00, Sat 11:00-22:00, Sun 11:00-22:00",,,
Baskin Robbins,362107,7247 Boulder Ave,Spc A3,Highland,CA,92346,US,909-425-0329,34.122075,-117.195655,,,,
Baskin Robbins,342889,12285 Apple Valley Rd,,Apple Valley,CA,92307,US,760-240-1305,34.471199,-117.242195,"Mon 11:00-20:00, Tue 11:00-20:00, Wed 11:00-20:00, Thu 11:00-20:00, Fri 11:00-20:00, Sat 11:00-20:00, Sun 11:00-20:00",,,
Baskin Robbins,348397,30080 Haun Rd.,Countryside Marketplace,Menifee,CA,92584,US,951-301-1300,33.683535,-117.174955,"Mon 11:00-22:00, Tue 11:00-22:00, Wed 11:00-22:00, Thu 11:00-22:00, Fri 11:00-22:00, Sat 11:00-22:00, Sun 11:00-22:00",,,
Baskin Robbins,361356,2340 N Sterling Ave,,San Bernardino,CA,92404,US,909-886-1831,34.137178,-117.243865,,,,
Baskin Robbins,336163,26580 Ynez Rd. Unit C,,Temecula,CA,92591,US,951-296-0432,33.522249,-117.156696,"Mon 10:00-22:00, Tue 10:00-22:00, Wed 10:00-22:00, Thu 10:00-22:00, Fri 10:00-22:00, Sat 10:00-22:00, Sun 10:00-22:00",,,
Baskin Robbins,362129,1688 N. Perris Blvd,Suite D1,Perris,CA,92571,US,951-943-7744,33.802535,-117.225888,"Mon 11:00-22:00, Tue 11:00-22:00, Wed 11:00-22:00, Thu 11:00-22:00, Fri 11:00-22:00, Sat 11:00-22:30, Sun 11:00-22:30",,,
Baskin Robbins,352332,328 N 2nd St,,El Cajon,CA,92021,US,619-579-3131,32.798284,-116.935949,"Mon 10:00-22:00, Tue 10:00-22:00, Wed 10:00-22:00, Thu 10:00-22:00, Fri 10:00-22:00, Sat 10:00-22:00, Sun 10:00-22:00",,,
Baskin Robbins,336781,2100 Hamilton Place Blvd.,,Chattanooga,TN,37421,US,423-893-0505,35.034097,-85.158701,"Mon 11:00-22:00, Tue 11:00-22:00, Wed 11:00-22:00, Thu 11:00-22:00, Fri 11:00-22:00, Sat 11:00-22:00, Sun 11:00-22:00",,,
Baskin Robbins,331009,1165 Buford Hwy,,Cumming,GA,30041,US,770-781-5805,34.174132,-84.127508,"Mon 05:00-22:00, Tue 05:00-22:00, Wed 05:00-22:00, Thu 05:00-22:00, Fri 05:00-22:00, Sat 05:30-22:00, Sun 05:30-22:00",,,
Baskin Robbins,355196,3097 Highway 13 North,,Mendenhall,MS,39114,US,601-847-7052,31.978056,-89.876577,"Mon 05:00-23:00, Tue 05:00-23:00, Wed 05:00-23:00, Thu 05:00-23:00, Fri 05:00-23:00, Sat 05:00-23:00, Sun 06:00-22:00",,,
Baskin Robbins,360878,4795 Hwy 58,Taylor Plaza,Chattanooga,TN,37416,US,423-894-5931,35.089302,-85.187936,"Mon 11:00-22:00, Tue 11:00-22:00, Wed 11:00-22:00, Thu 11:00-22:00, Fri 11:00-22:00, Sat 11:00-22:00, Sun 11:00-22:00",,,
Baskin Robbins,338629,4152 Atlanta Hwy,,Loganville,GA,30052,US,470-359-5920,33.830497,-83.871586,"Mon 05:00-22:00, Tue 05:00-22:00, Wed 05:00-22:00, Thu 05:00-22:00, Fri 05:00-23:00, Sat 05:00-23:00, Sun 06:00-22:00",,,
Baskin Robbins,348490,1291 W. Government St,,Brandon,MS,39042,US,601-824-2461,32.28286,-90.009169,"Mon 11:00-22:00, Tue 11:00-22:00, Wed 11:00-22:00, Thu 11:00-22:00, Fri 11:00-22:00, Sat 11:00-22:00, Sun 11:00-22:00",,,
Baskin Robbins,332011,4450K Nelson Blogden Blvd,,Sugar Hill,GA,30518,US,770-271-4200,34.096567,-84.015265,"Mon 05:00-22:00, Tue 05:00-22:00, Wed 05:00-22:00, Thu 05:00-22:00, Fri 05:00-22:00, Sat 06:00-22:00, Sun 06:00-22:00",,,
Baskin Robbins,355502,2030 Sunset Dr,,Grenada,MS,38901,US,662-226-5252,33.786156,-89.85007,"Mon 11:00-22:00, Tue 11:00-22:00, Wed 11:00-22:00, Thu 11:00-22:00, Fri 11:00-22:00, Sat 11:00-22:00, Sun 11:00-22:00",,,
Baskin Robbins,356446,5657 Highway 25,,Flowood,MS,39232,US,601-919-9736,32.350903,-90.03036,"Mon 10:00-23:00, Tue 10:00-23:00, Wed 10:00-23:00, Thu 10:00-23:00, Fri 10:00-23:00, Sat 10:00-23:00, Sun 10:00-23:00",,,
Baskin Robbins,345315,1534 W. Peace St,,Canton,MS,39046,US,601-855-2285,32.607219,-90.066346,"Mon 11:00-22:00, Tue 11:00-22:00, Wed 11:00-22:00, Thu 11:00-22:00, Fri 11:00-22:00, Sat 11:00-22:00, Sun 11:00-22:00",,,
Baskin Robbins,332763,1100 Wayne Rd,,Savannah,TN,38372,US,731-925-2604,35.225147,-88.243588,"Mon 11:00-22:00, Tue 11:00-22:00, Wed 11:00-22:00, Thu 11:00-22:00, Fri 11:00-22:00, Sat 11:00-22:00, Sun 11:00-22:00",,,
Baskin Robbins,344321,Hwy 7 South,,Oxford,MS,38655,US,662-513-0156,34.343206,-89.512298,"Mon 11:00-22:00, Tue 11:00-22:00, Wed 11:00-22:00, Thu 11:00-22:00, Fri 11:00-22:00, Sat 11:00-22:00, Sun 11:00-22:00",,,
Baskin Robbins,348491,137 Yandell Rd,,Canton,MS,39046,US,601-898-8399,32.512603,-90.08278,"Mon 11:00-22:00, Tue 11:00-22:00, Wed 11:00-22:00, Thu 11:00-22:00, Fri 11:00-22:00, Sat 11:00-22:00, Sun 11:00-22:00",,,
Baskin Robbins,354830,1200 W 23rd St,,Panama City,FL,32405,US,850-640-3023,30.190149,-85.680379,"Mon 05:00-22:00, Tue 05:00-22:00, Wed 05:00-22:00, Thu 05:00-22:00, Fri 05:00-22:00, Sat 05:00-22:00, Sun 05:00-22:00",,,
Baskin Robbins,356498,1735 W Hillsboro St,,El Dorado,AR,71730,US,870-862-9999,33.207199,-92.685827,"Mon 10:00-22:00, Tue 10:00-22:00, Wed 10:00-22:00, Thu 10:00-22:00, Fri 10:00-23:00, Sat 10:00-23:00, Sun 11:00-22:00",,,
Baskin Robbins,336354,1853 East Highland,,Jonesboro,AR,72401,US,870-932-0088,35.820844,-90.682886,"Mon 11:00-22:00, Tue 11:00-22:00, Wed 11:00-22:00, Thu 11:00-22:00, Fri 11:00-22:00, Sat 11:00-22:00, Sun 11:00-22:00",,,
Baskin Robbins,343127,800 E Collin Raye Dr,,De Queen,AR,71832,US,870-642-7860,34.045499,-94.327744,"Mon 11:00-22:00, Tue 11:00-22:00, Wed 11:00-22:00, Thu 11:00-22:00, Fri 11:00-22:00, Sat 11:00-22:00, Sun 11:00-22:00",,,
Baskin Robbins,348560,736 Highway 65 & 82,,Lake Village,AR,71653,US,870-265-3202,33.3672,-91.30058,"Mon 11:00-22:00, Tue 11:00-22:00, Wed 11:00-22:00, Thu 11:00-22:00, Fri 11:00-22:00, Sat 11:00-22:00, Sun 11:00-22:00",,,
Baskin Robbins,335883,647 Highway 67 S,,Pocahontas,AR,72455,US,870-248-9315,36.252709,-90.966533,"Mon 11:00-22:00, Tue 11:00-22:00, Wed 11:00-22:00, Thu 11:00-22:00, Fri 11:00-22:00, Sat 11:00-22:00, Sun 11:00-22:00",,,
Baskin Robbins,332219,300 N. Davis Ave,,Cleveland,MS,38732,US,662-843-6220,33.747637,-90.715734,"Mon 11:00-22:00, Tue 11:00-22:00, Wed 11:00-22:00, Thu 11:00-22:00, Fri 11:00-22:00, Sat 11:00-22:00, Sun 11:00-22:00",,,
Baskin Robbins,332424,3148 Interstate 55,,Marion,AR,72364,US,870-739-4527,35.2108,-90.206707,"Mon 11:00-22:00, Tue 11:00-22:00, Wed 11:00-22:00, Thu 11:00-22:00, Fri 11:00-22:00, Sat 11:00-22:00, Sun 11:00-22:00",,,
Baskin Robbins,345369,4012 Elvis Presley Blvd,,Memphis,TN,38116,US,901-395-8531,35.038957,-90.025019,"Mon 11:00-22:00, Tue 11:00-22:00, Wed 11:00-22:00, Thu 11:00-22:00, Fri 11:00-22:00, Sat 11:00-22:00, Sun 11:00-22:00",,,
Baskin Robbins,343450,1680 Union Ave,Suite 115,Memphis,TN,38104,US,901-272-3131,35.13582,-90.005447,"Mon 11:00-22:00, Tue 11:00-22:00, Wed 11:00-22:00, Thu 11:00-22:00, Fri 11:00-22:00, Sat 11:00-22:00, Sun 11:00-22:00",,,
Baskin Robbins,342949,7075 Malco Blvd,Suite 13,Southaven,MS,38671,US,662-349-4431,34.96446,-89.984797,"Mon 11:00-22:00, Tue 11:00-22:00, Wed 11:00-22:00, Thu 11:00-22:00, Fri 11:00-22:00, Sat 11:00-22:00, Sun 11:00-22:00",,,
Baskin Robbins,345368,85 S. Highland St,,Memphis,TN,38111,US,901-458-6031,35.129585,-89.945244,"Mon 10:30-22:00, Tue 10:30-22:00, Wed 10:30-22:00, Thu 10:30-22:00, Fri 10:30-22:30, Sat 10:30-22:30, Sun 12:00-22:00",,,
Baskin Robbins,360860,4307 Summer Ave,,Memphis,TN,38122,US,901-767-8368,35.148675,-89.917451,"Mon 11:00-22:00, Tue 11:00-22:00, Wed 11:00-22:00, Thu 11:00-22:00, Fri 11:00-22:00, Sat 11:00-22:00, Sun 12:00-22:00",,,
Baskin Robbins,350299,5150 Poplar Ave,,Memphis,TN,38117,US,901-766-9903,35.110366,-89.890534,"Mon 05:00-22:00, Tue 05:00-22:00, Wed 05:00-22:00, Thu 05:00-22:00, Fri 05:00-22:00, Sat 05:00-22:00, Sun 05:00-22:00",,,
Baskin Robbins,332221,4610 W Keiser Ave,,Osceola,AR,72370,US,870-563-4298,35.698237,-90.049745,"Mon 11:00-22:00, Tue 11:00-22:00, Wed 11:00-22:00, Thu 11:00-22:00, Fri 11:00-22:00, Sat 11:00-22:00, Sun 11:00-22:00",,,
Baskin Robbins,362246,3330 Floral Ave,,Selma,CA,93662,US,559-891-9031,36.576375,-119.631355,"Mon 10:30-22:00, Tue 10:30-22:00, Wed 10:30-22:00, Thu 10:30-22:00, Fri 10:30-22:00, Sat 10:30-22:00, Sun 10:30-22:00",,,
Baskin Robbins,361038,293 Merced Mall,,Merced,CA,95348,US,209-722-1291,37.322195,-120.484906,"Mon 11:00-22:00, Tue 11:00-22:00, Wed 11:00-22:00, Thu 11:00-22:00, Fri 11:00-22:00, Sat 11:00-22:00, Sun 11:00-22:00",,,
Baskin Robbins,347636,700 E. El Monte Way,Suite D,Dinuba,CA,93618,US,559-591-2927,36.545898,-119.402047,"Mon 11:00-22:00, Tue 11:00-22:00, Wed 11:00-22:00, Thu 11:00-22:00, Fri 11:00-22:00, Sat 11:00-22:00, Sun 11:00-22:00",,,
Baskin Robbins,346072,1607 Bellevue Rd,,Atwater,CA,95301,US,209-358-7888,37.360488,-120.610293,"Mon 11:00-22:00, Tue 11:00-22:00, Wed 11:00-22:00, Thu 11:00-22:00, Fri 11:00-22:00, Sat 11:00-22:00, Sun 11:00-22:00",,,
Baskin Robbins,361076,533 N. 11th Ave,,Hanford,CA,93230,US,559-583-8600,36.330608,-119.65493,"Mon 11:00-22:00, Tue 11:00-22:00, Wed 11:00-22:00, Thu 11:00-22:00, Fri 11:00-22:00, Sat 11:00-22:00, Sun 11:00-22:00",,,
Baskin Robbins,355101,5125 W Goshen Ave,,Visalia,CA,93291,US,559-636-8934,36.340157,-119.348105,"Mon 11:00-22:00, Tue 11:00-22:00, Wed 11:00-22:00, Thu 11:00-22:00, Fri 11:00-22:00, Sat 11:00-22:00, Sun 10:30-22:00",,,
Baskin Robbins,362114,1247 E Valley Pkwy,Escondido Village Mall,Escondido,CA,92027,US,760-741-3100,33.130794,-117.066041,,,,
Baskin Robbins,360030,202 E. Highland Ave,,San Bernardino,CA,92404,US,909-883-1881,34.135937,-117.282589,"Mon 11:00-22:00, Tue 11:00-22:00, Wed 11:00-22:00, Thu 11:00-22:00, Fri 11:00-22:00, Sat 11:00-22:00, Sun 11:00-22:00",,,
Baskin Robbins,362094,12625 Frederick St,Ste W3,Moreno Valley,CA,92553,US,951-653-3310,33.938618,-117.263652,,,,
Baskin Robbins,352794,16922 Main St,Suite H,Hesperia,CA,92345,US,760-949-0342,34.420657,-117.294033,"Mon 11:00-21:00, Tue 11:00-21:00, Wed 11:00-21:00, Thu 11:00-21:00, Fri 11:00-21:00, Sat 11:00-21:00, Sun 11:00-21:00",,,
Baskin Robbins,354901,200 E Via Rancho Parkway,Space 9024,Escondido,CA,92025,US,760-294-3434,33.071406,-117.066433,"Mon 10:00-21:00, Tue 10:00-21:00, Wed 10:00-21:00, Thu 10:00-21:00, Fri 10:00-21:00, Sat 10:00-21:00, Sun 11:00-19:00",,,
Baskin Robbins,354764,9665 Mission Gorge Rd,B-1,Santee,CA,92071,US,619-328-1531,32.837496,-116.986424,"Mon 10:00-22:00, Tue 10:00-22:00, Wed 10:00-22:00, Thu 10:00-22:00, Fri 10:00-22:00, Sat 10:00-22:00, Sun 10:00-22:00",,,
Baskin Robbins,346677,13477 Poway Rd,Suite 601,Poway,CA,92064,US,858-486-3131,32.956383,-117.03879,"Mon 10:00-22:00, Tue 10:00-23:00, Wed 10:00-23:00, Thu 10:00-23:00, Fri 10:00-23:00, Sat 10:00-23:00, Sun 10:00-22:00",,,
Baskin Robbins,362093,730 Nordahl Rd,Ste 101,San Marcos,CA,92069,US,760-489-0878,33.134101,-117.120213,,,,
Baskin Robbins,343909,29991 Canyon Hills Rd,Suite 1706,Lake Elsinore,CA,92532,US,951-244-6222,33.668331,-117.263653,"Mon 11:00-22:00, Tue 11:00-22:00, Wed 11:00-22:00, Thu 11:00-22:00, Fri 11:00-22:00, Sat 11:00-22:00, Sun 11:00-22:00",,,
Baskin Robbins,360081,2396 Fletcher Pkwy,,El Cajon,CA,92020,US,619-462-3870,32.802628,-116.997385,"Mon 10:00-22:00, Tue 10:00-22:00, Wed 10:00-22:00, Thu 10:00-22:00, Fri 10:00-23:00, Sat 10:00-23:00, Sun 10:00-22:00",,,
Baskin Robbins,361322,3509 Sweetwater Springs Blvd,,Spring Valley,CA,91978,US,619-670-9694,32.742714,-116.972409,"Mon 11:00-22:00, Tue 11:00-22:00, Wed 11:00-22:00, Thu 11:00-22:00, Fri 11:00-22:00, Sat 11:00-22:00, Sun 11:00-22:00",,,
Baskin Robbins,339028,12602 Amargosa Rd.,The Village Center Suite C,Victorville,CA,92392,US,760-245-3131,34.479534,-117.340101,"Mon 11:00-21:00, Tue 11:00-21:00, Wed 11:00-21:00, Thu 11:00-21:00, Fri 11:00-21:00, Sat 11:00-21:00, Sun 11:00-21:00",,,
Baskin Robbins,362130,11495a Carmel Mountain Rd,,San Diego,CA,92128,US,858-592-0031,32.978529,-117.083698,"Mon 10:00-22:00, Tue 10:00-22:00, Wed 10:00-22:00, Thu 10:00-22:00, Fri 10:00-22:00, Sat 10:00-22:00, Sun 10:00-22:00",,,
Baskin Robbins,360039,8807 1/2 La Mesa Blvd,,La Mesa,CA,91941,US,619-462-7215,32.770737,-117.007829,"Mon 11:00-22:00, Tue 11:00-22:00, Wed 11:00-22:00, Thu 11:00-22:00, Fri 11:00-22:00, Sat 11:00-22:00, Sun 11:00-22:00",,,
Baskin Robbins,351337,1205 N Main St,Suite E,Shelbyville,TN,37160,US,--,35.500954,-86.457914,"Mon 11:00-22:00, Tue 11:00-22:00, Wed 11:00-22:00, Thu 11:00-22:00, Fri 11:00-22:00, Sat 11:00-22:00, Sun 11:00-22:00",,,
Baskin Robbins,354056,1054 Gluckstadt Rd,Ste C,Madison,MS,39110,US,601-573-2569,32.516608,-90.107723,"Mon 11:00-22:00, Tue 11:00-22:00, Wed 11:00-22:00, Thu 11:00-22:00, Fri 11:00-22:00, Sat 11:00-22:00, Sun 11:00-22:00",,,
Baskin Robbins,350137,2221 Hillsboro Blvd,,Manchester,TN,37355,US,931-728-3900,35.45968,-86.056644,"Mon 11:00-22:00, Tue 11:00-22:00, Wed 11:00-22:00, Thu 11:00-22:00, Fri 11:00-22:00, Sat 11:00-22:00, Sun 11:00-22:00",,,
Baskin Robbins,353820,2710 Hamilton Mill Rd,,Buford,GA,30519,US,678-482-9659,34.080805,-83.92258,"Mon 05:00-22:00, Tue 05:00-22:00, Wed 05:00-22:00, Thu 06:00-16:00, Fri 05:00-22:00, Sat 05:00-22:00, Sun 05:00-22:00",,,
Baskin Robbins,360896,1910 E County Line Rd,,Ridgeland,MS,39157,US,601-957-3444,32.399582,-90.110149,"Mon 11:00-22:00, Tue 11:00-22:00, Wed 11:00-22:00, Thu 11:00-22:00, Fri 11:00-22:00, Sat 11:00-22:00, Sun 11:00-22:00",,,
Baskin Robbins,354930,3139 Greenfield Rd,,Pearl,MS,39208,US,601-665-4790,,,"Mon 11:00-22:00, Tue 11:00-22:00, Wed 11:00-22:00, Thu 11:00-22:00, Fri 11:00-22:00, Sat 11:00-22:00, Sun 11:00-22:00",,,
Baskin Robbins,349438,587 Beasley Rd,Suite B,Jackson,MS,39206,US,601-321-9030,32.385702,-90.149055,"Mon 11:00-22:00, Tue 11:00-22:00, Wed 11:00-22:00, Thu 11:00-22:00, Fri 11:00-22:00, Sat 11:00-22:00, Sun 11:00-22:00",,,
Baskin Robbins,336568,414 Riverwind Dr,,Pearl,MS,39208,US,601-939-0040,32.267062,-90.138488,"Mon 11:00-22:00, Tue 11:00-22:00, Wed 11:00-22:00, Thu 11:00-22:00, Fri 11:00-22:00, Sat 11:00-22:00, Sun 11:00-22:00",,,
Baskin Robbins,350585,123 W Northside Dr,,Jackson,MS,39206,US,601-321-2100,32.355589,-90.178303,"Mon 11:00-22:00, Tue 11:00-22:00, Wed 11:00-22:00, Thu 11:00-22:00, Fri 11:00-22:00, Sat 11:00-22:00, Sun 11:00-22:00",,,
Baskin Robbins,360874,1317 S. James Campbell Blvd,,Columbia,TN,38401,US,931-388-3181,35.60501,-87.06611,"Mon 11:00-22:00, Tue 11:00-22:00, Wed 11:00-22:00, Thu 11:00-22:00, Fri 11:00-22:00, Sat 11:00-22:00, Sun 11:00-22:00",,,
Baskin Robbins,353376,102 Tennessee Ave W,,Middleton,TN,38052,US,731-376-1255,35.042159,-88.895583,"Mon 11:00-22:00, Tue 11:00-22:00, Wed 11:00-22:00, Thu 11:00-22:00, Fri 11:00-22:00, Sat 11:00-22:00, Sun 11:00-22:00",,,
Baskin Robbins,349004,153 Ridgeway Rd,Suite A,Flowood,MS,39232,US,601-919-1074,32.341624,-90.182824,"Mon 11:00-22:00, Tue 11:00-22:00, Wed 11:00-22:00, Thu 11:00-22:00, Fri 11:00-22:00, Sat 11:00-22:00, Sun 11:00-22:00",,,
Baskin Robbins,341369,28575 Highway 32,Exxon Gas Mart,Oakland,MS,38948,US,662-623-5133,34.096442,-89.868042,"Mon 11:00-22:00, Tue 11:00-22:00, Wed 11:00-22:00, Thu 11:00-22:00, Fri 11:00-22:00, Sat 11:00-22:00, Sun 11:00-22:00",,,
Baskin Robbins,353038,160 Pleasant Grove Rd,,McDonald,TN,37353,US,423-479-2653,35.15545,-84.955784,"Mon 11:00-22:00, Tue 11:00-22:00, Wed 11:00-22:00, Thu 11:00-22:00, Fri 11:00-22:00, Sat 11:00-22:00, Sun 11:00-22:00",,,
Baskin Robbins,360886,4758 Navy Rd,,Millington,TN,38053,US,901-872-8998,35.341697,-89.904635,"Mon 11:00-22:00, Tue 11:00-22:00, Wed 11:00-22:00, Thu 11:00-22:00, Fri 11:00-22:00, Sat 11:00-22:00, Sun 11:00-22:00",,,
Baskin Robbins,360869,6114 Quince Rd,,Memphis,TN,38119,US,901-685-0298,35.087054,-89.859078,"Mon 11:00-22:00, Tue 11:00-22:00, Wed 11:00-22:00, Thu 11:00-22:00, Fri 11:00-22:00, Sat 11:00-22:00, Sun 11:00-22:00",,,
Baskin Robbins,360883,5788 Stage Rd.,Suite 1,Bartlett,TN,38134,US,901-386-8731,35.204294,-89.870184,"Mon 11:00-22:00, Tue 11:00-22:00, Wed 11:00-22:00, Thu 11:00-22:00, Fri 11:00-22:00, Sat 11:00-22:00, Sun 11:00-22:00",,,
Baskin Robbins,347015,8120 Camp Creek Blvd,,Olive Branch,MS,38654,US,662-893-1231,34.964641,-89.847349,"Mon 11:00-22:00, Tue 11:00-22:00, Wed 11:00-22:00, Thu 11:00-22:00, Fri 11:00-22:00, Sat 11:00-22:00, Sun 11:00-22:00",,,
Baskin Robbins,345426,5208 Highway 305,Church Rd BP,Olive Branch,MS,38654,US,662-890-6194,34.934311,-89.830309,"Mon 11:00-22:00, Tue 11:00-22:00, Wed 11:00-22:00, Thu 11:00-22:00, Fri 11:00-22:00, Sat 11:00-22:00, Sun 11:00-22:00",,,
Baskin Robbins,337367,7110 Winchester Road,,Memphis,TN,38125,US,901-737-3195,35.049335,-89.82643,"Mon 11:00-22:00, Tue 11:00-22:00, Wed 11:00-22:00, Thu 11:00-22:00, Fri 11:00-22:00, Sat 11:00-22:00, Sun 11:00-22:00",,,
Baskin Robbins,341992,4805 Bethel Rd,,Olive Branch,MS,38654,US,662-890-9216,34.924778,-89.795099,"Mon 11:00-22:00, Tue 11:00-22:00, Wed 11:00-22:00, Thu 11:00-22:00, Fri 11:00-22:00, Sat 11:00-22:00, Sun 11:00-22:00",,,
Baskin Robbins,337330,7820 Poplar Ave,,Germantown,TN,38138,US,901-752-1031,35.089668,-89.802312,"Mon 11:00-22:00, Tue 11:00-22:00, Wed 11:00-22:00, Thu 11:00-22:00, Fri 11:00-22:00, Sat 11:00-22:00, Sun 11:00-22:00",,,
Baskin Robbins,349928,7601 Highway 70,Suite 108,Bartlett,TN,38133,US,901-922-5897,35.23051,-89.80907,"Mon 11:00-22:00, Tue 11:00-22:00, Wed 11:00-22:00, Thu 11:00-22:00, Fri 11:00-22:00, Sat 11:00-22:00, Sun 11:00-22:00",,,
Baskin Robbins,361990,859 N Germantown Pkwy,,Cordova,TN,38018,US,901-757-4611,35.148847,-89.795467,"Mon 11:00-22:00, Tue 11:00-22:00, Wed 11:00-22:00, Thu 11:00-22:00, Fri 11:00-22:00, Sat 11:00-22:00, Sun 11:00-22:00",,,
Baskin Robbins,339422,8057 Highway 64,Ste 106,Memphis,TN,38133,US,901-266-3831,35.204177,-89.794166,"Mon 11:00-22:00, Tue 11:00-22:00, Wed 11:00-22:00, Thu 11:00-22:00, Fri 11:00-22:00, Sat 11:00-22:00, Sun 11:00-22:00",,,
Baskin Robbins,342981,9915 US Highway 64,Suite 105,Arlington,TN,38002,US,901-386-3331,35.205261,-89.735255,"Mon 11:00-22:00, Tue 11:00-22:00, Wed 11:00-22:00, Thu 11:00-22:00, Fri 11:00-22:00, Sat 11:00-22:00, Sun 11:00-22:00",,,
Baskin Robbins,352849,1168 N Houston Levee Rd,Suite 102,Cordova,TN,38018,US,901-759-0131,35.15746,-89.727453,"Mon 11:00-22:00, Tue 11:00-22:00, Wed 11:00-22:00, Thu 11:00-22:00, Fri 11:00-22:00, Sat 11:00-22:00, Sun 11:00-22:00",,,
Baskin Robbins,340961,915 W. Poplar Ave.,Ste 102,Collierville,TN,38017,US,901-853-3131,35.045826,-89.692909,"Mon 11:00-22:00, Tue 11:00-22:00, Wed 11:00-22:00, Thu 11:00-22:00, Fri 11:00-22:00, Sat 11:00-22:00, Sun 11:00-22:00",,,
Baskin Robbins,334915,423 W Main St,,Visalia,CA,93291,US,559-733-7448,36.329863,-119.295921,"Mon 11:00-22:00, Tue 11:00-22:00, Wed 11:00-22:00, Thu 11:00-22:00, Fri 11:00-22:00, Sat 11:00-22:00, Sun 11:00-22:00",,,
Baskin Robbins,361075,3505 W Walnut Ave,,Visalia,CA,93277,US,559-734-8581,36.312541,-119.330141,"Mon 11:00-22:00, Tue 11:00-22:00, Wed 11:00-22:00, Thu 11:00-22:00, Fri 11:00-22:00, Sat 11:00-22:00, Sun 11:00-22:00",,,
Baskin Robbins,360092,1632 S Mooney Blvd,,Visalia,CA,93277,US,559-734-5434,36.316151,-119.313753,"Mon 11:00-22:00, Tue 11:00-22:00, Wed 11:00-22:00, Thu 11:00-22:00, Fri 11:00-22:00, Sat 11:00-22:00, Sun 11:00-22:00",,,
Baskin Robbins,362157,1071 Mono Way,,Sonora,CA,95370,US,209-532-9521,37.975408,-120.367995,,,,
Baskin Robbins,362249,325 W Pacheco Blvd,,Los Banos,CA,93635,US,209-827-4265,37.056763,-120.857812,"Mon 11:00-22:00, Tue 11:00-22:00, Wed 11:00-22:00, Thu 11:00-22:00, Fri 11:00-22:00, Sat 11:00-22:00, Sun 11:00-22:00",,,
Baskin Robbins,330711,1684 Countryside Dr #G-2,,Turlock,CA,95380,US,209-656-8841,37.50771,-120.875008,"Mon 11:00-22:00, Tue 11:00-22:00, Wed 11:00-22:00, Thu 11:00-22:00, Fri 11:00-22:00, Sat 11:00-22:00, Sun 11:00-22:00",,,
Baskin Robbins,339739,1543 Retherford St,Horizon Outlet Center/C70,Tulare,CA,93274,US,559-688-6100,36.227063,-119.335522,"Mon 10:00-22:00, Tue 10:00-22:00, Wed 10:00-22:00, Thu 10:00-22:00, Fri 10:00-22:00, Sat 10:00-22:00, Sun 10:00-22:00",,,
Baskin Robbins,331508,111 S. Maag Ave,Suite C,Oakdale,CA,95361,US,209-848-3100,37.776039,-120.836996,"Mon 11:00-22:00, Tue 11:00-22:00, Wed 11:00-22:00, Thu 11:00-22:00, Fri 11:00-22:00, Sat 11:00-22:00, Sun 11:00-22:00",,,
Baskin Robbins,361189,1630 E Hatch Rd,Ste D,Modesto,CA,95351,US,209-538-4631,37.608165,-120.967569,"Mon 11:00-22:00, Tue 11:00-22:00, Wed 11:00-22:00, Thu 11:00-22:00, Fri 11:00-22:00, Sat 11:00-22:00, Sun 11:00-22:00",,,
Baskin Robbins,348619,1717 Oakdale Road,Suite F/G,Modesto,CA,95355,US,209-521-3111,37.668347,-120.95765,"Mon 11:00-22:00, Tue 11:00-22:00, Wed 11:00-22:00, Thu 11:00-22:00, Fri 11:00-22:00, Sat 11:00-22:00, Sun 11:00-22:00",,,
Baskin Robbins,332053,6333 Oakdale Rd,Suite E,Riverbank,CA,95367,US,209-869-3131,37.732404,-120.963299,"Mon 11:00-22:00, Tue 11:00-22:00, Wed 11:00-22:00, Thu 11:00-22:00, Fri 11:00-22:00, Sat 11:00-22:00, Sun 11:00-22:00",,,
Baskin Robbins,336287,2221 McHenry Ave,Suite C,Modesto,CA,95350,US,209-408-0668,37.677563,-120.997953,"Mon 10:00-22:00, Tue 10:00-22:00, Wed 10:00-22:00, Thu 10:00-22:00, Fri 10:00-22:00, Sat 10:00-22:00, Sun 10:00-22:00",,,
Baskin Robbins,361208,901 N Carpenter Rd,Suite 4,Modesto,CA,95351,US,209-549-2466,37.648739,-121.034021,"Mon 11:00-22:00, Tue 11:00-22:00, Wed 11:00-22:00, Thu 11:00-22:00, Fri 11:00-22:00, Sat 11:00-22:00, Sun 11:00-22:00",,,
Baskin Robbins,350698,10550 Craftsman Way,Ste 182,San Diego,CA,92127,US,858-673-4000,33.016442,-117.110952,"Mon 10:30-22:00, Tue 10:30-22:00, Wed 10:30-22:00, Thu 10:30-22:00, Fri 10:30-22:30, Sat 10:30-22:30, Sun 10:30-22:00",,,
Baskin Robbins,350588,2260 Otay Lakes Rd,Ste 109,Chula Vista,CA,91915,US,619-591-9631,32.646758,-116.966735,"Mon 11:00-22:00, Tue 11:00-22:00, Wed 11:00-22:00, Thu 11:00-22:00, Fri 11:00-22:00, Sat 11:00-22:00, Sun 11:00-22:00",,,
Baskin Robbins,354893,500 Diamond Dr,,Lake Elsinore,CA,92530,US,--,33.654677,-117.30253,,,,
Baskin Robbins,360056,211 E Foothill Blvd,,Rialto,CA,92376,US,909-875-3333,34.106363,-117.368704,"Mon 11:00-22:00, Tue 11:00-22:00, Wed 11:00-22:00, Thu 11:00-22:00, Fri 11:00-22:00, Sat 11:00-22:00, Sun 11:00-22:00",,,
Baskin Robbins,332047,1123 S. Mission Rd,,Fallbrook,CA,92028,US,760-728-8831,33.372027,-117.253254,"Mon 11:00-22:00, Tue 11:00-22:00, Wed 11:00-22:00, Thu 11:00-22:00, Fri 11:00-22:00, Sat 11:00-22:00, Sun 11:00-22:00",,,
Baskin Robbins,342888,12100 Palmdale Rd,Suite B7,Adelanto,CA,92301,US,760-530-9122,34.506622,-117.400042,"Mon 11:00-21:00, Tue 11:00-21:00, Wed 11:00-21:00, Thu 11:00-21:00, Fri 11:00-21:00, Sat 11:00-21:00, Sun 11:00-21:00",,,
Baskin Robbins,361303,10601 Tierrasanta Blvd,Ste C,San Diego,CA,92124,US,858-560-6931,32.822953,-117.100991,"Mon 11:00-22:00, Tue 11:00-22:00, Wed 11:00-22:00, Thu 11:00-22:00, Fri 11:00-22:00, Sat 11:00-22:00, Sun 11:00-22:00",,,
Baskin Robbins,338987,7024 Magnolia Ave,,Riverside,CA,92506,US,951-682-3131,33.946908,-117.400529,"Mon 10:30-22:00, Tue 10:30-22:00, Wed 10:30-22:00, Thu 10:30-22:00, Fri 10:30-22:00, Sat 10:30-22:00, Sun 10:30-22:00",,,
Baskin Robbins,361402,8250 Mira Mesa Blvd,Ste E,San Diego,CA,92126,US,858-566-4031,32.912799,-117.145003,"Mon 10:30-22:00, Tue 10:30-22:00, Wed 10:30-22:00, Thu 10:30-22:00, Fri 10:30-23:00, Sat 10:30-23:00, Sun 10:30-22:00",,,
Baskin Robbins,361307,4344 Bonita Rd,,Bonita,CA,91902,US,619-475-4131,32.658198,-117.040368,"Mon 10:00-22:00, Tue 10:00-22:00, Wed 10:00-22:00, Thu 10:00-22:00, Fri 10:00-22:00, Sat 10:00-22:00, Sun 10:00-22:00",,,
Baskin Robbins,356061,550 Hacienda Drive Suite 102,,Vista,CA,92081,US,760-630-1031,33.193447,-117.252495,"Mon 11:00-22:00, Tue 11:00-22:00, Wed 11:00-22:00, Thu 11:00-22:00, Fri 11:00-22:00, Sat 11:00-22:00, Sun 11:00-22:00",,,
Baskin Robbins,335709,3737 Murphy Canyon Drive,Stonecrest Shpg Ctr,San Diego,CA,92123,US,858-496-0707,32.81081,-117.116762,"Mon 10:00-21:00, Tue 10:00-21:00, Wed 10:00-21:00, Thu 10:00-21:00, Fri 10:00-21:00, Sat 10:00-21:00, Sun 10:00-21:00",,,
Baskin Robbins,361384,9844 Sierra Ave,Suite C,Fontana,CA,92335,US,909-350-8531,34.075078,-117.435822,"Mon 11:00-22:00, Tue 11:00-22:00, Wed 11:00-22:00, Thu 11:00-22:00, Fri 11:00-22:00, Sat , Sun 11:00-22:00",,,
Baskin Robbins,355675,11175 Sierra Ave,Suite 300,Fontana,CA,92337,US,909-427-0922,34.05086,-117.43441,"Mon 10:00-21:00, Tue 10:00-21:00, Wed 10:00-21:00, Thu 10:00-21:00, Fri 10:00-21:00, Sat 10:00-21:00, Sun 10:00-21:00",,,
Baskin Robbins,360862,957 Ellis Ave,Westland Plaza,Jackson,MS,39209,US,601-352-9327,32.305909,-90.227661,"Mon 11:00-22:00, Tue 11:00-22:00, Wed 11:00-22:00, Thu 11:00-22:00, Fri 11:00-22:00, Sat 11:00-22:00, Sun 11:00-22:00",,,
Baskin Robbins,352239,5701 Medgar Evers Blvd,,Jackson,MS,39213,US,601-398-0170,32.363196,-90.240089,"Mon 11:00-22:00, Tue 11:00-22:00, Wed 11:00-22:00, Thu 11:00-22:00, Fri 11:00-22:00, Sat 11:00-22:00, Sun 11:00-22:00",,,
Baskin Robbins,360867,3455 Keith St Nw,,Cleveland,TN,37312,US,423-479-3170,35.191396,-84.863969,"Mon 11:00-22:00, Tue 11:00-22:00, Wed 11:00-22:00, Thu 11:00-22:00, Fri 11:00-22:00, Sat 11:00-22:00, Sun 11:00-22:00",,,
Baskin Robbins,332211,621 Hwy 7 S,,Holly Springs,MS,38635,US,662-252-2586,34.783112,-89.449293,"Mon 11:00-22:00, Tue 11:00-22:00, Wed 11:00-22:00, Thu 11:00-22:00, Fri 11:00-22:00, Sat 11:00-22:00, Sun 11:00-22:00",,,
Baskin Robbins,347352,101 Johnston Pl,,Clinton,MS,39056,US,601-925-0747,32.3244,-90.32573,"Mon 11:00-22:00, Tue 11:00-22:00, Wed 11:00-22:00, Thu 11:00-22:00, Fri 11:00-22:00, Sat 11:00-22:00, Sun 11:00-22:00",,,
Baskin Robbins,350380,741 E Fifteenth St,,Yazoo City,MS,39194,US,662-746-5700,32.86491,-90.39656,"Mon 11:00-22:00, Tue 11:00-22:00, Wed 11:00-22:00, Thu 11:00-22:00, Fri 11:00-22:00, Sat 11:00-22:00, Sun 11:00-22:00",,,
Baskin Robbins,350728,2098 Wall St,,Spring Hill,TN,37174,US,615-302-3579,35.76728,-86.91821,"Mon 05:00-22:00, Tue 05:00-22:00, Wed 05:00-22:00, Thu 05:00-22:00, Fri 05:00-22:00, Sat 05:00-22:00, Sun 06:00-22:00",,,
Baskin Robbins,351651,1966 N Columbia St,Suite 12,Milledgeville,GA,31061,US,478-453-3330,33.106129,-83.252899,"Mon 05:00-23:00, Tue 05:00-23:00, Wed 05:00-23:00, Thu 05:00-23:00, Fri 05:00-23:00, Sat 05:00-23:00, Sun 05:00-23:00",,,
Baskin Robbins,336264,864 E. Main St,Fast Stop #12,Henderson,TN,38340,US,731-983-5274,35.44432,-88.616454,"Mon 11:00-22:00, Tue 11:00-22:00, Wed 11:00-22:00, Thu 11:00-22:00, Fri 11:00-22:00, Sat 11:00-22:00, Sun 11:00-22:00",,,
Baskin Robbins,350168,2081 Hog Mountain Rd,,Watkinsville,GA,30677,US,706-769-8363,33.87446,-83.43997,"Mon 06:00-22:00, Tue 06:00-22:00, Wed 06:00-22:00, Thu 06:00-22:00, Fri 06:00-22:00, Sat 06:00-22:00, Sun 06:00-22:00",,,
Baskin Robbins,346458,2710 Highway 72,,Lamar,MS,38642,US,662-252-1951,34.947033,-89.438968,"Mon 11:00-22:00, Tue 11:00-22:00, Wed 11:00-22:00, Thu 11:00-22:00, Fri 11:00-22:00, Sat 11:00-22:00, Sun 11:00-22:00",,,
Baskin Robbins,362265,2170 Old Fort Pkwy,,Murfreesboro,TN,37129,US,615-890-3877,35.847251,-86.430127,"Mon 10:00-22:00, Tue 10:00-22:00, Wed 10:00-22:00, Thu 10:00-22:00, Fri 10:00-23:00, Sat 10:00-23:00, Sun 10:00-22:00",,,
Baskin Robbins,349915,2701 E Pinetree Blvd,,Thomasville,GA,31792,US,229-226-0066,30.851682,-83.950214,"Mon 05:00-21:00, Tue 05:00-21:00, Wed 05:00-21:00, Thu 05:00-22:00, Fri 05:00-22:00, Sat 05:00-22:00, Sun 05:00-21:00",,,
Baskin Robbins,331210,1723 Memorial Blvd,,Murfreesboro,TN,37129,US,615-895-3145,35.869009,-86.386778,"Mon 11:00-22:00, Tue 11:00-22:00, Wed 11:00-22:00, Thu 11:00-22:00, Fri 11:00-22:00, Sat 11:00-22:00, Sun 11:00-22:00",,,
Baskin Robbins,301816,771 Prince Ave,,Athens,GA,30606,US,706-548-3444,33.961409,-83.390779,"Mon 05:00-00:00, Tue 05:00-00:00, Wed 05:00-00:00, Thu 05:00-00:00, Fri 05:00-00:00, Sat 05:00-00:00, Sun 05:00-00:00",,,
Baskin Robbins,344376,525 Highway 309 S,,Byhalia,MS,38611,US,662-838-3004,34.859403,-89.689386,"Mon 11:00-22:00, Tue 11:00-22:00, Wed 11:00-22:00, Thu 11:00-22:00, Fri 11:00-22:00, Sat 11:00-22:00, Sun 11:00-22:00",,,
Baskin Robbins,338275,3701 S Division St,,Blytheville,AR,72315,US,870-762-2424,35.888893,-89.918668,"Mon 11:00-22:00, Tue 11:00-22:00, Wed 11:00-22:00, Thu 11:00-22:00, Fri 11:00-22:00, Sat 11:00-22:00, Sun 11:00-22:00",,,
Baskin Robbins,338428,6115 Airline Rd,Airline Market & Deli,Arlington,TN,38002,US,901-867-0075,35.292662,-89.675401,"Mon 11:00-22:00, Tue 11:00-22:00, Wed 11:00-22:00, Thu 11:00-22:00, Fri 11:00-22:00, Sat 11:00-22:00, Sun 11:00-22:00",,,
Baskin Robbins,346459,1220 Highway 57,,Piperton,TN,38017,US,901-457-7241,35.05057,-89.62204,"Mon 11:00-22:00, Tue 11:00-22:00, Wed 11:00-22:00, Thu 11:00-22:00, Fri 11:00-22:00, Sat 11:00-22:00, Sun 11:00-22:00",,,
Baskin Robbins,354936,1112 W Pine St,,Poplar Bluff,MO,63901,US,573-727-9818,36.758218,-90.405986,"Mon 11:00-22:00, Tue 11:00-22:00, Wed 11:00-22:00, Thu 11:00-22:00, Fri 11:00-22:00, Sat 11:00-22:00, Sun 12:00-22:00",,,
Baskin Robbins,346650,12940 Highway 64,,Somerville,TN,38068,US,901-465-9444,35.234793,-89.416298,"Mon 11:00-22:00, Tue 11:00-22:00, Wed 11:00-22:00, Thu 11:00-22:00, Fri 11:00-22:00, Sat 11:00-22:00, Sun 11:00-22:00",,,
Baskin Robbins,346482,2628 Beene Blvd,,Bossier City,LA,71111,US,318-752-0080,32.556962,-93.710516,"Mon 11:00-22:00, Tue 11:00-22:00, Wed 11:00-22:00, Thu 11:00-22:00, Fri 11:00-22:00, Sat 11:00-22:00, Sun 11:00-22:00",,,
Baskin Robbins,354750,855 Pierremont Rd,Suite 103,Shreveport,LA,71106,US,318-716-1181,32.454342,-93.746771,"Mon 11:00-22:30, Tue 11:00-22:30, Wed 11:00-22:30, Thu 11:00-22:30, Fri 11:00-22:30, Sat 11:00-22:30, Sun 11:00-22:30",,,
Baskin Robbins,347181,7503 Youree Dr,Suite 200,Shreveport,LA,71105,US,318-798-2229,32.4377,-93.71508,"Mon 11:00-22:00, Tue 11:00-22:00, Wed 11:00-22:00, Thu 11:00-22:00, Fri 11:00-22:00, Sat 11:00-22:00, Sun 11:00-22:00",,,
Baskin Robbins,352850,3025 S Main St,,Joplin,MO,64804,US,417-208-5903,37.056375,-94.514443,"Mon 11:00-22:00, Tue 11:00-22:00, Wed 11:00-22:00, Thu 11:00-22:00, Fri 11:00-22:00, Sat 11:00-22:00, Sun 12:00-22:00",,,
Baskin Robbins,351731,9525 Mansfield Rd,,Shreveport,LA,71118,US,318-682-3000,32.386824,-93.816102,"Mon 05:00-22:00, Tue 05:00-22:00, Wed 05:00-22:00, Thu 05:00-22:00, Fri 05:00-22:00, Sat 05:00-22:00, Sun 05:00-22:00",,,
Baskin Robbins,356913,2261 Saint John Ave,,Dyersburg,TN,38024,US,731-286-5751,36.063714,-89.348292,"Mon 09:00-22:30, Tue 09:00-22:30, Wed 09:00-22:30, Thu 09:00-22:30, Fri 09:00-22:30, Sat 09:00-22:30, Sun 09:00-22:30",,,
Baskin Robbins,340162,100 Highway 78 South,,Tiptonville,TN,38079,US,--,36.377809,-89.465817,"Mon 11:00-22:00, Tue 11:00-22:00, Wed 11:00-22:00, Thu 11:00-22:00, Fri 11:00-22:00, Sat 11:00-22:00, Sun 11:00-22:00",,,
Baskin Robbins,333581,143 Replacement Ave,Bldg 487,Fort Leonard Wood,MO,65473,US,573-329-2200,37.761046,-92.107197,,,,
Baskin Robbins,331735,2900 Standiford Ave,Suite 16A,Modesto,CA,95350,US,209-579-2731,37.686574,-121.052515,"Mon 11:00-22:00, Tue 11:00-22:00, Wed 11:00-22:00, Thu 11:00-22:00, Fri 11:00-22:00, Sat 11:00-22:00, Sun 11:00-22:00",,,
Baskin Robbins,338681,1055 Sperry Ave,Ste B,Patterson,CA,95363,US,209-892-3131,37.464847,-121.14335,"Mon 11:00-22:00, Tue 11:00-22:00, Wed 11:00-22:00, Thu 11:00-22:00, Fri 11:00-22:00, Sat 11:00-22:00, Sun 11:00-22:00",,,
Baskin Robbins,355121,902 W Henderson Ave,,Porterville,CA,93257,US,559-782-0031,36.081654,-119.03785,"Mon 11:00-22:00, Tue 11:00-22:00, Wed 11:00-22:00, Thu 11:00-22:00, Fri 11:00-22:00, Sat 11:00-22:00, Sun 11:00-22:00",,,
Baskin Robbins,342964,150 N Wilma Ave,,Ripon,CA,95366,US,209-599-5533,37.739978,-121.135548,"Mon 10:30-22:00, Tue 10:30-22:00, Wed 10:30-22:00, Thu 10:30-22:00, Fri 10:30-22:00, Sat 10:00-22:00, Sun 10:00-22:00",,,
