store_name,store_number,address,address2,city,state,zip_code,country,phone_number,latitude,longitude,store_hours,store_type,other_fields,coming_soon
Belk,,2901 Pines Mall Dr,,Conway,AR,72032,US,(501) 328-5396,35.062,-92.4664,,,,
Belk,,3000 E Highland,,Rogers,AR,72756,US,(479) 621-0700,36.338,-94.1564,,,,
Belk,,3929 Mccain Blvd,,Little Rock,AR,72212,US,(501) 907-6200,34.7921,-92.2252,,,,
Belk,,4201 N Shiloh,,Russellville,AR,72801,US,(479) 967-9082,35.3166,-93.1015,,,,
Belk,,500 Cornerstone Blvd,,Stuttgart,AR,72160,US,(870) 673-2544,34.5004,-91.5526,,,,
Belk,,Markham & University,,Paragould,AR,72450,US,(870) 236-2126,36.0584,-90.4973,,,,
Carlo Donati Sportwear Srl,,"V. Verdi, 6",,Arezzo,AR,52100,US,0575-356315,43.4167,11.8833,,,,
Dillard's,,11525 Cantrell Rd Bldg,,Fayetteville,AR,72703,US,479-521-7171,36.1193,-94.0389,,,,
Dillard's,,2110 S Buerkle St,,Jonesboro,AR,72401,US,870-932-6300,35.8423,-90.7043,,,,
Dillard's,,2415 Kings Hwy,,Rogers,AR,72758,US,479-936-7984,36.2989,-94.1719,,,,
Dillard's,,4501 Central Ave Ste 102,,N Little Rock,AR,72116,US,501-771-4100,34.8179,-92.3125,,,,
Dillard's,,4610 Millhaven Rd,,Hot Springs,AR,71913,US,501-525-4501,34.5037,-93.0552,,,,
Dillard's,,4920 Millhaven Rd,,Pine Bluff,AR,71601,US,870-535-0433,34.2284,-92.0032,,,,
Dillard's,,503 North 46Th Street,,Fort Smith,AR,72903,US,479-484-5700,35.3803,-94.381,,,,
Dillard's,,601 Elsinger Blvd,,Little Rock,AR,72205,US,501-661-0053,34.753,-92.3061,,,,
Belk,,1001 Rainbow Dr,,Prattville,AL,36066,US,(334) 285-3419,32.4755,-86.4289,,,,
Belk,,10401-2003 Hwy 441,,Alabaster,AL,35007,US,(205) 685-9034,33.2443,-86.8164,,,,
Belk,,1216 Cullman Shopping Center,,Trussville,AL,35235,US,(205) 655-2694,33.6226,-86.646,,,,
Belk,,169 University Mall,,Florence,AL,35630,US,(256) 760-2400,34.818,-87.6447,,,,
Belk,,221 Summit Blvd,,Tuscaloosa,AL,35404,US,(205) 554-2400,33.2537,-87.6151,,,,
Belk,,2475 Pinnacle Way,,Montgomery,AL,36117,US,(334) 270-2400,32.3694,-86.1624,,,,
Belk,,2500 Eastdale Mall,,Dothan,AL,36303,US,(334) 671-2400,31.2484,-85.3756,,,,
Belk,,2600 Riverchase Galleria,,Jasper,AL,35501,US,(205) 384-6361,33.8312,-87.2775,,,,
Belk,,2601 South McKenzie St,,Mobile,AL,36606,US,(251) 470-5400,30.589,-88.2302,,,,
Belk,,2801 Memorial Pkwy Sw,,Guntersville,AL,35976,US,(256) 891-1314,34.3581,-86.2947,,,,
Belk,,"300 Colonial Promenade Pkwy, Ste 2100",,Homewood,AL,35209,US,(205) 877-4200,33.4651,-86.7999,,,,
Belk,,301 Cox Creek Parkway,,Gadsden,AL,35901,US,(256) 547-0501,34.1022,-86.057,,,,
Belk,,301 Coxcreek Pkwy,,Huntsville,AL,35801,US,(256) 551-4200,34.7384,-86.6013,,,,
Belk,,3100 Bel Air Mall,,Auburn,AL,36830,US,(334) 821-1007,38.6336,-121.392,,,,
Belk,,3106 N.W. Federal Highway,,Cullman,AL,35055,US,(256) 734-8941,34.1748,-86.8436,,,,
Belk,,3250 Airport Blvd,,Selma,AL,36703,US,(334) 872-5537,42.3892,-71.004,,,,
Belk,,3437 Masonic Dr,,Hot Springs,AL,71913,US,(501) 525-0755,34.4478,-93.0777,,,,
Belk,,3811 Ross Clark Cir,,Spanish Fort,AL,36527,US,(251) 621-5752,30.6715,-87.9019,,,,
Belk,,5035 Pinnacle Square,,Birmingham,AL,35244,US,(205) 987-4200,37.9805,-121.724,,,,
Belk,,614 Brookwood Village,,Birmingham,AL,35243,US,(205) 968-4200,33.4711,-86.7692,,,,
Burnhams Shoes Inc,,3000 Eastdale Mall,,Dothan,AL,36303,US,(334)794-5682,31.2484,-85.3756,,,,
Cdc Centro Distribuzione Calzature Srl,,"V. F. Flizi, 30",,Alessandria,AL,15100,US,0131-265712,44.9047,8.62411,,,,
Dillard's,,"11655 Us Hwy 431, S",,Montgomery,AL,36117,US,334-244-6442,32.4956,-86.2149,,,,
Dillard's,,2100 Riverchase Galleria,,Florence,AL,35630,US,256-766-8200,34.8287,-87.6482,,,,
Dillard's,,22150 Troy Highway,,Montgomery,AL,36117,US,334-277-7200,32.3023,-86.2069,,,,
Dillard's,,300 Highway 78 East,,Huntsville,AL,35801,US,256-551-0179,34.7365,-86.5502,,,,
Dillard's,,30500 Hwy 181,,Mobile,AL,36606,US,251-471-1551,32.4977,-99.7194,,,,
Dillard's,,3300 Bellair Mall,,Auburn,AL,36830,US,334-821-3900,38.6351,-121.387,,,,
Dillard's,,700 Quintard Dr,,Spanish Fort,AL,36527,US,251-621-2257,30.6715,-87.9019,,,,
Dillard's,,7310 Eastchase Pkwy,,Oxford,AL,36203,US,256-835-2819,33.6143,-85.835,,,,
Macy's,,3210 Nw Federal Hwy,,Birmingham,AL,35209,US,(205) 868-2600,33.4702,-86.807,,,,
Macy's,,600 Brookwood Village,,Birmingham,AL,35244,US,(205) 985-2600,33.4694,-86.7724,,,,
Mcraes 652,,10101 Eastern Shore Blvd,,Mobile,AL,36606,US,251-478-2300,30.6341,-88.17,,,,
Rockport Clearance Outlet,,900 Commons Dr,,Foley,AL,36535,US,(251) 943-7802,30.407,-87.6065,,,,
Sikes & Kohns,,2801 Memorial Parkway,,Pine Level,AL,36065,US,(334) 584-7402,32.068,-86.0583,,,,
Boot Country,,1321 N. Columbia Center Blvd,,Anchorage,AK,99518,US,(907)349-8413,40.8178,-76.4627,,,,
Alan's Shoe House,,1461 Yuma Palms Pkwy,,Tucson,AZ,85704,US,(520)747-8203,32.322,-110.988,,,,
Alan's Shoe House,,4550 N Oracle Rd,,Tucson,AZ,85711,US,(520) 207-4621,32.2899,-110.975,,,,
Alan's Shoe House,,7800 W Arrowhead Towne Ct,,Tucson,AZ,85704,US,(520) 297-5268,32.3395,-110.986,,,,
Alan's Shoe House,,929 Us Highway 1,,Tucson,AZ,85710,US,(520) 747-5555,32.2907,-111.024,,,,
Dillard's,,15051 N Kierland Blvd #100,,Gilbert,AZ,85296,US,480-726-1512,33.3346,-111.738,,,,
Dillard's,,1720 E Red Cliffs Drive,,Phoenix,AZ,85032,US,602-953-9600,33.6365,-112.012,,,,
Dillard's,,2151 S. San Tan Village Pky,,Glendale,AZ,85308,US,623-979-1128,33.6432,-112.173,,,,
Dillard's,,2410 East Camelback Road,,Phoenix,AZ,85033,US,623-849-0100,33.5111,-112.029,,,,
Dillard's,,3101 W Chandler Blvd,,Scottsdale,AZ,85251,US,480-949-5869,38.4966,-121.424,,,,
Dillard's,,3600 Country Club Dr,,Casa Grande,AZ,65222,US,520-421-1141,32.8285,-111.637,,,,
Dillard's,,4322 W Cactus Rd,,Yuma,AZ,85364,US,928-329-4722,32.6704,-114.63,,,,
Dillard's,,14200 East Alameda Avenue,,Broomfield,CO,80021,US,303-464-3900,39.975,-105.128,,,,
Dillard's,,225 East Foothills Parkway,,Colorodo Spgs,CO,80909,US,719-550-1159,38.8138,-104.836,,,,
Dillard's,,23901 E Orchard Rd A,,Aurora,CO,80021,US,303-360-5900,39.609,-104.709,,,,
Dillard's,,5749 Mcwhinney Boulevard,,Colorado Spgs,CO,80920,US,719-532-1400,38.9583,-104.781,,,,
Dillard's,,6797 South Vine Street,,Littleton,CO,80123,US,303-979-6111,39.593,-104.965,,,,
Dillard's,,750 Citadel Drive East,,Pueblo,CO,81008,US,719-545-9665,38.3186,-104.685,,,,
Dillard's,,8298 East 49Th Ave,,Longmont,CO,80501,US,303-651-1600,40.1162,-105.24,,,,
Dillard's,,8501 West Bowles Avenue,,Littleton,CO,80124,US,303-790-0100,39.6121,-105.096,,,,
Macy's,,11 W Flatiron Crossing Dr,,Westminster,CO,80023,US,(303) 457-7333,39.9339,-105.136,,,,
Macy's,,14200 E Alameda Ave,,Centennial,CO,80122,US,(303) 729-1123,39.6219,-104.985,,,,
Macy's,,14500 W Colfax Ave #541,,Loveland,CO,80538,US,,40.3978,-105.075,,,,
Macy's,,14535 Delaware Street,,Centennial,CO,80122,US,,39.5838,-104.993,,,,
Macy's,,1900 29Th Street,,Fort Collins,CO,80525,US,(970) 226-5300,40.5418,-105.044,,,,
Macy's,,2500 East First Avenue,,Boulder,CO,80301,US,(303) 218-5955,39.9905,-105.292,,,,
Macy's,,5396 S Wadsworth Blvd,,Lone Tree,CO,80124,US,(303) 566-6370,39.5365,-104.897,,,,
Bobs Stores Corp,,90 Elm Street,,CT 6450,CT,6450,US,(203)235-5775,42.9776,-71.4631,,,,
Comfort One Shoes,,208 N Dual Hwy,,Washington,DC,20004,US,,38.8951,-77.0226,,,,
Comfort One Shoes,,236 Rehobth Ave,,Washington,DC,20001,US,(202) 783-1199,38.8979,-77.0228,,,,
Comfort One Shoes,,50 Mass Ave Ne #207,,Washington,DC,20009,US,(202) 328-3141,38.8976,-77.0062,,,,
Comfort One Shoes,,Nylon Capital Shopping Ctr,,Washington,DC,20002,US,(202) 898-2430,38.9053,-76.9816,,,,
Macy's,,716 7Th St Nw,,Washington,DC,20005,US,(202) 628-6661,38.8991,-77.0223,,,,
Nashs Sports Center,,1201 G. Street N.W.,,Washington,DC,20024,US,(202)488-4440,38.8986,-77.0282,,,,
Richey & Co,,1119 F St Nw,,Washington,DC,20015,US,(202) 537-0200,38.8974,-77.0272,,,,
Dillard's,,4470 North Oracle Road,,Tucson,AZ,85705,US,520-293-4550,32.2884,-110.972,,,,
Dillard's,,4610 E Cactus Rd,,Mesa,AZ,85206,US,480-832-1247,33.466,-111.532,,,,
Dillard's,,5350 Broadway Blvd,,Lake Havasu,AZ,86404,US,928-764-1200,34.5359,-114.36,,,,
Dillard's,,5850 East Broadway Street,,Flagstaff,AZ,86004,US,928-526-5541,40.0408,-105.282,,,,
Dillard's,,5890 E Broadway Blvd,,Prescott,AZ,86303,US,928-717-1270,34.7642,-112.043,,,,
Dillard's,,6555 E Southern Ave,,Chandler,AZ,85226,US,480-735-2060,33.393,-111.885,,,,
Dillard's,,7600 West Arrowhead Towne Cntr,,Sierra Vista,AZ,85635,US,520-515-0151,31.5889,-110.212,,,,
Dillard's,,Tucson Mall,,Tucson,AZ,85711,US,520-747-4700,32.2871,-110.973,,,,
Foot Solutions,,7014 East Camelback Road,,Scottsdale,AZ,85254,US,(480)664-5450,33.5028,-111.929,,,,
J Stephens,,4976 Premium Outlets Way,,Scottsdale,AZ,85254,US,(480) 315-3747,33.6072,-111.94,,,,
J Stephens,,6030 N Oracle Rd,,Tucson,AZ,85705,US,(866) 936-6401,32.2932,-110.98,,,,
J Stephens,,6030 North Oracle Rd.,,Tucson,AZ,85705,US,(520) 293-4074,32.2932,-110.98,,,,
Macy's,,5995 Sky Pond Drive,,Colorado Springs,CO,80920,US,(719) 593-3333,38.9583,-104.781,,,,
Macy's,,6801 South University Blvd,,Littleton,CO,80123,US,,39.5932,-104.963,,,,
Macy's,,750 Sunland Park Dr,,Aurora,CO,80012,US,(303) 214-1860,39.5857,-104.698,,,,
Macy's,,8401 Gateway Blvd W,,Broomfield,CO,80021,US,(303) 222-4000,40.0032,-105.101,,,,
Macy's,,8415 Park Meadow Ctr Dr,,Denver,CO,80238,US,(303) 227-7222,39.7057,-104.973,,,,
Macy's,,8455 Park Meadows Center Drive,,Denver,CO,80209,US,(303) 390-2200,39.7057,-104.973,,,,
Macy's,,8501 W Bowles Ste 2D657,,Denver,CO,80206,US,(303) 390-2200,39.6121,-105.096,,,,
Off Broadway 5030,,15 South Steele Street,,Lakewood,CO,80401,US,(303) 271-0161,29.808,-95.0437,,,,
Off Broadway 5049,,8401 Gateway West,,Aurora,CO,80016,US,(303) 627-5721,39.7861,-104.818,,,,
Off Broadway 5054,,41 West Flatiron Cr,,Englewood,CO,80112,US,R23-7F3,39.5836,-104.857,,,,
Off Broadway 5076,,9607 County Line Rd Ara,,Lakewood,CO,80123,US,(303) 933-9490,39.6166,-105.067,,,,
Footprints,,183 Pavilions Drive,,Newington,CT,6111,US,(860)666-3100,41.6979,-72.7237,,,,
Hawley Lane Shoes,,36  Retail Locations Listed On Their Website,,Orange,CT,6477,US,(203) 891-9999,41.2794,-73.0329,,,,
Hawley Lane Shoes,,470 Lewis Avenue,,Shelton,CT,6484,US,(203) 712-1300,41.2826,-73.2068,,,,
Hawley Lane Shoes,,499 Westport Avenue,,Stamford,CT,6905,US,(209)327-7664,35.5697,-80.9311,,,,
Hawley Lane Shoes,,575 Union Street,,Norwalk,CT,6851,US,,41.1258,-73.4149,,,,
Hawley Lane Shoes,,7 Backus Avenue,,Norwalk,CT,6851,US,(203) 847-9400,41.1003,-73.3983,,,,
"L.L.Bean So. Windsor, Ct",,100 Westfarms Mall,,So Windsor,CT,6074,US,888-552-5517,41.8526,-72.6437,,,,
Lord And Taylor,,499 Westport Ave,,Stamford,CT,6905,US,203-327-6600,35.5697,-80.9311,,,,
Macy's,,359 N Main sSt,,Farmington,CT,6032,US,(860) 561-3030,41.7024,-72.8436,,,,
Macy's,,1200 South Towne Centre B,,Phoenix,AZ,85032,US,(602) 494-2100,33.6598,-112.12,,,,
Macy's,,2190 East Williams Field Road,,Glendale,AZ,85308,US,,33.6886,-112.21,,,,
Macy's,,3107 West Chandler Blvd.,,Scottsdale,AZ,85251,US,(480) 840-0333,38.4966,-121.424,,,,
Macy's,,3800 El Mercado Loop,,Tucson,AZ,85705,US,(520) 798-2100,32.2681,-110.992,,,,
Macy's,,4000 Newgate Mall,,Phoenix,AZ,85016,US,(602) 468-2100,33.5107,-112.03,,,,
Macy's,,4500 East Cactus Road,,Mesa,AZ,85206,US,(480) 807-1400,33.466,-111.532,,,,
Macy's,,4500 N Oracle Rd Ste 116,,Tucson,AZ,85711,US,(520) 322-2100,32.2891,-110.974,,,,
Macy's,,6535 E. Southern Avenue,,Chandler,AZ,85226,US,(480) 821-8611,33.393,-111.885,,,,
Macy's,,6940 East Camelback Road,,Gilbert,AZ,85295,US,(480) 792-6333,33.5023,-111.928,,,,
Shoes On A Shoestring,,14202 N Scottsdale Rd,,Glendale,AZ,85304,US,,40.7016,-111.985,,,,
Macy's,,500 Boston Post Rd,,Trumbull,CT,6611,US,(203) 374-7200,41.3472,-72.1425,,,,
Macy's,,666 West Ave,,Stamford,CT,6901,US,(203) 964-1500,41.0539,-73.5335,,,,
Macy's,,75 Evergreen Way,,Waterford,CT,6385,US,(860) 443-6911,41.3322,-72.1078,,,,
Macy's,,79 Costello Rd,,Meriden,CT,6451,US,(203) 238-0741,41.5372,-72.7801,,,,
Macy's,,850 Hartford Turnpike,,Milford,CT,6460,US,(203) 877-9393,41.7821,-72.6988,,,,
Macy's,,862 Bridgeport Ave,,Waterbury,CT,6702,US,(203) 757-1131,40.0074,-82.8659,,,,
Macy's,,874 Berlin Tpke,,Enfield,CT,6082,US,(860) 741-2111,41.9845,-72.5571,,,,
Macy's,,Rd 3 Woodstock Ave,,Manchester,CT,6040,US,(860) 644-6700,41.777,-72.5236,,,,
Macy's,,Southbury Plaza,,Danbury,CT,6810,US,(203) 731-3500,41.5352,-73.2793,,,,
Mickey Finn Stores Inc,,359 N Main St,,Berlin,CT,6037,US,(860)828-6547,41.6345,-72.768,,,,
Shoe Mart Inc,,5065 Main Street,,Norwalk,CT,6850,US,,41.119,-73.4125,,,,
Wesleys Shoes,,1201 Post Road,,Southbury,CT,6488,US,(203)264-1222,41.4781,-73.1908,,,,
Alex Shoes,,3333 Bear Street,,Newport Beach,CA,92662,US,(949) 723-1267,33.692,-117.893,,,,
Baja Star,,4380 Ontario Mills Cir,,Chula Vista,CA,91911,US,(619)423-5500,32.6479,-116.993,,,,
Bertoni Inc,,10800 West Pico,,Culver City,CA,90230,US,,34.0401,-118.427,,,,
Bertoni Inc,,131 N La Cienega Blvd,,Los Angeles,CA,90064,US,,34.0754,-118.377,,,,
Bertoni Inc,,3880 North Mission Road,,Los Angeles,CA,90048,US,,34.0715,-118.198,,,,
Brown Bros Shoes,,300 Stanford Mall,,Alameda,CA,94501,US,(510)865-3700,37.7729,-122.248,,,,
Brown's Shoe Fit,,1750 Briargate Blvd.,,Hanford,CA,81501,US,(559) 583-7217,39.0751,-108.552,,,,
Brown's Shoe Fit,,701 State Street,,Visalia,CA,93291,US,(559) 734-4152,36.2973,-119.151,,,,
Casserd Shoes,,1 Serramonte Drive,,San Francisco,CA,94108,US,(415)421-5690,37.67,-122.465,,,,
Db Shoe Company Llc,,4255 Rosewood Drive,,Richmond,CA,94801,US,(800)501-9922,37.9202,-122.33,,,,
Dillard's,,2210 Tully Road,,Stockton,CA,95207,US,209-477-1230,38.2092,-121.134,,,,
Dillard's,,4333 La Jolla Village Dr.,,El Centro,CA,92243,US,760-370-0190,32.792,-115.563,,,,
Ebuys Inc,,7017 Friars Road,,San Diego,CA,92121,US,(858)831-0839,32.7673,-117.167,,,,
Guarantee Shoe Ctr,,3805 State Street,,Bakersfield,CA,93301,US,(661)325-6949,35.4058,-119.045,,,,
J Stephens,,1247 Galleria At Tyler,,Temecula,CA,92591,US,(951) 296-1480,33.5273,-117.115,,,,
J Stephens,,12949  Peyton Dr,,Rancho Cucamonga,CA,91739,US,,34.1547,-117.514,,,,
J Stephens,,21600 Hawthorne Blvd.,,Montebello,CA,90640,US,(323) 727-9141,33.9302,-118.159,,,,
J Stephens,,2796 Tanger Way,,Riverside,CA,92503,US,,33.9341,-117.601,,,,
J Stephens,,340 E Colorado Blvd B105,,Canoga Park,CA,91303,US,(818) 715-0408,34.1989,-118.597,,,,
J Stephens,,3451 S Dogwood Ave,,Palm Desert,CA,92260,US,(760) 674-4900,33.7745,-116.539,,,,
J Stephens,,5100 Lakewood Blvd.,,Pasadena,CA,91101,US,,34.1333,-118.133,,,,
J Stephens,,6150 Laurel Canyon Road,,Rancho Cucamonga,CA,91739,US,(909) 463-2085,34.1547,-117.514,,,,
J Stephens,,6600 Topanga Canyon Blvd,,Valencia,CA,91355,US,(661) 284-6060,34.4762,-118.535,,,,
Macy's,,100 Del Monte Center,,San Francisco,CA,94102,US,(415) 397-3333,37.7787,-122.421,,,,
Macy's,,100 Vintage Way,,Capitola,CA,95010,US,(831) 621-3333,38.6585,-121.27,,,,
Macy's,,10250 Santa Monica Blvd.,,Downey,CA,90241,US,(562) 862-2880,32.567,-116.646,,,,
Macy's,,10730 W. Pico Blvd.,,Culver City,CA,90230,US,(310) 390-8911,34.0411,-118.425,,,,
Macy's,,10800 West Pico Blvd,,Los Angeles,CA,90067,US,(310) 556-1611,34.0401,-118.427,,,,
Macy's,,1111 Plaza Drive,,Chula Vista,CA,91915,US,(619) 427-1161,32.6775,-117.095,,,,
Macy's,,1127 G St,,Fresno,CA,93726,US,(559) 228-3333,36.7326,-119.796,,,,
Macy's,,115 Hillsdale Mall,,Concord,CA,94520,US,(925) 689-3333,37.9284,-122.083,,,,
Macy's,,1152 Galleria Blvd,,Sacramento,CA,95815,US,(916) 925-2845,38.7667,-121.266,,,,
Macy's,,1197 Galleria Blvd.,,Sacramento,CA,95814,US,(916) 444-3333,38.7667,-121.266,,,,
Macy's,,1200 Whipple Road,,Walnut Creek,CA,94596,US,(925) 295-0270,37.8824,-122.027,,,,
Macy's,,1233 Rancho Vista Blvd.,,Fresno,CA,93720,US,(559) 451-3333,36.7305,-119.688,,,,
Macy's,,12481 S Main Street,,Montclair,CA,91763,US,,34.0514,-117.752,,,,
Macy's,,1255 West Avenue P,,Fresno,CA,93710,US,,36.7306,-119.827,,,,
Macy's,,1300 Stoneridge Mall Road,,Richmond,CA,94806,US,(510) 222-3333,37.9759,-122.345,,,,
Macy's,,131 Fox Hills Mall,,Redondo Beach,CA,90278,US,(310) 370-2511,33.8659,-118.375,,,,
Benjamin Lovell Shoes,,126 Rehoboth Ave,,Rehobeth Beach,DE,19971,US,,38.7159,-75.0799,,,,
Tanger Outlets Rehoboth Beach,,34986 Midway Outlet Drive,,Rehoboth Beach,DE,19971,US,,38.7344,-75.1404,,,,
Boscov's,,361 West Main Street,,Wilmington,DE,19803,US,302-478-6800,39.7131,-75.6472,,,,
Boscov's,,4500 Perkiomen Avenue,,Christina,DE,19702,US,(302) 369-6440,39.6204,-75.7488,,,,
Boscov's,,4747 Concord Pike,,Dover,DE,19901,US,(302) 734-9210,39.1582,-75.5244,,,,
Macy's,,203-4 Naaman'S Rd,,Dover,DE,19901,US,(302) 736-0974,39.1582,-75.5244,,,,
Macy's,,2910 N.5Th St. Highway,,Newark,DE,19702,US,(302) 366-5800,39.6204,-75.7488,,,,
Macy's,,501 Christiana Mall Road,,Wilmington,DE,19803,US,(302) 478-1860,39.7508,-75.6037,,,,
Rockport Factory Outlet,,615 N Dupont Blvd,,Rehoboth Beach,DE,19971,US,(302) 644-2109,38.7727,-75.1478,,,,
Saf-Gard Safety Shoe Co,,1665 State Hill Road,,Claymont,DE,19703,US,302-791-9898,39.7999,-75.4577,,,,
The Athlete,,3000 Dover Mall,,Rehobeth Beach,DE,19971,US,,38.7176,-75.0877,,,,
Belk,,100 Eagle Ridge Dr,,Winter Haven,FL,33880,US,,27.9966,-81.7469,,,,
Belk,,10069 Gulf Center Drive,,Cape Coral,FL,33991,US,(239) 282-5692,26.631,-82.008,,,,
Belk,,1400 Town Center Drive,,Davenport,FL,33837,US,,28.2522,-81.5903,,,,
Belk,,1700 W International Speedway,,Jacksonville,FL,32210,US,(904) 384-2106,30.2776,-81.724,,,,
Belk,,1700 W. Intl Speedway Blvd,,Palm Coast,FL,32164,US,(386) 446-1880,29.5338,-81.223,,,,
Belk,,1801 Nw Hwy 19,,Ocala,FL,34474,US,(352) 237-1200,29.2997,-81.6689,,,,
Belk,,200 Pier Park Drive,,Destin,FL,32541,US,(850) 650-4091,30.4032,-86.4963,,,,
Belk,,2111 Collier Parkway,,Clermont,FL,34711,US,(352) 243-2227,26.2562,-81.7833,,,,
Belk,,2298 Martin Luther Kng Dr,,Pensacola,FL,32504,US,(850) 484-3300,30.4365,-87.2148,,,,
Belk,,2533 W Us Hwy 90,,St. Augustine,FL,32086,US,,35.945,-81.6028,,,,
Belk,,26256 U.S. Highway 19 N,,Lakeland,FL,33803,US,(863) 688-7872,28.0442,-81.9437,,,,
Macy's,,1320 Broadway Plaza,,San Rafael,CA,94903,US,(415) 499-5200,37.9547,-122.542,,,,
Macy's,,13400 Jamboree Rd,,Costa Mesa,CA,92626,US,(714) 708-3333,33.685,-117.835,,,,
Macy's,,135 Avenida Del Mar,,Mission Viejo,CA,92691,US,(949) 364-3111,33.6357,-117.597,,,,
Macy's,,1413 Jayken Way # A,,National City,CA,91950,US,(619) 267-3500,32.6013,-117.081,,,,
Macy's,,1475 Simi Town Center Way,,Visalia,CA,93277,US,(559) 622-1111,36.3093,-119.323,,,,
Macy's,,151 Petaluma Blvd S,,San Jose,CA,95122,US,(408) 238-3333,38.2361,-122.607,,,,
Macy's,,15555 E. 14Th Street,,Pleasanton,CA,94588,US,(925) 463-3333,37.6644,-121.89,,,,
Macy's,,160 Horton Plaza,,San Diego,CA,92108,US,(619) 291-1111,32.7141,-117.163,,,,
Macy's,,1662 Copenhagen Dr,,Palmdale,CA,93551,US,(360) 613-6850,34.5942,-118.182,,,,
Macy's,,170 O'Farrell Street,,Palo Alto,CA,94304,US,(650) 326-3333,37.3813,-122.18,,,,
Macy's,,1701 Arden Way,,Redding,CA,96003,US,(530) 722-9111,40.4597,-122.255,,,,
Macy's,,1702 Camino Del Rio North,,San Diego,CA,92122,US,(858) 453-2060,32.769,-117.146,,,,
Macy's,,1732 East Shaw Avenue,,Salinas,CA,93906,US,(831) 443-1111,36.7272,-121.64,,,,
Macy's,,1801 Hawthorne Blvd.,,Torrance,CA,90503,US,(310) 370-8511,33.8486,-118.354,,,,
Abbadabba,,2929 N Druid Hills Rd,,Atlanta,GA,30342,US,404-262-3356,33.8162,-84.3109,,,,
Abbadabba,,370 Newman Crossing Bypass,,Atlanta,GA,30307,US,404-588-9577,33.7799,-84.4485,,,,
Abbadabba,,400 Ernest Barrett Parkway,,Kennesaw,GA,30144,US,770-423-0405,34.018,-84.5643,,,,
Abbadabba,,5165 Peachtree Parkway,,Duluth,GA,30096,US,770-623-0033,34.0051,-84.1331,,,,
Abbadabba,,5900 Sugarloaf Pkwy,,Roswell,GA,30076,US,770-998-2222,34.0567,-84.3437,,,,
Belk,,100 Mall Blvd,,Valdosta,GA,31601,US,(229) 244-6391,30.8766,-83.2926,,,,
Belk,,100 Mount Berry Square Ne,,Griffin,GA,30223,US,(770) 228-6660,34.2597,-85.1633,,,,
Belk,,101 City Smitty Dr,,Americus,GA,31709,US,(229) 924-8821,32.0724,-84.2327,,,,
Belk,,1137 Knox Ave Hwy 25,,Conyers,GA,30013,US,(678) 413-3511,33.6676,-84.0177,,,,
Belk,,1181 St. Augustine Rd,,Bainbridge,GA,31717,US,(229) 246-7576,30.8887,-84.6178,,,,
Belk,,1301 N Main St,,Conway,GA,29526,US,(843) 248-7256,33.8469,-79.0543,,,,
Belk,,1371 Market Street,,Gainesville,GA,30501,US,(770) 532-7021,34.4775,-83.7746,,,,
Belk,,1400 E Shotwell St,,Tifton,GA,31794,US,(229) 382-2414,31.4505,-83.5085,,,,
Dillard's,,1400 Dell Range Blvd,,Idaho Falls,ID,83404,US,208-525-4000,43.4922,-112.046,,,,
Dillard's,,1806 19Th Avenue,,Boise,ID,83704,US,208-321-4646,43.6367,-116.212,,,,
Macy's,,100 W 7th St,,Idaho Falls,ID,83404,US,(208) 535-6000,43.4915,-112.034,,,,
Macy's,,1379 Poleline Road East,,Lewiston,ID,83501,US,(208) 798-6000,46.4004,-117.001,,,,
Macy's,,1406 N Galleria Dr.,,Coeur D'Alene,ID,83815,US,(208) 772-8700,47.7276,-116.781,,,,
Macy's,,2240 East 17Th Street,,Nampa,ID,83687,US,(208) 463-6800,43.5786,-116.55,,,,
Macy's,,2420 E 17Th St,,Boise,ID,83704,US,(208) 373-6000,43.6408,-116.21,,,,
Macy's,,3601 Dillon Dr,,Twin Falls,ID,83301,US,(208) 736-6800,42.563,-114.461,,,,
Macy's,,370 North Milwaukee,,Moscow,ID,83843,US,(208) 892-6000,46.7324,-117,,,,
Dillard's,,1917 S Walnut Street,,Evansville,IN,47715,US,812-473-1583,37.9734,-87.5303,,,,
Dillard's,,3501 North Granville Avenue,,Richmond,IN,47374,US,765-966-8211,37.522,-77.383,,,,
Dillard's,,4201 Coldwater Road,,Clarksville,IN,47129,US,812-285-0161,38.2967,-85.76,,,,
Englin's Fine Footwear,,2415 Hobson Rd,,Kokomo,IN,46902,US,(765) 457-7944,40.4399,-86.2174,,,,
Englin's Fine Footwear,,6101 North Keystone Avenue,,Indianapolis,IN,46240,US,(317) 574-0777,39.8658,-86.1194,,,,
Englin's Fine Footwear,,Tippecanoe Mall,,Lafayette,IN,47905,US,(765) 447-0733,40.3914,-86.8525,,,,
Englins Fine Footwear,,3915 E State Blvd,,Kokomo,IN,46902,US,765-457-7944,40.4718,-86.1209,,,,
Esmonds Shoes,,4311 W Clara Lane,,Richmond,IN,47374,US,765-962-1262,37.903,-122.308,,,,
Goodmans Shoes,,318 Mass Ave,,Indianapolis,IN,46240,US,317-846-6098,39.772,-86.1538,,,,
Kern Bros,,116 W Main St,,Zionsville,IN,46077,US,317-873-5756,39.9506,-86.2617,,,,
Macy's,,1215 S Reed Rd,,Muncie,IN,47303,US,(765) 286-0011,40.2095,-85.4925,,,,
Macy's,,13155 Old Meridian St,,Greenwood,IN,46142,US,(317) 882-6247,39.6125,-86.1064,,,,
Macy's,,1430 N Green St Ste E,,Indianapolis,IN,46220,US,(317) 255-6611,39.8171,-86.2074,,,,
Macy's,,1551 E Stop 12 Rd,,Indianapolis,IN,46250,US,(317) 579-4500,39.6424,-86.1308,,,,
The Athlete,,70 Rehoboth Ave,,Seaford,DE,19973,US,,38.7159,-75.0785,,,,
Vernon Powell Shoes,,2000 Dover Mall,,Rehobeth Beach,DE,19971,US,(302) 644-7463,38.7176,-75.0877,,,,
Vernon Powell Shoes,,35016 Midway Outlet Dr.,,Seaford,DE,19973,US,,38.7344,-75.1387,,,,
Vernon Powell Shoes,,4737 Concord Pike,,Milford,DE,19963,US,,38.9126,-75.428,,,,
Belk,,"2700 State Road, Suite 1006",,Lady Lake,FL,32159,US,(352) 753-0227,28.9326,-81.9334,,,,
Belk,,2820 S. Monroe St,,Tallahassee,FL,32303,US,(850) 422-6200,30.4805,-84.3035,,,,
Belk,,3000 Mary Esther Blvd,,Gainesville,FL,32605,US,(352) 331-3535,29.6807,-82.3724,,,,
Belk,,3091 Manchester Expressway,,Lake City,FL,32055,US,(386) 755-0153,34.532,-82.6757,,,,
Belk,,3100 S.W. College Road,,Brooksville,FL,34613,US,(352) 592-1515,28.576,-82.5943,,,,
Belk,,3247 Manchester Expwy,,Orange Park,FL,32073,US,(904) 269-1211,33.5132,-112.013,,,,
Belk,,3800 U.S. Highway 98 North,,Sebring,FL,33870,US,(863) 385-3200,29.0055,-81.076,,,,
Belk,,4125 Cleveland Ave,,Fort Myers,FL,33913,US,(239) 415-1015,26.6019,-81.8684,,,,
Belk,,4298 Millenia Boulevard,,Viera,FL,32940,US,(321) 636-1033,28.1989,-80.7879,,,,
Belk,,4414 S College Road,,Land O'Lakes,FL,34639,US,(813) 909-8942,28.2425,-82.4428,,,,
Belk,,451 Altamonte Ave,,Deland,FL,32720,US,(386) 785-0043,29.0362,-81.3032,,,,
Belk,,4535 Roosevelt Blvd,,Jacksonville,FL,32256,US,(904) 363-1100,30.2789,-81.719,,,,
Belk,,8201 South Tamiami Trail,,Crystal River,FL,34428,US,,28.9025,-82.5926,,,,
Belk,,9409 Us Hwy 19,,Leesburg,FL,34788,US,(352) 787-3412,28.8007,-81.7389,,,,
Brandy's Shoes Inc,,11945 Pines Blvd,,Pompano Beach,FL,33062,US,(954)943-9667,26.317,-80.1947,,,,
Aa To Ee Shoes Inc.,,2825 West Main Street,,Rolling Meadows,IL,60008,US,847-398-5000,42.1349,-88.0288,,,,
Alamo Shoes,,5321 N Clark St,,Chicago,IL,60640-0000,US,312-784-8936,41.9786,-87.6683,,,,
Altman's Shoes,,1 Oakbrook Center,,Chicago,IL,60603,US,312-332-0667,41.8024,-87.9862,,,,
Country Cobbler,,2843 D. Kirchoff Rd.,,Glenview,IL,60025,US,847-724-3131,42.0724,-87.8206,,,,
Craigs Shoes,,400 N Main St,,Berwyn,IL,60402,US,708-795-8181,41.8368,-87.7979,,,,
Devon Four Cohns Shoes,,1 Old Orchard Shopping Center,,Skokie,IL,60077,US,(708)677-6333,42.0588,-87.7499,,,,
Dillard's,,1000 North Ave,,Moline,IL,61265,US,309-797-1866,41.514,-90.5233,,,,
Dillard's,,275 St Claire Sq,,Marion,IL,62959,US,618-993-6000,38.6163,-89.0492,,,,
Dillard's,,A800 Tuscola Boulevard,,Fairview Height,IL,62208,US,618-632-5000,38.6005,-90.0093,,,,
Farm King,,1620 East Jackson,,Canton,IL,61520,US,309-647-4416,40.5437,-90.0575,,,,
Farm King,,3000 West Main Street,,Kewanee,IL,61443,US,309-852-6561,41.2564,-89.9247,,,,
Macy's,,1807 Montebello Town Ctr,,Arcadia,CA,91007,US,(626) 445-5711,34.1217,-118.048,,,,
Macy's,,1865 41st Avenue,,San Jose,CA,95123,US,(408) 224-3333,38.5531,-121.459,,,,
Macy's,,1900 Montebello Town Center,,Lakewood,CA,90712,US,(562) 529-5111,33.887,-118.143,,,,
Macy's,,200 Brea Mall,,Simi Valley,CA,93065,US,(805) 581-3333,34.2986,-118.779,,,,
Macy's,,200 East Cypress Avenue,,Rancho Cucamonga,CA,91739,US,(909) 646-3333,34.0614,-117.662,,,,
Macy's,,200 Newpark Mall,,Union City,CA,94587,US,,37.5952,-122.044,,,,
Macy's,,200 Northridge Center,,Sunnyvale,CA,94086,US,(408) 732-3333,37.3719,-122.021,,,,
Macy's,,200 West Washington Avenue,,San Francisco,CA,94132,US,(415) 564-8848,37.7965,-122.399,,,,
Macy's,,2000 Montebello Town Center,,Cerritos,CA,90703,US,,33.8583,-118.065,,,,
Macy's,,201 First St Ste 100,,Santa Clara,CA,95050,US,(408) 248-3333,37.3973,-122.011,,,,
Macy's,,201 W Main St,,Santa Maria,CA,93454,US,(805) 349-8940,34.9535,-120.434,,,,
Macy's,,2015 Birch Road,,Carlsbad,CA,92008,US,(760) 729-9121,33.1528,-117.313,,,,
Macy's,,2100 Glendale Galleria,,Northridge,CA,91324,US,(818) 885-6611,34.2414,-118.551,,,,
Macy's,,214 Marine Ave,,Westminster,CA,92683,US,(714) 657-3333,33.9904,-118.472,,,,
Macy's,,21760 Hawthorne Blvd.,,Montebello,CA,90640,US,,33.9302,-118.159,,,,
Macy's,,111 East Puainako Street,,Kailua-Kona,HI,96740,US,"Kailua-Kona, HI 96740",19.64,-155.997,,,,
Macy's,,1291 Hilltop Drive,,Kahului (Maui),HI,96732,US,(808) 877-3361,20.8893,-156.473,,,,
Macy's,,1450 Moana Blvd,,Honolulu,HI,96816,US,(808) 737-5429,21.2905,-157.844,,,,
Macy's,,200 Nohea Kai Drive,,Honolulu (Oahu),HI,96814,US,(808) 941-2345,21.2967,-157.848,,,,
Macy's,,275 West Kaahumanu Avenue,,Waikoloa (Hawaii),HI,96743,US,(808) 886-8811,19.9261,-155.855,,,,
Macy's,,3-2600 Kaumualii Highway,,Honolulu (Oahu),HI,96815,US,(808) 926-5217,21.27,-157.818,,,,
Macy's,,3500 El Camino Avenue,,Aiea (Oahu),HI,96701,US,,21.3863,-157.926,,,,
Macy's,,3651 N Freeway Blvd,,Hilo (Hawaii),HI,96720,US,(808) 959-3561,19.7297,-155.09,,,,
Macy's,,46-056 Kamehameha Highway,,Honolulu (Oahu),HI,96814,US,46-056 Kamehameha Highway,21.4159,-158.008,,,,
Macy's,,573 Kailua Road,,Kaneohe (Oahu),HI,96744,US,(808) 235-6612,21.3996,-157.797,,,,
Macy's,,69-250 Waikoloa Beach Drive,,Lihue (Kauai),HI,96766,US,(808) 245-7751,21.9811,-159.371,,,,
Macy's,,74-5475 Kamaka'Eha Avenue,,Kaanapali,HI,96761,US,(808) 667-7785,20.9331,-156.683,,,,
Macy's,,98-205 Kaonohi Street,,Kailua (Oahu),HI,96734,US,(808) 262-5395,21.4022,-157.739,,,,
Belk,,14025 Abercorn St,,Douglas,GA,31533,US,(912) 384-4212,33.771,-84.765,,,,
Belk,,1456 E. Forsyth Street,,Thomasville,GA,31792,US,(229) 226-3725,30.8473,-83.9908,,,,
Belk,,150 Pearl Nix Parkway,,Cornelia,GA,30531,US,(706) 778-9400,34.5115,-83.5271,,,,
Belk,,1500 Southlake Parkway,,Thomaston,GA,30286,US,(706) 648-2131,32.8882,-84.3266,,,,
Belk,,1552 Hwy 54 West,,LaGrange,GA,30241,US,(706) 882-5576,33.1842,-84.9535,,,,
Belk,,1800 Jonesboro Road,,Newnan,GA,30265,US,(770) 251-4335,33.3807,-84.7997,,,,
Belk,,205 Pavilion Parkway,,McDonough,GA,30253,US,(678) 583-1996,33.4314,-84.1724,,,,
Belk,,2100 Pleasant Hill Road,,Carrollton,GA,30117,US,(770) 832-1421,33.6013,-85.0018,,,,
Belk,,2150 E Walnut Ave,,Cordele,GA,31015,US,(229) 273-2875,31.8312,-83.9223,,,,
Belk,,2215 Memorial Dr. Ste 30,,St. Marys,GA,31558,US,(912) 882-1900,30.2702,-82.1627,,,,
Belk,,2601 Dawson Rd,,Moultrie,GA,31768,US,(229) 985-6910,31.1799,-83.7888,,,,
Macy's,,17 S 8Th St,,Bloomington,IN,47401,US,(812) 333-8781,39.1695,-86.5336,,,,
Macy's,,3068 East Third Street,,Terre Haute,IN,47802,US,(812) 234-1546,39.4323,-87.4135,,,,
Macy's,,3401 South U.S. Highway 41,,Lafayette,IN,47905,US,(765) 447-2141,40.5129,-87.3782,,,,
Macy's,,3801 National Rd East#733,,Evansville,IN,47715,US,(812) 473-9244,38.0015,-87.3871,,,,
Macy's,,6020 East 82nd Street,,Mishawaka,IN,46545,US,(574) 277-2950,41.6862,-86.1446,,,,
Macy's,,8701 Keystone Crossing,,Merrillville,IN,46410,US,(219) 769-9100,41.4251,-87.2408,,,,
Macy's,,Sr13 Camelot Sq,,Fort Wayne,IN,46805,US,(260) 484-1561,41.099,-85.0757,,,,
Mosser's Shoes,,800 N Green River Rd,,Lafayette,IN,47905,US,(765) 447-0766,40.433,-86.8986,,,,
Mosser's Shoes,,800 North Green River Road,,Lafayette,IN,47905,US,765-447-0766,40.433,-86.8986,,,,
Pilcher Shoe Store,,1311 Lighthouse Place,,North Webster,IN,46555,US,574-834-7463,29.5395,-95.0676,,,,
Robert's Shoe Store,,6501 North Grape Road,,Fort Wayne,IN,46805,US,260-483-3812,40.6546,-85.223,,,,
Rockport Clearance Outlet,,1300 E 86Th St,,Michigan City,IN,46360,US,(219) 879-1245,41.7075,-86.895,,,,
Smith's Sport N' Shoe,,4311 West Clara Lane,,Bloomington,IN,47401,US,812-323-7463,37.0609,-113.604,,,,
Stouts,,13155 N. Old Meridian St,,Brownsburg,IN,46112,US,317-852-8300,39.8434,-86.3978,,,,
Dia-Foot,,980 State Rd 7,,Wellington,FL,33414,US,(561)791-1213,26.6651,-80.2028,,,,
Dillard's,,1000 Marketplace Blvd,,Sanford,FL,32771,US,407-330-1775,51.4583,-2.11477,,,,
Dillard's,,1020 Bichara Blvd,,Jacksonville,FL,32246,US,904-641-0471,30.3172,-81.5566,,,,
Dillard's,,10310 Southside Blvd,,Tallahassee,FL,32301,US,850-671-2000,30.0716,-84.3014,,,,
Dillard's,,13151 Cortez Boulevard,,Port Richey,FL,34668,US,727-847-9393,28.248,-82.6908,,,,
Dillard's,,1441 Tamiami Trl,,Naples,FL,34102,US,239-261-4100,26.1405,-81.787,,,,
Dillard's,,1500 Apalachee Parkway,,Panama City,FL,32405,US,850-769-7671,30.1917,-85.6743,,,,
Dillard's,,1500 Apalachee Pkwy,,Panama City,FL,32413,US,850-234-2417,30.2098,-85.8557,,,,
Dillard's,,1700 W New Haven Ave,,Merritt Island,FL,32952,US,321-452-6411,40.8809,-73.826,,,,
Dillard's,,1800 9Th Street North,,Bonita Springs,FL,34135,US,239-947-4133,26.3714,-81.749,,,,
Dillard's,,19535 Biscayne Blvd.,,Fort Lauderdale,FL,33304,US,954-565-5245,26.1352,-80.1177,,,,
Dillard's,,"2121 Us 1, S",,Daytona Beach,FL,32114,US,386-255-8161,29.2177,-81.025,,,,
Farm King,,7200 Harrison Avenue,,Galesburg,IL,61401,US,309-343-0327,40.9621,-90.3525,,,,
Farm King,,800 Tenney St,,Macomb,IL,61455,US,309-837-4423,40.4592,-90.6718,,,,
Farm King,,800 Tenney Street,,Monmouth,IL,61462,US,309-734-3810,40.9114,-90.6474,,,,
Farm King Supply,,1620 E Jackson,,Canton,IL,61520,US,309-647-4416,40.5437,-90.0575,,,,
Farm King Supply,,2091 N Main St,,Monmouth,IL,61602,US,309-734-9421,40.9345,-90.6477,,,,
Farm King Supply,,3000 W Main,,Macomb,IL,61455,US,309-833-5508,40.4826,-90.6917,,,,
Farm King Supply,,4500 16Th St,,Kewanee,IL,61433,US,309-852-6561,41.2636,-89.9146,,,,
Farm King Supply,,7013 W Dempster,,Galesburg,IL,61401,US,309-343-0327,40.9478,-90.3712,,,,
Giesches,,1 Stratford Square Mall,,Glen Ellyn,IL,60137,US,630-469-2554,41.844,-88.054,,,,
Giesches,,1515 Sheridan Rd,,Geneva,IL,60134,US,630-232-2317,42.6053,-88.4193,,,,
Golden Shoes,,645 East Boughton Road,,Palos Heights,IL,60463,US,708-448-5541,41.6681,-87.7964,,,,
Hanig's Footwear,,2749 Grand Ave,,Wilmette,IL,60093,US,(847) 256-3545,42.0633,-87.8157,,,,
Hanig's Footwear Inc,,2754 N Clark St,,Chicago,IL,60642,US,312-640-1234,41.9326,-87.6452,,,,
Macy's,,21800 Hawthorne Blvd.,,Montebello,CA,90640,US,(323) 201-2111,33.9302,-118.159,,,,
Macy's,,21900 Vanowen Street,,Santa Clarita,CA,91355,US,(661) 287-5911,34.44,-118.591,,,,
Macy's,,220 East Via Rancho Parkway,,San Diego,CA,92108,US,(619) 297-2511,32.782,-117.114,,,,
Macy's,,2211 S. Mooney Boulevard,,Bakersfield,CA,93304,US,(661) 832-5550,35.3812,-119.174,,,,
Macy's,,2411 Magowan Dr,,Citrus Heights,CA,95610,US,(916) 962-3333,38.6977,-121.274,,,,
Macy's,,24201 Valencia Blvd #1218,,Woodland Hills,CA,91367,US,,34.1785,-118.597,,,,
Macy's,,2500 Hilltop Mall Road,,Novato,CA,94945,US,,38.1218,-122.549,,,,
Macy's,,2500 Somersville Road,,Hayward,CA,94545,US,(510) 786-4300,42.9799,-71.4314,,,,
Macy's,,2559 El Camino Real,,Escondido,CA,92025,US,(760) 489-2336,33.1308,-117.133,,,,
Macy's,,26450 Mcbean Parkway,,Woodland Hills,CA,91367,US,,34.1785,-118.597,,,,
Macy's,,27291 Plaza De La Paz Rd,,Santa Ana,CA,92705,US,(714) 547-7211,33.7456,-117.868,,,,
Macy's,,2801 Stevens Creek Blvd,,Stockton,CA,95207,US,(209) 477-3333,38.1231,-121.294,,,,
Macy's,,2828 Colorado Blvd.,,Los Angeles,CA,90064,US,(310) 694-3333,34.1414,-118.226,,,,
Macy's,,2838 South El Camino Real,,Antioch,CA,94509,US,(925) 219-3333,33.6455,-117.821,,,,
Belk,,2731 Candler Road,,Snellville,GA,30039,US,(678) 344-8484,33.7972,-84.0273,,,,
Belk,,2904 Martha Berry Hwy,,Fayetteville,GA,30214,US,(770) 460-8550,33.4487,-84.4549,,,,
Belk,,2950 Watson Blvd,,Macon,GA,31210,US,(478) 474-1078,32.9168,-83.5278,,,,
Belk,,3333 Buford Drive,,Toccoa,GA,30577,US,(706) 886-8496,34.5773,-83.3324,,,,
Belk,,"3360 Satellite Blvd., #1A",,Cartersville,GA,30120,US,(770) 382-3770,34.1651,-84.7999,,,,
Belk,,3360 Venture Parkway,,Canton,GA,30114,US,(770) 720-1125,40.7731,-81.4782,,,,
Belk,,3450 Wrightsboro Rd,,Centerville,GA,31028,US,(478) 953-7422,32.6245,-83.6854,,,,
Belk,,3450 Wrightsboro Road,,Dublin,GA,31021,US,(478) 272-3415,32.5404,-82.9038,,,,
Belk,,"3636 Dallas Hwy Sw, Ste 100",,Norcross,GA,30092,US,(678) 291-9980,33.9852,-84.2384,,,,
Belk,,3700-175 Atlanta Hwy,,Dalton,GA,30721,US,(706) 278-5345,34.7698,-84.9702,,,,
Belk,,400 Ernest Barrett Parkway,,Rome,GA,30165,US,,34.257,-85.1647,,,,
Belk,,400 Ernest G Barrett Pkwy,,Kennesaw,GA,30144,US,(770) 514-5200,34.0174,-84.5643,,,,
Stouts,,2600 Elida Road,,Carmel,IN,46032,US,317-848-5432,39.9693,-86.165,,,,
Stouts,,57 Boone Village,,Indianapolis,IN,46204,US,317-632-7818,39.785,-85.9596,,,,
Stouts Shoe Factory,,615 Harding Ave,,Carmel,IN,46032,US,,38.7578,-121.286,,,,
Stouts Shoes,,1250 U.S. 31 North,,Indianapolis,IN,46227,US,,39.6814,-86.1488,,,,
Toenges,,2210 Southlake Mall,,Fort Wayne,IN,46805,US,260-484-4742,41.1178,-85.0513,,,,
Toenges,,757 E Lewis & Clarke Pkwy,,Muncie,IN,47304,US,765-289-7105,40.1934,-85.3864,,,,
Toenges Shoes,,1215 Reed Rd,,Muncie,IN,47303,US,765-289-7105,40.2095,-85.4925,,,,
Silcott Shoes,,18 Washington St,,Valparaiso,IN,46383-4767,US,212-462-7178,41.468,-87.061,,,,
Dillard's,,2201 East Fowler Avenue,,Tampa,FL,33625,US,813-926-4545,28.0539,-82.4342,,,,
Dillard's,,2415 North Monroe St,,Pensacola,FL,32504,US,850-671-2000,30.5326,-87.2062,,,,
Dillard's,,2521 Airport Trwy,,Orange Park,FL,32073,US,904-269-2222,30.1661,-81.7065,,,,
Dillard's,,2604 Sawgrass Mills Cir,,Plantation,FL,33388,US,954-370-8182,26.1516,-80.321,,,,
Peltz Shoes,,2675 Gulf To Bay Blvd,,Clearwater,FL,33761,US,727-799-4947,27.9578,-82.7264,,,,
Dillard's,,270 Cypress Edge Drive,,Jacksonville,FL,32256,US,904-363-6115,30.2717,-81.742,,,,
Dillard's,,27001 Us Hwy 19N,,Lakeland,FL,33805,US,863-859-2000,30.983,-83.0722,,,,
Dillard's,,300 Mary Esther Blvd,,Gainesville,FL,32605,US,352-331-1455,29.6807,-82.3724,,,,
Dillard's,,303 Brandon Town Center M,,Tampa,FL,33607,US,813-342-1220,27.9481,-82.3493,,,,
Dillard's,,3107 Pga Boulevard,,Wellington,FL,33414,US,561-227-5470,26.6375,-80.2433,,,,
Peltz Shoes,,328 Brandon Town Center Drive,,Brandon,FL,33511,US,813-571-0777,27.9368,-82.3278,,,,
Hanigs,,111 North State Street,,Chicago,IL,60614,US,773-248-1977,41.8839,-87.6276,,,,
Heel To Toe,,2101 Us Highway 67,,Urbana,IL,61801,US,(217) 367-2880,40.1059,-88.212,,,,
Heel To Toe,,2200 West War Memorial Drive,,Urbana,IL,61801,US,217-367-2880,40.1059,-88.212,,,,
Kay Shoes,,118 W Monroe St,,Chicago,IL,60640,US,773 489-4350,41.8809,-87.6317,,,,
"L.L. Bean Skokie, Il",,1455 Lake Cook Rd.,,Skokie,IL,60077,US,888-552-5564,42.1794,-87.8196,,,,
"L.L.Bean South Barrington, Il",,2901 Brooks Street,,So. Barrington,IL,60010,US,888-552-5548,42.1891,-88.1246,,,,
Lord And Taylor,,1 Orland Square,,Oakbrook,IL,60521,US,630-574-8000,41.7967,-87.9286,,,,
Lord And Taylor,,147 N Seymour,,Northbrook,IL,60062,US,847-498-2500,42.1275,-87.829,,,,
Lord And Taylor,,1555 Northbrook Court,,Skokie,IL,60077,US,847-677-9000,42.1235,-87.7826,,,,
Macy's,,1 Fox Valley Center,,Naperville,IL,60540,US,,41.7592,-88.2127,,,,
Macy's,,1 Hawthorn Center,,Skokie,IL,60077,US,(847) 329-2700,42.0341,-87.7591,,,,
Macy's,,1 Woodfield Mall,,Joliet,IL,60435,US,(815) 254-5200,41.5359,-88.1194,,,,
Macy's,,100 Alton Square,,Springfield,IL,62704,US,(217) 787-9900,42.0775,-88.0312,,,,
Macy's,,291 Fletcher Parkway,,San Diego,CA,92108,US,(619) 299-9811,32.8061,-116.965,,,,
Macy's,,300 Shops Boulevard,,Ventura,CA,93003,US,,34.2149,-119.063,,,,
Macy's,,300 Westminster Mall,,Brea,CA,92821,US,(714) 990-1400,34.0689,-118.316,,,,
Macy's,,3000 Plaza Bonita Road,,El Cajon,CA,92020,US,(619) 440-1011,32.7789,-116.903,,,,
Macy's,,310 Kearny St,,San Mateo,CA,94403,US,,37.6685,-122.421,,,,
Macy's,,311 Nut Tree Road,,Sacramento,CA,95821,US,(916) 485-3885,38.4114,-121.369,,,,
Macy's,,3251 20Th Avenue,,San Mateo,CA,94403,US,(650) 341-3333,37.5469,-122.315,,,,
Macy's,,3333 Bristol Street,,Newport Beach,CA,92660,US,(949) 640-8333,33.6616,-117.873,,,,
Macy's,,3400 N.Naglee Rd.,,Santa Rosa,CA,95401,US,(707) 523-3333,38.441,-122.797,,,,
Macy's,,3400 North Sepulveda Blvd.,,Torrance,CA,90503,US,,33.8249,-118.343,,,,
Macy's,,3401 Dale Road,,Santa Rosa,CA,95401,US,(707) 579-3333,38.4442,-122.746,,,,
Macy's,,341 Sun Valley Mall,,Newark,CA,94560,US,(510) 797-3333,37.5297,-122.04,,,,
Macy's,,3500 Tyler Mall,,Temecula,CA,92591,US,(951) 541-3333,33.5273,-117.115,,,,
Macy's,,3551 Dogwood Avenue,,Palm Desert,CA,92260,US,(760) 346-9300,33.7745,-116.539,,,,
Belk,,421-B Moreland Avenue Ne,,Atlanta,GA,30326,US,(404) 814-3200,33.7658,-84.3489,,,,
Belk,,4300 Ashford Dunwoody Road,,Statesboro,GA,30458,US,,32.4488,-81.7832,,,,
Belk,,5080 Riverside Drive,,Savannah,GA,31406,US,(912) 352-1830,32.044,-80.9966,,,,
Belk,,520 Lakeland Plaza,,Marietta,GA,30064,US,(770) 590-9665,33.9735,-84.4095,,,,
Belk,,5400 Ashford Dunwoody Rd,,Vidalia,GA,30474,US,(912) 537-2355,32.2177,-82.4135,,,,
Belk,,600 Cherokee Pl,,Douglasville,GA,30135,US,(678) 838-2200,33.7556,-84.7201,,,,
Belk,,755 S Big A Rd,,Bethlehem,GA,30620,US,(770) 586-5959,33.9321,-83.7138,,,,
Belk,,7802 Abercorn Expressway,,Brunswick,GA,31525,US,(912) 264-3516,32.0645,-81.0873,,,,
Belk,,7804 Abercorn Extension,,Waycross,GA,31501,US,(912) 283-8255,31.2298,-82.356,,,,
Belk,,800 Highway 400 South,,Athens,GA,30606,US,(706) 353-0060,33.9448,-83.4323,,,,
Belk,,8030 Mall Parkway,,Cumming,GA,30040,US,(770) 889-5998,34.1662,-84.1765,,,,
Dillard's,,330 Towne Center Circle,,Orlando,FL,32803,US,407-896-1211,28.8023,-81.3395,,,,
Dillard's,,3505 East Colonial Drive,,Orlando,FL,32809,US,407-240-1771,28.5552,-81.3401,,,,
Dillard's,,3800 Us Highway 98 N,,Lake Wales,FL,33859,US,863-676-7646,27.9014,-81.5859,,,,
Dillard's,,400 Southgate Plaza,,Ocala,FL,34474,US,352-629-9266,29.0515,-82.0504,,,,
Dillard's,,4664 Millenia Plz Way,,Melbourne,FL,32904,US,321-676-1300,27.9669,-80.7879,,,,
Dillard's,,5100 North 9Th Ave,,Mary Esther,FL,32569,US,850-244-7111,30.4099,-86.663,,,,
Dillard's,,6200 20Th Street,,Pembroke Pines,FL,33026,US,954-450-8661,26.0258,-80.2864,,,,
Dillard's,,638 Brandon Town Center Drive,,Wesley Chapel,FL,33543,US,813-991-1352,28.1829,-82.3642,,,,
Dillard's,,6495 W Newberry Rd,,Altamonte Sprgs,FL,32701,US,407-830-1211,28.666,-81.3729,,,,
Dillard's,,70 March Ave,,Vero Beach,FL,3296,US,772-770-2141,42.4072,-71.3824,,,,
Dillard's,,700 Third Street Sw,,Fort Myers,FL,33901,US,239-936-1441,26.6446,-81.8625,,,,
Dillard's,,7668 South Tamiami Trail,,Sarasota,FL,34239,US,941-955-2241,27.2419,-82.5084,,,,
Dillard's,,8161 Citrus Pk Town Ctr M,,St Petersburg,FL,33710,US,727-344-4611,28.0682,-82.5796,,,,
Macy's,,1000 Spring Hill Mall,,Schaumburg,IL,60173,US,(847) 781-6200,42.0331,-88.0373,,,,
Macy's,,106 W Main Street,,Alton,IL,62002,US,(618) 463-4100,38.8878,-90.1489,,,,
Macy's,,1200 North Meacham Road,,Calumet City,IL,60409,US,,41.6156,-87.5295,,,,
Macy's,,12212 South Harlem Ave,,Oakbrook,IL,60523,US,(630) 684-2400,41.8398,-87.9536,,,,
Macy's,,1516 Miner Road,,Vernon Hills,IL,60061,US,(847) 918-2700,42.2393,-87.9654,,,,
Macy's,,1615 East Empire Street,,Champaign,IL,61820,US,(217) 363-5600,40.1166,-88.2412,,,,
Macy's,,1708 Glenview Rd,,Northbrook,IL,60062,US,(847) 509-5100,42.135,-87.7979,,,,
Macy's,,180 Oakbrook Center Mall,,Chicago,IL,60602,US,(312) 781-1000,41.851,-87.9505,,,,
Macy's,,200 St. Clair Square,,Carbondale,IL,62901,US,(618) 529-4400,37.7273,-89.2168,,,,
Macy's,,2000 North Neil Street,,Fairview Heights,IL,62208,US,(618) 624-2000,35.7921,-78.6852,,,,
Macy's,,2027 Sw Adams,,Bloomington,IL,61701,US,(309) 665-0622,40.4921,-88.9937,,,,
Macy's,,2091 North Main,,Peoria,IL,61613,US,(309) 682-2600,40.7122,-89.5987,,,,
Macy's,,400 Inland Ctr. Dr.,,Moreno Valley,CA,92553,US,(951) 656-1611,33.9144,-117.271,,,,
Macy's,,400 Puente Hills Mall,,West Covina,CA,91790,US,(626) 962-5400,33.9928,-117.928,,,,
Macy's,,400 South Baldwin Avenue,,Glendale,CA,91210,US,,34.0702,-118.206,,,,
Macy's,,400 Stonewood Street,,Torrance,CA,90503,US,(310) 370-8511,33.7655,-118.307,,,,
Macy's,,4005 Crenshaw Blvd.,,Los Angeles,CA,90031,US,,34.0117,-118.336,,,,
Macy's,,401 South Lake Avenue,,Canoga Park,CA,91303,US,(818) 883-7211,34.2381,-118.638,,,,
Macy's,,40782 Winchester Blvd,,Irvine,CA,92618,US,(949) 341-9111,33.7126,-117.766,,,,
Macy's,,40820 Winchester Rd,,Costa Mesa,CA,92626,US,(714) 556-0611,33.6849,-117.958,,,,
Macy's,,477 South Mills Road,,Santa Barbara,CA,93101,US,(805) 963-4566,34.4234,-119.874,,,,
Belk,,907 16Th Ave E,,Milledgeville,GA,31061,US,(478) 452-5572,33.2795,-82.9772,,,,
Bennies Inc,,2265 Market Place Blvd,,Norcross,GA,30071,US,404-447-1577,33.9412,-84.2135,,,,
Bennies Inc,,450 Newnan Crossing Bypass,,Atlanta,GA,30324,US,404-262-1966,33.6939,-84.4339,,,,
Bennies Inc,,815 Earnest Barrett Pkwy,,Kennesaw,GA,30144,US,770-955-1972,34.006,-84.5743,,,,
Burnhams Shoes Inc,,15023 Us 19 S,,Columbus,GA,31904,US,(334)794-5682,32.5094,-84.9643,,,,
College Park Shoes Inc,,3393 Peachtree Road N.E.,,Atlanta,GA,30329,US,(404) 633-1154,33.8467,-84.3619,,,,
Dillard's,,1094 E Franklin St,,Augusta,GA,30909,US,706-481-0600,33.4584,-81.9999,,,,
Dillard's,,1109 S Park Ste 300,,Douglasville,GA,30135,US,770-577-4271,33.6984,-84.6406,,,,
Dillard's,,1322 S Peterson Ave,,Albany,GA,31707,US,229-883-7900,44.659,-123.035,,,,
Dillard's,,1454 Dogwood Dr,,Alpharetta,GA,30022,US,770-410-9020,33.9831,-84.2771,,,,
Dillard's,,1501 Lafayette Pkwy,,Newman,GA,30265,US,770-254-0166,33.4065,-84.6899,,,,
Dillard's,,820 West Towne Ctr Pkwy,,Oviedo,FL,32765,US,407-977-9996,28.67,-81.2081,,,,
Dillard's,,9403 West Colonial Dr,,Jensen Beach,FL,34957,US,772-692-0555,39.7485,-75.5268,,,,
Dillard's,,9409 U.S. Hwy 19 North,,Ocoee,FL,34761,US,407-292-6866,28.5692,-81.544,,,,
Dillard's,,"Ontario Mills Circle, Suite 705",,Port Charlotte,FL,33948,US,941-255-1778,26.9762,-82.0906,,,,
Famous Shoes 210,,8017 Via Sardina Way,,Sarasota,FL,34231,US,(941)833-9135,27.0959,-82.1878,,,,
Global Trading Inc,,1290 N Federal Hwy,,Miami,FL,33122,US,(305)471-4455,25.8167,-80.1895,,,,
Macy's,,10300 Southside Blvd,,Tallahassee,FL,32301,US,(850) 325-2800,30.0716,-84.3014,,,,
Macy's,,10304 Forest Hills Blvd,,Boynton Beach,FL,33426,US,(561) 738-4300,37.531,-77.5029,,,,
Macy's,,11605 Pines Blvd.,,Pompano Beach,FL,33062,US,(954) 786-6300,26.317,-80.1947,,,,
Macy's,,1200 Ne 23rd Street,,Coral Springs,FL,33071,US,(954) 345-3300,26.2584,-80.1712,,,,
Macy's,,1245 N.W. 107Th Avenue,,Miami,FL,33189,US,(305) 252-5200,25.7567,-80.3681,,,,
Macy's,,13251 South Dixie Highway,,Aventura,FL,33180,US,(305) 682-3300,25.9649,-80.1472,,,,
Macy's,,13300 South Cleveland Avenue,,Port Charlotte,FL,33948,US,(941) 764-5300,27.026,-82.0786,,,,
Macy's,,21 N 4Th St,,Schaumburg,IL,60173,US,(847) 706-6000,41.983,-88.0785,,,,
Macy's,,2781 Aurora Ave,,Chicago,IL,60611,US,(312) 335-7700,41.7489,-88.2794,,,,
Macy's,,3340 Mall Loop Drive,,Orland Park,IL,60462,US,(708) 873-4100,41.6306,-87.8255,,,,
Macy's,,45 E Dundee Rd,,West Dundee,IL,60118,US,(618) 463-4100,42.1363,-88.3101,,,,
Macy's,,45 East Dundee Road,,Bloomingdale,IL,60108,US,(630) 924-4700,41.9575,-88.0809,,,,
Macy's,,5321 N Clark St,,Rockford,IL,61112,US,(815) 332-2424,42.3897,-89.1513,,,,
Macy's,,6548 Cermak Rd,,Bolingbrook,IL,60440,US,,41.6949,-88.0803,,,,
Macy's,,9620 W 143rd St,,Aurora,IL,60504,US,(630) 978-5400,41.7568,-88.2169,,,,
Macy's,,48750 Seminole Drive,,Palm Desert,CA,92260,US,,33.7108,-116.308,,,,
Macy's,,4888 North Fresno Street,,Daly City,CA,94015,US,,37.6827,-122.406,,,,
Macy's,,500 Los Cerritos Mall,,Pasadena,CA,91101,US,(626) 792-0211,33.818,-118.187,,,,
Macy's,,500 W Napa St,,Roseville,CA,95678,US,(916) 771-3333,38.7726,-121.342,,,,
Macy's,,5000 Montclair Plaza Lane,,Chula Vista,CA,91910,US,(619) 427-1161,32.6226,-117.043,,,,
Macy's,,5100 Meadowood Mall,,Los Angeles,CA,90017,US,,34.3119,-118.503,,,,
Macy's,,5242 Pacific Avenue,,Modesto,CA,95356,US,(209) 491-3971,37.6498,-120.957,,,,
Macy's,,5411 Thornwood Drive,,Tracy,CA,95304,US,(209) 221-4500,37.7397,-121.425,,,,
Macy's,,555 Broadway Avenue,,La Mesa,CA,91942,US,(619) 465-1121,32.7511,-117.013,,,,
Macy's,,5630 Paseo Del Norte,,San Diego,CA,92101,US,(619) 231-4747,33.0387,-117.051,,,,
Macy's,,590 West Hillcrest Drive,,Sherman Oaks,CA,91423,US,(818) 788-8350,34.0911,-118.396,,,,
Macy's,,6011 South Virginia Street,,Los Angeles,CA,90008,US,,34.0145,-118.341,,,,
Macy's,,6100 Birdcage Ln Ste B121,,Roseville,CA,95678,US,(916) 786-5333,38.7637,-121.291,,,,
Dillard's,,2001 Veterans Blvd Ste 15,,Macon,GA,31210,US,478-474-4545,32.9,-83.7412,,,,
Dillard's,,2144 Lawrenceville Highway,,Lathonia,GA,30038,US,770-666-0000,33.6686,-84.133,,,,
Dillard's,,2347 First St E,,Buford,GA,30519,US,678-482-5241,34.1926,-83.9317,,,,
Dillard's,,4389 Roswell Road,,Atlanta,GA,30346,US,678-320-9140,33.8743,-84.3799,,,,
Dillard's,,458 Virginia Ave N Ste 7,,Columbus,GA,31909,US,706-324-7272,32.4736,-84.973,,,,
Dillard's,,4800 Briarcliff Road,,Atlanta,GA,30363,US,404-879-0635,33.8497,-84.2551,,,,
Dillard's,,5080 Riverside Drive,,Savannah,GA,31419,US,912-920-9000,32.044,-80.9966,,,,
Diprimas Shoes Inc,,2700 Town Center Dr,,Rome,GA,30161,US,(706) 234-7463,33.763,-84.4365,,,,
Gallant Belk #78,,3700 Atlanta Highway,,Hartwell,GA,30643,US,(706) 376-2314,34.3529,-82.9321,,,,
Macy's,,1055 Hwy 19 N,,Atlanta,GA,30326,US,(404) 231-2800,34.4695,-83.9612,,,,
Macy's,,1181 Hammond Dr,,Atlanta,GA,30339,US,:(770) 434-2600,33.9205,-84.3408,,,,
Macy's,,1400 Oviedo Marketplace Blvd,,Sanford,FL,32771,US,(407) 328-3300,28.7944,-81.2523,,,,
Macy's,,1441 Tamiami Trail,,Naples,FL,34102,US,(239) 434-1300,26.1405,-81.787,,,,
Macy's,,15789 South Apopka Vineland Rd.,,Orlando,FL,32839,US,(407) 264-2300,28.3488,-81.488,,,,
Macy's,,1675 Meridian Ave,,Miami,FL,33172,US,,25.7918,-80.1361,,,,
Macy's,,1700 West New Haven Avenue,,Merritt Island,FL,32952,US,(321) 454-1300,40.8809,-73.826,,,,
Macy's,,1721 Palm Beach Lakes Blvd #E411,,Wellington,FL,33414,US,(561) 493-2000,26.6522,-80.2136,,,,
Macy's,,1777 West 49Th Street,,Pembroke Pines,FL,33027,US,,25.9645,-80.3473,,,,
Macy's,,"1910 Wells Rd, Lot 44",,Daytona Beach,FL,32114,US,(386) 254-3300,29.1968,-81.0208,,,,
Peltz Shoes,,1920 Stickney Point Road,,Sarasota,FL,34239,US,941-351-9471,27.2589,-82.5231,,,,
Macy's,,20507 South Dixie Highway,,Fort Lauderdale,FL,33308,US,,26.3589,-80.0862,,,,
Macy's,,22 East Flagler Street,,Miami,FL,33156,US,,25.7737,-80.1932,,,,
Macy's,,2223 N West Shore Blvd,,Tampa,FL,33612,US,(813) 977-7525,27.9644,-82.5204,,,,
Macy's,,"2261 Town Center Ave, Ste 131",,Vero Beach,FL,32966,US,(772) 564-2300,27.7563,-80.7658,,,,
Macy's,,2612 Sawgrass Mills Circle,,West Palm Beach,FL,33401,US,,26.7153,-80.0533,,,,
Miroballi,,1 River Oaks Drive,,Orland Park,IL,60462,US,708-349-7377,41.6306,-87.8255,,,,
Mosser's Shoes,,2101 U.S. 67,,Peoria,IL,61602,US,309-674-4400,40.6892,-89.5901,,,,
Rockport Clearance Outlet,,108 W Main Street,,Tuscola,IL,61953,US,(217) 253-9560,39.7981,-88.2877,,,,
Adrian's Shoes & Repair,,1210 Towanda Ave.,,Bloomington,IL,61701,US,309-827-6591,40.4891,-88.9694,,,,
Rogan's Shoes,,100 West Higgins Rd,,Mundelein,IL,60060,US,(847) 566-6077,42.2631,-88.004,,,,
Rogan's Shoes,,4847 Old Orchard Center,,Waukegan,IL,60085,US,(847) 336-9044,42.3642,-87.8648,,,,
Rogan's Shoes Inc,,4999 Old Orchard Ctr. Ste F 18,,Buffalo Grove,IL,60089,US,,42.1542,-87.9627,,,,
Rogans Shoes 40,,5012-14 Dempster St,,Buffalo Grove,IL,60089,US,847-325-5235,42.8864,-78.8135,,,,
Sandler's Shoes,,3313 Ridge Road,,Lansing,IL,60438,US,(708)895-0833,41.5674,-87.5601,,,,
Square Deal,,110 North Higgins Avenue,,Des Plaines,IL,60016,US,847-824-5262,42.0263,-87.9694,,,,
Waxbergs,,2839 N Milwaukee Ave,,Niles,IL,60714,US,847-965-3338,42.0278,-87.8156,,,,
Active Footwear,,1 Crystal Lake Plaza,,Crystal Lake,IL,60014,US,(815) 444-7239,42.2272,-88.323,,,,
Macy's,,6100 Topanga Canyon Blvd.,,North Hollywood,CA,91606,US,(818) 766-4111,34.1874,-118.39,,,,
Macy's,,6101 Owensmouth Avenue,,Burbank,CA,91502,US,(818) 841-2100,34.1772,-118.308,,,,
Macy's,,6200 Slauson Avenue,,Manhattan Beach,CA,90266,US,(310) 546-5525,33.868,-118.371,,,,
Macy's,,6920 Sunset Blvd,,Los Angeles,CA,90048,US,(310) 854-6655,34.0976,-118.341,,,,
Macy's,,72-780 Highway 111,,San Bernardino,CA,92408,US,(909) 888-1444,33.9226,-116.678,,,,
Macy's,,73575 El Paseo,,Riverside,CA,92503,US,(951) 687-1021,33.9142,-117.311,,,,
Macy's,,750 National Court,,Corte Madera,CA,94925,US,(415) 927-3333,37.9255,-122.527,,,,
Macy's,,750 West 7Th Street,,Los Angeles,CA,90041,US,(323) 982-1583,34.0479,-118.259,,,,
Macy's,,7855 Kew Avenue,,City Of Industry,CA,91748,US,,33.981,-117.89,,,,
Macy's,,7871 Amador Valley Blvd,,Pleasanton,CA,94588,US,,37.706,-121.935,,,,
Macy's,,7890 N. Blackstone Avenue,,Monterey,CA,93940,US,(831) 372-3333,40.61,-122.391,,,,
Macy's,,800 Southland Mall,,San Leandro,CA,94578,US,(510) 357-3333,37.6502,-122.104,,,,
Macy's,,848 Lincoln Ave,,Fairfield,CA,94533,US,(707) 428-3333,38.2545,-122.046,,,,
Macy's,,1300 Cumberland Mall,,Atlanta,GA,30346,US,(770) 396-2800,33.88,-84.4709,,,,
Macy's,,1447 Riverstone Pkwy,,Douglasville,GA,30135,US,(678) 391-2300,33.7515,-84.7477,,,,
Macy's,,"1580 Holcomb Bridge Road, #18",,Duluth,GA,30096,US,(770) 497-2600,34.0029,-84.1446,,,,
Macy's,,1645 N Expwy,,Morrow,GA,30260,US,,33.5832,-84.3394,,,,
Macy's,,216 Hwy 441 Bypass,,Athens,GA,30606,US,(706) 353-4847,34.0519,-83.4134,,,,
Macy's,,24 Shelter Cove Lane,,Alpharetta,GA,30022,US,(770) 410-2600,34.0754,-84.2941,,,,
Macy's,,2400 N Columbia St Ste 33,,Savannah,GA,31406,US,,32.0499,-81.1351,,,,
Macy's,,2443 S Main St,,Columbus,GA,31904,US,(706) 478-2300,32.539,-84.9522,,,,
Macy's,,"2841 Greenbriar Pkwy, S.W.",,Atlanta,GA,30345,US,(770) 491-2985,33.6878,-84.4935,,,,
Macy's,,"332 Robert Small Parkway, Ste B",,Alpharetta,GA,30022,US,(678) 795-2512,34.0754,-84.2941,,,,
Macy's,,3500 Peachtree Rd Ne,,Atlanta,GA,30331,US,,33.8527,-84.3622,,,,
Macy's,,5000 North Point Circle,,Decatur,GA,30034,US,(404) 243-2600,33.6808,-84.2709,,,,
Macy's,,270 Citrus Tower Blvd,,Jensen Beach,FL,34957,US,(772) 232-4300,27.2545,-80.2298,,,,
Macy's,,28233 Pasco Drive,,Tampa,FL,33609,US,(813) 286-5300,28.1886,-82.3496,,,,
Macy's,,28335 Paseo Drive,,Tampa,FL,33611,US,,28.1893,-82.3471,,,,
Macy's,,300 Towne Center Cir,,Orlando,FL,32809,US,(407) 854-2300,28.806,-81.3372,,,,
Macy's,,3100 Sw College Rd,,Port Richey,FL,34668,US,,28.2717,-82.7195,,,,
Macy's,,328 Brandon Town Ctr Dr,,Wesley Chappel,FL,33543,US,,28.2108,-82.2909,,,,
Macy's,,3399 Nw 72nd Ave,,Miami,FL,33156,US,,25.8058,-80.3125,,,,
Macy's,,3400 Fairlane Farms Rd,,Boca Raton,FL,33431,US,(561) 393-4400,26.3768,-80.1038,,,,
Macy's,,350 Towne Center Cir,,Orlando,FL,32803,US,(407) 896-5300,28.8036,-81.3378,,,,
Macy's,,3501 South Tamiami Trail,,Ocala,FL,34474,US,(352) 873-5300,29.1622,-82.5195,,,,
Macy's,,4050 Nw 126Th Ave,,Miami,FL,33131,US,(305) 577-1500,25.7342,-80.3982,,,,
Macy's,,4101 Legendary Way,,Gainesville,FL,32605,US,(352) 333-2300,34.1193,-83.851,,,,
Macy's,,4130 Gandy Blvd.,,Tampa,FL,33625,US,(813) 926-7300,27.8906,-82.5136,,,,
Macy's,,4501 North Federal Highway,,Plantation,FL,33388,US,(954) 475-3400,34.0505,-77.9573,,,,
Macy's,,451 E Altamonte Dr,,Oviedo,FL,32765,US,(407) 971-7300,28.67,-81.2081,,,,
Peltz Shoes,,5275 University Parkway,,Sarasota,FL,34238,US,(941) 355-1010,27.3905,-82.4659,,,,
Macy's,,8500 Beverly Boulevard,,Los Angeles,CA,90064,US,(310) 475-4911,34.0753,-118.377,,,,
Macy's,,8960 Caroll Way Ste 100,,El Centro,CA,92243,US,(760) 352-5901,32.6815,-114.608,,,,
Macy's,,93 Fortune Street,,Laguna Hills,CA,92653,US,(949) 586-1901,33.6495,-117.742,,,,
Macy's,,9301 Tampa Avenue,,Thousand Oaks,CA,91360,US,(805) 496-4444,34.2025,-118.874,,,,
Macy's,,990 Camarillo Center Dr.,,Santa Barbara,CA,93105,US,(805) 687-6411,34.4532,-119.745,,,,
Off Broadway 5026,,12481 S. Main Street,,Ontario,CA,91764,US,(909) 980-2406,34.1116,-117.533,,,,
Off Broadway 5029,,22400 Town Circle,,Irvine,CA,92602,US,(714) 665-0559,33.6098,-117.73,,,,
Off Broadway 5035,,Mt Rose Hwy & S Virginia St,,Los Angeles,CA,90028,US,(323) 962-0332,33.9236,-118.419,,,,
Off Broadway 5042,,14000 Riverside Drive,,Chino Hills,CA,91709,US,,34.019,-117.705,,,,
Off Broadway 5059,,2255 Cleveland Avenue,,Citrus Heights,CA,95610,US,(916) 961-1083,38.6977,-121.274,,,,
Macy's,,5192 Brook Hollow Pkwy,,Duluth,GA,30096,US,,33.9277,-84.1797,,,,
Macy's,,6640 Douglas Blvd,,Kennesaw,GA,30144,US,(770) 423-2600,34.0642,-84.5264,,,,
Macy's,,6720 Douglas Blvd,,Kennesaw,GA,30144,US,,34.0642,-84.5264,,,,
Macy's,,7000 N Point Cir,,Lithonia,GA,30038,US,(678) 526-2300,33.6968,-84.1815,,,,
Macy's,,7231 North Point Parkway,,Decatur,GA,30033,US,(404) 329-2600,33.7001,-84.2154,,,,
Macy's,,916 Loganville Hwy,,Augusta,GA,30909,US,(706) 731-5020,33.4647,-82.0734,,,,
Macy's,,Hwy 80 E,,Buford,GA,30519,US,(678) 546-4300,34.1207,-84.0049,,,,
Off Broadway 5024,,"2059 Scenic Hwy, Ste. 110",,Lawrenceville,GA,30043,US,(678) 847-5797,33.8777,-84.0127,,,,
Off Broadway 5033,,6690 Douglas Blvd.,,Kennesaw,GA,30144,US,(678) 354-1280,34.0642,-84.5264,,,,
Off Broadway 5047,,2625 Piedmont Rd,,Atlanta,GA,30328,US,(770) 394-3564,33.8273,-84.3651,,,,
Off Broadway 5074,,8000 Mall Parkway,,Cumming,GA,30041,US,(678) 947-1818,34.1662,-84.1765,,,,
Rockport Factory Outlet,,3333 Buford Drive,,Dawsonville,GA,30534,US,(706) 983- 4001,34.4212,-84.1191,,,,
Smith & Davis Fabric,,2615 George Busbee Parkway #55,,Fayetteville,GA,30214,US,(770)487-4183,33.4487,-84.4549,,,,
Macy's,,5500 Grandview Parkway,,Winter Haven,FL,33880,US,,28.0852,-81.6283,,,,
Macy's,,6323 W Newberry Rd,,Altamonte Springs,FL,32714,US,,28.6626,-81.4114,,,,
Macy's,,6671 Newberry Road,,Altamonte Springs,FL,32701,US,(407) 830-2300,28.666,-81.3729,,,,
Macy's,,6901 22nd Ave N,,Clearwater,FL,33761,US,,27.9039,-82.8465,,,,
Macy's,,6901 22nd Avenue North,,Clearwater,FL,33761,US,(727) 724-7312,27.9039,-82.8465,,,,
Macy's,,7300 Us Hwy 19N,,Lakeland,FL,33809,US,,40.1178,-82.8717,,,,
Macy's,,7303 S.W. 88Th Street,,Miami,FL,33176,US,(305) 278-3300,25.6475,-80.3363,,,,
Macy's,,777 E Merritt Island Cswy,,Pembroke Pines,FL,33026,US,(954) 438-2400,26.0273,-80.2934,,,,
Macy's,,777 E. Merritt Island Causeway,,Hialeah,FL,33012,US,(305) 825-7300,25.8641,-80.3046,,,,
Macy's,,7801 Citrus Park Town Center,,St. Petersburg,FL,33710,US,(727) 346-2300,28.0681,-82.5734,,,,
Macy's,,8000 W Broward Blvd #St1,,Gardens,FL,33410,US,(561) 625-2985,26.8599,-80.087,,,,
Macy's,,801 North Congress Avenue,,Boca Raton,FL,33434,US,,26.4496,-80.0923,,,,
Macy's,,901 Us 27 N Ste 140,,Fort Myers,FL,33901,US,(239) 477-3300,26.6023,-81.9564,,,,
Macy's,,9100 S.W. 136Th Street,,Fort Lauderdale,FL,33304,US,(954) 537-2300,26.1195,-80.3302,,,,
Off Broadway 5060,,414 K Street,,Sacramento,CA,95834,US,(916) 419-0021,38.5806,-121.501,,,,
Off Broadway 5063,,101 Newport Center Drive,,Laguna Niguel,CA,92677,US,(949) 831-3792,33.5188,-117.689,,,,
Parts Unknown,,2101 Chester Ave,,Solvang,CA,93463,US,(805) 686-9000,34.5958,-120.138,,,,
Lucky Feet Shoes,,"9635 MILLIKEN AVE., #101",,Rancho Cucamonga,CA,91730,US,909-987-5555,34.0786,-117.558,,,,
Rockport Clearance Outlet,,1555 Camino De La Reina,,Cabazon,CA,92230,US,(951) 849-6977,33.9175,-116.787,,,,
Rockport Clearance Outlet,,6000 Sunrise Blvd,,Vacaville,CA,95687,US,(707) 452-0235,38.3756,-121.977,,,,
Rockport Factory Outlet,,18 Lightcap Road Suite 723,,Gilroy,CA,95020,US,,37.0058,-121.568,,,,
Rockport Factory Outlet,,990 Camarillo Center Dr. #1012,,Camarillo,CA,93010,US,(805)383-0034,34.2147,-119.057,,,,
Rockport Factory Outlet,,4125 Cleveland Ave,,Ontario,CA,91764,US,,34.0773,-117.567,,,,
Rockport Factory Outlet,,5500 Grossmont Center Drive,,Carlsbad,CA,92008,US,(760)804-0154,33.1412,-117.321,,,,
Rockport Factory Outlet,,72810 Highway 111,,Barstow,CA,92311,US,(760) 253-2128,34.9034,-117.094,,,,
Macy's,,9129 West Atlantic Blvd,,Miami Beach,FL,33139,US,(305) 674-6300,25.8726,-80.1201,,,,
Macy's,,9339 Glades Road,,Brandon,FL,33511,US,(813) 651-5200,35.7637,-77.9403,,,,
Macy's,,9500 Satellite Blvd #230,,Melbourne,FL,32904,US,(321) 837-5300,28.1582,-80.5935,,,,
Mcraes 658,,5100 N 9Th Ave,,Mary Esther,FL,32569,US,850-833-7258,30.4099,-86.663,,,,
Mcraes 660,,2617 S Woodland Blvd,,Sanford,FL,32771,US,407-328-0200,28.7711,-81.2707,,,,
Off Broadway 5025,,2314 East Sunrise Blvd,,Sunrise,FL,33323,US,(954) 838-8428,26.1615,-80.251,,,,
Off Broadway 5036,,525 N Congress Ave,,Boca Raton,FL,33432,US,(561) 218-1355,26.3553,-80.1216,,,,
Off Broadway 5039,,4950 International Drive,,Orlando,FL,32839,US,(407) 248-2155,28.4742,-81.4491,,,,
Off Broadway 5065,,10316 Forest Hill Blvd,,Boynton Beach,FL,33426,US,(561) 369-4175,26.5619,-80.0726,,,,
Off Broadway 5068,,27001 U.S. Highway 19 North,,Pinellas Park,FL,33781,US,(727) 520-7560,28.0171,-82.7327,,,,
Off Broadway 5072,,575 South Rosemary Avenue,,Wellington,FL,33414,US,(561) 422-2133,37.2756,-121.968,,,,
Pavilion Shoes,,2342 Surfside Blvd,,Naples,FL,34108,US,(941)594-8111,26.2448,-81.8115,,,,
Lucky Feet Shoes,,46660 WASHINGTON ST. #6,,La Quinta,CA,92252,US,760-444-4154,33.7098,-116.294,,,,
Lucky Feet Shoes,,3540 RIVERSIDE PLAZA DR. #306,,Riverside,CA,92506,US,951-682-1311,33.9552,-117.39,,,,
Lucky Feet Shoes,,72345 HWY 11,,Palm Desert,CA,92260,US,760-666-3939,33.7288,-116.383,,,,
Sam's Shoe & Repair,,24100 Laguna Hills Mall,,San Clemente,CA,92672,US,(949) 492-3495,33.6126,-117.654,,,,
Sam's Shoe Store,,622 Premium Outlet Drive Suite 622,,Reedley,CA,93654,US,(559) 638-3212,36.5963,-119.45,,,,
Santa Rosa Shoes Inc,,2255 Cleveland Avenue,,Santa Rosa,CA,95403,US,(707)546-1083,38.4609,-122.729,,,,
Sole Desire,,1000 Northgate Mall,,Petaluma,CA,94952,US,,38.2383,-122.59,,,,
Sole Desire,,1400 Redwood Highway,,Petaluma,CA,94952,US,(707) 778-6967,38.2701,-122.67,,,,
Sole Desire,,4950 Pacific Ave,,Santa Rosa,CA,95401,US,,38.4533,-122.717,,,,
Sole Desire,,555 Coddingtown Center,,Sonoma,CA,95476,US,(707) 933-1702,38.4565,-122.728,,,,
Sole Desire,,800 Santa Rosa Plaza,,Santa Rosa,CA,95405,US,(707) 542-1690,38.4405,-122.717,,,,
World Of Shoes Inc,,1544 Travis Blvd.,,Dublin,CA,94568,US,(925)828-1497,37.7022,-121.936,,,,
Lucky Feet Shoes,,"5761 E. SANTA ANA CANYON RD., STE C",,ANAHEIM HILLS,CA,92803,US,714-282-1000,33.8536,-117.788,,,,
B & H Shoes,,100 N Main St,,Somerset,KY,42501,US,606-679-7713,37.0922,-84.6049,,,,
B&H Shoes,,14396 N.Hwy.25E,,Middlesboro,KY,40965,US,,36.6801,-83.6837,,,,
B&H Shoes,,2321 Sir Barton Way 130,,Corbin,KY,40701,US,606-528-0521,36.9498,-84.1118,,,,
B&H Shoes,,2909 Richmond Road,,Manchester,KY,40962,US,,37.1548,-83.7628,,,,
B&H Shoes,,488 Hwy 421 Ste 3-4,,Middlesboro,KY,40965,US,488 Hwy 421 Ste 3-4,36.6073,-83.7143,,,,
B&H Shoes,,5000 Frederica Street,,Somerset,KY,42501,US,606-679-7713,37.092,-84.6041,,,,
Belk,,14659 North Us Hwy 25 E,,Middleboro,KY,40965,US,,36.6801,-83.6837,,,,
Belk,,2625 Scottsville Rd,,Somerset,KY,42501,US,,37.092,-84.6041,,,,
Belk,,2900 Town Center Blvd,,Ashland,KY,41101,US,,38.4851,-82.6514,,,,
Belk,,3625 Nicholsville Rd,,Corbin,KY,40701,US,,36.9487,-84.0969,,,,
Belk,,805 Eastern By-Pass # 8,,Richmond,KY,40475,US,805 Eastern By-Pass # 8,37.7316,-84.2871,,,,
Belk,,81 Mall Rd,,Elizabethtown,KY,42701,US,,37.68,-85.9025,,,,
Dillard's,,2031 Hwy 45 N,,Louisville,KY,40207,US,502-893-4400,38.4678,-85.4002,,,,
Brown's Shoe Fit,,102 Manhattan Town Ctr,,Topeka,KS,66604,US,785-271-6961,39.0402,-95.7247,,,,
Brown's Shoe Fit,,2259 S 9Th St,,Hays,KS,67601,US,785-625-2711,38.8608,-99.2994,,,,
Brown's Shoe Fit,,7700 E Kellogg Dr,,Mcpherson,KS,67460,US,620-241-3963,38.3708,-97.6642,,,,
Dillard's,,11201 West 95Th Street,,Manhattan,KS,66502,US,785-776-4224,40.7934,-73.9709,,,,
Dillard's,,11601 W 95Th St,,Topeka,KS,66604,US,785-273-5451,38.8943,-95.8136,,,,
Dillard's,,1791 Sw Wanamaker Rd,,Wichita,KS,67209,US,316-943-8031,37.6649,-97.4327,,,,
Dillard's,,1901 S.W. Wanamaker Road,,Wichita,KS,67207,US,316-685-0341,37.6614,-97.2329,,,,
Dillard's,,1920 Sw Wanamaker Road,,Salina,KS,67401,US,785-823-3553,38.8403,-97.6114,,,,
Dillard's,,4600 W Kellogg,,Hutchinson,KS,67501,US,620-662-3636,38.0608,-97.9298,,,,
Dillard's,,9501 Metcalf Street,,Overland Park,KS,66214,US,913-492-0666,38.9555,-94.664,,,,
Macy's,,11201 W. 95Th Street,,Topeka,KS,66604,US,,38.8943,-95.8136,,,,
Macy's,,1181 Village West Pkwy,,Overland Park,KS,66212,US,,38.997,-94.6359,,,,
Brown's Shoe Fit,,2060 Crossroads Blvd,,Shenandoah,IA,51601,US,(712)246-2218,40.7667,-95.3762,,,,
Dillard's,,111 N Sycamore,,Coralville,IA,52241,US,319-625-2600,41.6806,-91.5947,,,,
Dillard's,,215 Main St,,Waterloo,IA,50702,US,319-232-6668,42.4854,-92.3579,,,,
Dillard's,,3315 Williams Blvd Sw #3,,Davenport,IA,52806,US,563-388-7954,41.5795,-90.6204,,,,
Dillard's,,3400 South Airport Road West,,Des Moines,IA,50266,US,515-440-2277,41.5239,-93.6513,,,,
Emerhoffs Footwear Inc,,409 44Th St Sw,,Ames,IA,50010,US,(515) 232-3473,41.8496,-93.678,,,,
Farm King Supply,,1411 Coral Ridge Ave,,W Burlington,IA,52655,US,319-752-7111,41.6579,-91.5391,,,,
Foot Solutions,,1461 Coral Ridge Ave,,Cedar Rapids,IA,52402,US,(319) 743-3668,42.0108,-91.6756,,,,
Hutzells,,323-327 Sophie St,,Algona,IA,50511,US,(515) 295-5163,43.07,-94.233,,,,
Karltons Inc,,101 Jordan Creek Pkwy,,Sioux City,IA,51101,US,(712) 255-4040,43.4958,-96.804,,,,
Belk,,10300 Mill Run Circle,,Westminster,MD,21157,US,,39.543,-77.1533,,,,
Belk,,241 Fort Evans Road NE #729,,California,MD,20619,US,,38.3004,-76.5075,,,,
Boscov's,,10300 Little Patuxent Parkway,,Glen Burnie,MD,21061,US,(410) 761-3434,39.1626,-76.6247,,,,
Boscov's,,36A Market Sq,,Frederick,MD,21702,US,(301) 631-8155,39.4314,-77.4167,,,,
Boscov's,,6080 Fall Rd,,Baltimore,MD,21236,US,(410) 933-5757,39.3734,-76.6508,,,,
Boscov's,,7000 Arundel Mills Cir Ste F-3,,Westminster,MD,21157,US,(410) 751-6660,39.7642,-75.6861,,,,
Boscov's,,7900 Ritchie Hwy,,Owings Mills,MD,21117,US,(410) 902-1919,39.4195,-76.7803,,,,
Comfort One Shoes,,3871 Evergreen Pkwy,,Bethesda,MD,20814,US,,39.0709,-77.1699,,,,
Comfort One Shoes,,400 N Center St,,Towson,MD,21204,US,,39.3982,-76.58,,,,
Comfort One Shoes,,618 S Exeter St,,Townson,MD,21204,US,,39.2836,-76.6,,,,
Belk,,1133 Saint Vincent Ave,,Bossier City,LA,71111,US,,32.516,-93.7321,,,,
Belk,,1401 W Esplanade Avenue,,Covington,LA,70433,US,,30.499,-90.0994,,,,
Belk,,4443 Jeffery Dr,,Shreveport,LA,71105,US,,32.4546,-93.708,,,,
Dillard's,,150 Northshore Blvd Ste 5,,Lake Charles,LA,70601,US,337-474-9533,30.2294,-93.2131,,,,
Dillard's,,197 West Bank Expway,,Houma,LA,70364,US,985-873-6100,29.6366,-90.6868,,,,
Dillard's,,2532 Williams Blvd,,Hammond,LA,70403,US,985-345-7121,30.4943,-90.4673,,,,
Dillard's,,2950 E Texas St,,Monroe,LA,71203,US,318-323-8000,32.5029,-92.0959,,,,
Dillard's,,2980 Meadow Creek Drive,,Alexandria,LA,71301,US,318-445-9992,31.3232,-92.4567,,,,
Dillard's,,3000 Severn Ave,,Gretna,LA,70053,US,504-362-4800,29.9027,-90.0458,,,,
Dillard's,,3404 W 13Th St Ste 100,,Metairie,LA,70002,US,504-833-1075,29.9836,-90.236,,,,
Dillard's,,5953 W Park Ave Ste 1000,,Slidell,LA,70460,US,985-646-0130,30.2539,-89.7783,,,,
L.L.Bean - Freeport,,35 Broadway,,Freeport,ME,4032,US,(877) 552 - 3268,43.8635,-70.0976,,,,
Macy's,,22 Plaistow Rd,,South Portland,ME,4106,US,,43.659,-70.3035,,,,
Macy's,,306 US Route 1,,Bangor,ME,4401,US,,44.7976,-68.775,,,,
Rockport Clearance Outlet,,50 Fox Run Road,,Kittery,ME,3904,US,(207) 439-5100,43.0968,-70.8047,,,,
Peltz Shoes,,10651 Tamiami Trail N,,Sarasota,FL,34231,US,941-351-9471,27.2337,-82.4978,,,,
Peltz Shoes,,1798 Tamiami Trl N,,Bradenton,FL,34201,US,941-355-1010,27.4834,-82.5634,,,,
Peltz Shoes,,5100 E Broadway,,St. Petersburg,FL,33710,US,(727)347-4949,39.0672,-84.8678,,,,
Peltz Shoes,,5700 West Glades Road,,Brandon,FL,33511,US,(813)571-0777,35.7637,-77.9403,,,,
Peltz Shoes,,13300 S. Cleveland Ave,,Fort Myers,FL,33907,US,239-208-8420,26.5483,-81.8739,,,,
Peltz Shoes,,7121 22nd Ave N,,Clearwater,FL,33759,US,(813)347-4949,27.9039,-82.8465,,,,
Peltz Shoes,,8210 Glades Rd,,Brandon,FL,33511,US,(813) 571-0777,35.7637,-77.9403,,,,
Rockport Clearance Outlet,,8000 West Broward Blvd,,West Palm Beach,FL,33401,US,(561) 615-8855,26.7328,-80.0508,,,,
Rockport Clearance Outlet,,8001 S Orange Blossom Trail,,Lake Buena Vista,FL,32821,US,(407) 239-7731,28.3887,-81.4773,,,,
Rockport Factory Outlet,,1910 Wells Rd,,St. Augustine,FL,32092,US,(904) 824-0105,40.7556,-93.0489,,,,
Rockport Factory Outlet,,2500 E Sunrise Blvd,,Sunrise,FL,33323,US,954-845-8935,26.1615,-80.251,,,,
Rockport Factory Outlet,,5205 Airways Blvd. Suite 1010,,Lutz,FL,33559,US,,28.1511,-82.4615,,,,
Barn Family Shoe Store,,84 Shoppes At 5 Way,,West Newton,MA,2465,US,(617)332-6300,42.3612,-71.1953,,,,
Bootlegger's Footwear Center,,Big C Thang Long Supercenter,,Greenfield,MA,1301,US,413-772-1941,42.6342,-72.6026,,,,
David's - Shoes On First,,39 Brattle St,,Cambridge,MA,2141,US,(617)354-3730,42.3738,-71.121,,,,
Edward E Hanlon Inc.,,55 Boylston Street,,Hyannis,MA,2601,US,(508)775-2055,41.6613,-70.2988,,,,
Family Footwear Center,,444 Pittsfield / Lenox Road,,Lenox,MA,1240,US,413-442-6330,42.4014,-73.2659,,,,
Gotsole1981,,1 Premium Outlet Blvd Space #417,,Jamaica Plain,MA,2130,US,617-942-7991,42.3098,-71.1203,,,,
Hymans Pennyworths,,6 Wayside Road Space T,,Newburyport,MA,1950,US,(978)462-2711,42.7635,-70.9363,,,,
"L.L.Bean Burlington, Ma",,1245 Worcester Road,,Burlington,MA,1803,US,888-552-9866,42.5051,-71.2047,,,,
"L.L.Bean Mansfield, Ma",,210 Andover Street,,Mansfield,MA,2048,US,888-552-5547,42.6462,-71.2794,,,,
Lord And Taylor,,627 Donald Lynch Blvd,,Natick,MA,1760,US,508-651-0744,42.2873,-71.3524,,,,
Lord And Taylor,,75 1st St,,Braintree,MA,2184,US,781-848-1970,42.2158,-70.986,,,,
Macy's,,1 Worcester Road,,Natick,MA,1760,US,,42.3045,-71.3268,,,,
Brambilla Universal Shoes,,V. G. Ripamonti  7A,,Milano,MI,20137,US,02-58318258,45.4503,9.19706,,,,
Calzature Redaelli Sas,,"P.Zza Caiazzo, 3",,Milano,MI,20124,US,02-6693770,45.4858,9.20982,,,,
Circle Quality Shoes,,4600 Miller Road,,Midland,MI,48642,US,989-835-4853,43.5834,-84.2261,,,,
Hershey's  Too,,269 North Telegraph Rd,,Novi,MI,48375,US,248-347-7838,42.472,-83.4537,,,,
Hershey's Shoes,,18900 Michigan Avenue,,Garden City,MI,48135,US,734-422-1771,42.2816,-83.3799,,,,
I Quaranta Ruggenti Srl,,"V. Mantegna Andrea, 15",,Milano,MI,20100,US,02-3319748,45.4836,9.16769,,,,
Jim Mathes Shoes,,8925 Market Place Drive,,Burton,MI,48509,US,810-742-7970,42.9508,-85.6914,,,,
Leoni Sport Sas,,V. Washington 94,,Milano,MI,20146,US,02-4224640,45.4568,9.15439,,,,
Macy's,,1184 S Belsay Rd,,Okemos,MI,48864,US,,42.7223,-84.4275,,,,
Macy's,,119 N Washington St,,Battle Creek,MI,49015,US,,42.3281,-85.1901,,,,
Macy's,,1253 E Leonard,,Traverse City,MI,49684,US,,44.8753,-85.1623,,,,
Macy's,,1271 N Telegraph Rd,,Westland,MI,48185,US,,42.3215,-83.2721,,,,
Macy's,,13672 Fort St,,Harper Woods,MI,48225,US,,42.4331,-82.9241,,,,
Dillard's,,4600 Shelbyville Rd,,Louisville,KY,40219,US,502-968-6080,38.248,-85.6302,,,,
Dillard's,,500 Winchester Ave Space #1,,Paducah,KY,42001,US,270-442-3200,37.0834,-88.6,,,,
Dillard's,,72 Isom Drive,,Bowling Green,KY,42104,US,270-782-1111,36.8806,-86.4794,,,,
Dillard's,,805 Eastern By-Pass #8,,Lexington,KY,40503,US,859-271-9797,38.0415,-84.4915,,,,
Dillard's,,905 N 12Th St Ste 16 Hwy 25E,,Crestview Hills,KY,41017,US,859-344-2795,39.0273,-84.5849,,,,
Factory Outlet Store Inc,,4150 S Hwy 27 Ste A,,Elizabethtown,KY,42701,US,270-765-4370,37.7031,-85.8649,,,,
Houser Shoes Inc,,3301 Nicholasville Road,,Lexington,KY,40509,US,859-269-0429,37.991,-84.5271,,,,
John B Adams Store,,500 Winchester Ave,,Isom,KY,41824,US,606-633-4306,37.1877,-82.8952,,,,
Macy's,,12405 Main St,,Bowling Green,KY,42104,US,,37.0043,-86.4532,,,,
Macy's,,2031 Hwy 45 N. Ste 400,,Louisville,KY,40219,US,,38.4678,-85.4002,,,,
Macy's,,50000 Shelbyville Rd,,Louisville,KY,40222,US,,38.2491,-85.6103,,,,
Macy's,,5101 Hinkleville Rd,,Owensboro,KY,42301,US,,37.7719,-87.1112,,,,
Macy's,,14695 W 119Th St,,Leawood,KS,66209,US,,38.9128,-94.6375,,,,
Macy's,,2825 S Glenstone Ave,,Prairie Village,KS,66208,US,,38.9951,-94.6295,,,,
Macy's,,4000 West 71st Street,,Overland Park,KS,66214,US,,39.0012,-94.6311,,,,
Macy's,,5100 West 119Th Street,,Overland Park,KS,66214,US,,38.9149,-94.6448,,,,
Off Broadway 5056,,2825 South Glenstone Avenue,,Kansas City,KS,66111,US,V32-Y90,39.087,-94.8002,,,,
Off Broadway 5058,,5 Branson Landing,,Olathe,KS,66062,US,054-42F,38.8271,-94.7899,,,,
The Foot Spot,,3626 W 95th St,,Leadwood,KS,66206,US,913-341-3668,38.9569,-94.6277,,,,
The Foot Spot,,6764 W. 135th Street,,Overland Park,KS,66223,US,913) 851-3668,38.8854,-94.6638,,,,
Rogans Shoes,,1100 Blairs Ferry Road Ne,,Davenport,IA,52807,US,(563) 823-0293,41.61,-90.5163,,,,
Rudolph's Shoes,,103 East State Street,,Sioux City,IA,51106,US,(712) 276-2727,42.2862,-95.8951,,,,
Scheels,,4510 Southern Hills Drive,,Coralville,IA,52241,US,(319) 625-9959,41.6823,-91.5961,,,,
The Good Foot,,515 4Th St,,Decorah,IA,52101,US,(563) 382-9829,43.3079,-91.7785,,,,
William's Shoe Box,,128 W Water St,,Cedar Rapids,IA,52402,US,(319) 378-8181,41.9406,-91.7609,,,,
Comfort One Shoes,,6901 Security Blvd.,,Annapolis,MD,21401,US,,38.9784,-76.4922,,,,
Comfort One Shoes,,7720 Wisconsin Ave,,Rockville,MD,20852,US,,39.0542,-77.1198,,,,
Comfort One Shoes,,813 Dulaney Valley Road,,Baltimore,MD,21208,US,,39.4038,-76.6013,,,,
Comfort One Shoes,,864 Kenilworth Ave,,Baltimore,MD,21209,US,,39.41,-76.6167,,,,
Comfort One Shoes,,Tred Avon Sq,,Frederick,MD,21703,US,,39.4036,-77.428,,,,
Ecco Shoes,,1643 Rockville Pike,,Gaithersburg,MD,20878,US,,39.0859,-77.1489,,,,
"L.L.Bean Columbia, Md",,11160 Viers Mill Road,,Columbia,MD,21044,US,888-552-9879,39.2067,-76.8836,,,,
Lord And Taylor,,12107 Rockville Pike,,Gaithersburg,MD,20877,US,301-947-0502,39.0859,-77.1489,,,,
Lord And Taylor,,8200 Perry Hall Blvd,,Annapolis,MD,21401,US,410-897-4865,38.9784,-76.4922,,,,
Macy's,,11200 Mall Circle,,Bowie,MD,20716,US,,39.0478,-76.8186,,,,
Macy's,,11962 Market St,,Laurel,MD,20707,US,,39.1511,-76.9053,,,,
Macy's,,1301 West Patrick Street,,Hagerstown,MD,21740,US,,39.6391,-77.6764,,,,
Macy's,,14828 Balt/Wash. Blvd.,,Marlow Heights,MD,20748,US,,38.822,-76.9499,,,,
Macy's,,15300 Emerald Way,,Hyattsville,MD,20782,US,,38.9559,-76.9455,,,,
Dillard's,,6301 Bluebonnet Blvd.,,Baton Rouge,LA,70836,US,225-761-7293,30.3915,-91.0909,,,,
Dillard's,,6601 Bluebonnet,,Bossier City,LA,71111,US,318-747-5610,32.4435,-93.6428,,,,
Dillard's,,69294 Hwy 21,,Lafayette,LA,70503,US,337-989-8139,30.2186,-91.7128,,,,
Dillard's,,9301 Cortana Place,,Shreveport,LA,71104,US,318-226-9565,32.4032,-93.7199,,,,
Macy's,,2000 Sw Railroad Ave,,Lafayette,LA,70503,US,,30.2379,-92.0202,,,,
Macy's,,3301 Veterans Blvd,,Kenner,LA,70065,US,,30.0058,-90.2302,,,,
Macy's,,5725 Johnston St,,Baton Rouge,LA,70815,US,,30.4244,-91.1836,,,,
Macy's,,5733 Johnston Street,,Baton Rouge,LA,70809,US,,30.4244,-91.1836,,,,
Macy's,,6100 O Street #60,,Metairie,LA,70002,US,,29.9818,-90.1113,,,,
Mcraes 645,,1704 E 70Th St,,Monroe,LA,71203,US,318-361-3200,32.7526,-92.7081,,,,
Rockport Factory Outlet,,500 Port of New Orleans Pl,,New Orleans,LA,70130,US,,29.9435,-90.0622,,,,
Safety Shoe Distribution,,298 Westshore Blvd.,,Tampa,FL,33619,US,(813) 247-5717,27.9467,-82.5243,,,,
Safety Shoe Distribution,,8001 S Orange Blossom Trl,,Orlando,FL,32837,US,(407) 857-1197,28.4456,-81.3952,,,,
Surefit Llc,,13640 Pines Blvd,,Coral Springs,FL,33065,US,(954) 752-8488,26.2749,-80.2249,,,,
The Shoe Box,,4755 Town Crossing Dr,,Tallahassee,FL,32301,US,(850) 877-9174,30.4659,-84.251,,,,
Macy's,,10 Keith Way Unit #4,,Boston,MA,2111,US,,42.2883,-71.1668,,,,
Macy's,,100 Cambridge Side Place,,Braintree,MA,2184,US,,42.2032,-71.0096,,,,
Macy's,,101 Independence Mall,,Chestnut Hill,MA,2467,US,,42.2999,-71.1554,,,,
Macy's,,106 Commerical Street,,Marlborough,MA,1752,US,,42.3458,-71.5506,,,,
Macy's,,1185 Broadway Route One,,Peabody,MA,1960,US,,42.5077,-70.8972,,,,
Macy's,,1245 Worcester Road,,Burlington,MA,1803,US,,42.5051,-71.2047,,,,
Macy's,,1310 Tapteal Drive,,Holyoke,MA,1040,US,,42.2238,-72.6409,,,,
Macy's,,158 Main St,,Lanesborough,MA,1237,US,,42.5232,-73.2284,,,,
Macy's,,1780 Massachusetts Ave,,Belmont,MA,2478,US,,42.4476,-71.2279,,,,
Macy's,,2 Galleria Mall Drive,,Swansea,MA,2777,US,,41.7661,-71.2346,,,,
Macy's,,200 Westgate Drive,,Kingston,MA,2364,US,,41.997,-70.789,,,,
Macy's,,25 Kempton Place,,Hyannis,MA,2601,US,,41.6613,-70.2988,,,,
Macy's,,250 Granite Street,,Brockton,MA,2301,US,,42.1005,-71.0053,,,,
Macy's,,17340 Hall Road,,Southfield,MI,48075,US,,42.4627,-83.2207,,,,
Macy's,,18000 Vernier Road,,Sterling Heights,MI,48313,US,,42.5918,-83.0956,,,,
Macy's,,208 Cambridge St,,Lansing,MI,48917,US,,42.7178,-84.5852,,,,
Macy's,,21021 Kelly Rd,,Fort Gratiot,MI,48059,US,,43.0386,-82.4769,,,,
Macy's,,23515 Nine Mack Dr,,Troy,MI,48083,US,,42.5102,-83.0761,,,,
Macy's,,27550 Novi Road,,Flint,MI,48507,US,,42.4785,-83.4754,,,,
Macy's,,348 W 14 Mile Rd,,Ann Arbor,MI,48108,US,,42.386,-83.7805,,,,
Macy's,,401 Walnut Blvd,,Waterford,MI,48328,US,,42.5817,-83.3828,,,,
Macy's,,422 West 14 Mile Road,,Troy,MI,48084,US,,42.5342,-83.1129,,,,
Macy's,,43 S Monroe St # 41,,Taylor,MI,48180,US,,42.2489,-83.25,,,,
Macy's,,5206 Clio Rd,,Saginaw,MI,48604,US,,43.4761,-83.9738,,,,
Macy's,,5700 West Saginaw Highway,,Portage,MI,49024,US,,42.2121,-85.6229,,,,
Macy's,,5725 Beckley Road,,Grandville,MI,49418,US,,42.9097,-85.7631,,,,
Macy's,,5757 Whitmore Lake Rd,,Dearborn,MI,48126,US,,42.3383,-83.1756,,,,
Macy's,,805 Eastern Bypass,,Lexington,KY,40503,US,,38.0433,-84.489,,,,
Macy's,,905 N. 12Th St. Ste11,,Florence,KY,41042,US,,38.999,-84.6266,,,,
Messer's Dept Store,,5000 Mall Road,,Martin,KY,41649,US,606-285-3104,37.4546,-82.8099,,,,
Off Broadway 5046,,1722 Veteran Blvd,,Louisville,KY,40207,US,4Ae-784  Ste 300,38.1515,-85.5729,,,,
Off Broadway 5048,,2181 Lantern Ridge Drive,,Lexington,KY,40509,US,342-E5F,37.9921,-84.4188,,,,
Proffitts 663,,1014 N.12th St.,,Ashland,KY,41101,US,606-325-2444,38.4752,-82.6477,,,,
Simon's,,2625 Scottsville Road,,Henderson,KY,42420,US,270-826-2341,37.8362,-87.59,,,,
Soft Shoe,,4801 Outer Loop,,Richmond,KY,40475,US,859-623-8561,38.6166,-90.2935,,,,
Soft Shoe,,7900 Shelbyville Road,,Richmond,KY,40475,US,859-623-8561,29.6786,-95.7478,,,,
Soft Shoe Inc,,4809 Outer Loop Road,,Richmond,KY,40475,US,606-623-8561,37.7479,-84.2947,,,,
Macy's,,1600 Annapolis Mall,,Frederick,MD,21701,US,,39.4599,-77.3811,,,,
Macy's,,17301 Valley Mall Road,,Salisbury,MD,21801,US,,38.4025,-75.571,,,,
Macy's,,1809 Reisterstown Rd,,Baltimore,MD,21236,US,,39.3882,-76.7361,,,,
Macy's,,21100 Dulles Town Circle,,Waldorf,MD,20603,US,,38.6265,-76.9105,,,,
Macy's,,28-30 Alco Pl,,Baltimore,MD,21244,US,28-30 Alco Pl,39.2481,-76.6477,,,,
Macy's,,400 North Center Street,,Towson,MD,21204,US,,39.4001,-76.61,,,,
Macy's,,4101 Branch Avenue,,Bethesda,MD,20817,US,,39.0058,-77.172,,,,
Macy's,,600 Belair Road,,Glen Burnie,MD,21061,US,,39.1626,-76.6247,,,,
Macy's,,701 Russell Ave.,,Bel Air,MD,21014,US,,39.5434,-76.3692,,,,
Macy's,,701 Russell Avenue,,Wheaton,MD,20920,US,,39.0103,-77.0382,,,,
Macy's,,7125 Democracy Blvd.,,Gaithersburg,MD,20877,US,,39.1434,-77.2014,,,,
Macy's,,7900 S Ritchie Highway,,Owings Mills,MD,21117,US,,39.4195,-76.7803,,,,
Macy's,,8200 Perry Hall Boulevard,,Annapolis,MD,21401,US,,38.9784,-76.4922,,,,
Off Broadway 5022,,10300 Little Patuxent Pkwy,,Hanover,MD,21076,US,A05-T95,39.0586,-76.7284,,,,
Safety Shoe Distribution,,684 West Prien Lake Mall,,Baton Rouge,LA,70816,US,,30.426,-91.0251,,,,
The Good Feet Store,,200 N 66Th,,Metairie,LA,70002,US,504-888-7080,30.0144,-90.1635,,,,
Worldwide Distributors,,3301 Veterans Memorial Blvd,,Kenner,LA,70062,US,,30.0053,-90.2225,,,,
Macy's,,30 Main St,,North Attleboro,MA,2760,US,,41.9749,-71.331,,,,
Macy's,,34 Cambridge St,,Saugus,MA,1906,US,,42.4126,-71.0181,,,,
Macy's,,378 Main St,,Taunton,MA,2718,US,,41.9334,-71.0511,,,,
Macy's,,416 Main St,,Dartmouth,MA,2747,US,,41.6575,-70.9086,,,,
Macy's,,444 Pittsfield / Lenox Road,,Framingham,MA,1701,US,,42.3233,-71.4352,,,,
Macy's,,50 Water Street,,Auburn,MA,1501,US,,42.1931,-71.8451,,,,
Macy's,,617 Centre Street,,Cambridge,MA,2141,US,,42.3554,-71.1863,,,,
Macy's,,7901 Old Seward Hwy,,Springfield,MA,1129,US,,42.1235,-72.6399,,,,
Macy's,,Rt. 8 Old State Road,,Leominster,MA,1453,US,,42.5244,-71.7657,,,,
Mark Adrian Shoes,,1300 Middlesex Turnpike,,Gloucester,MA,1930,US,978-283-4343,42.4157,-71.1665,,,,
Merrell Shoes,,603 Fellsway,,Brockton,MA,2301,US,(508)586-1509,42.0858,-70.9999,,,,
Michelson's Shoes,,1082 Great Plain Ave,,Needham,MA,2492,US,(781) 449-2753,42.297,-71.2196,,,,
Michelsons Shoes Inc,,1775 Washington Street,,Lexington,MA,2420,US,(781)862-1034,42.4403,-71.2202,,,,
Macy's,,892 W Huron St Ste B,,Novi,MI,48377,US,,42.4938,-83.464,,,,
Macy's,,95 Monroe Center,,Kentwood,MI,49512,US,,42.9647,-85.6701,,,,
Martin's Shoe House,,15219 Michigan Ave,,Monroe,MI,48161,US,734-241-5866,41.8695,-83.3869,,,,
Mclinden's Shoes,,13672 Fort St,,Southgate,MI,48195,US,734-284-6434,42.2083,-83.1812,,,,
Miera's Family Shoes,,134 E Chicago Blvd,,Grand Rapids,MI,49504,US,,42.932,-85.7199,,,,
Miera's Family Shoes,,3850 Rivertown Parkway,,Grand Rapids,MI,49504,US,616-458-6774,42.9881,-85.7154,,,,
Miera's Work & Comfort Shoes,,841 Leonard St Nw,,Wyoming,MI,49548,US,,42.4351,-71.066,,,,
Mr Alans Mens Bootery #7,,700 Briarwood Circle,,Dearborn,MI,48126,US,313-584-3820,42.3383,-83.1756,,,,
Mr Alans Shoe 01,,18029 E Eight Mi Rd,,Southfield,MI,48075,US,810-547-7684,42.4498,-83.2499,,,,
Mr Alans Shoes 09,,4213 Highland Rd,,Pontiac,MI,48341,US,313-334-3917,42.615,-83.2854,,,,
Mr Alans Shoes 11,,23000 Eureka Road,,Hamtramck,MI,48212,US,,42.4209,-83.0571,,,,
Mr Alans Shoes 14,,27494A Novi Road,,Flint,MI,48504,US,,42.4785,-83.4754,,,,
Mr Alans Shoes 15,,21500 Northwestern Highway,,Troy,MI,48083,US,,42.5496,-83.1113,,,,
Off Broadway 5038,,5500 Buckeystown Pike,,Frederick,MD,21704,US,9V3-538  Frederick Xing S/C,39.3846,-77.4097,,,,
Off Broadway 5043,,23415 Three Notch Rd #2057,,Bowie,MD,20720,US,4Ae-950,38.9856,-76.7856,,,,
Richey Walking Ctr,,3500 East/West Highway,,Rockville,MD,20852,US,,39.0377,-77.0634,,,,
Rockport Clearance Outlet,,5245 Buckeystown Pike,,Hagerstown,MD,21740,US,(301) 393-4713,39.6418,-77.72,,,,
Rockport Concept Store,,217 Boardwalk Pl,,Columbia,MD,21044,US,,39.2336,-76.846,,,,
Rockport Concept Store,,Hamburg Turnpike,,Towson,MD,21204,US,,39.4076,-76.6355,,,,
Rockport Factory Outlet,,3131 boul de la cote vertu,,Oxon Hill,MD,20745,US,,45.499,-73.7068,,,,
Saf-Gard Safety Shoe Co,,825 Dulaney Valley Rd,,Baltimore,MD,21227,US,Saf-Gard Safety Shoe Co,39.4045,-76.5993,,,,
The Athlete By Vernon Powell,,1295 Annapolis Mall,,Easton,MD,21601,US,,38.935,-76.5717,,,,
Vernon Powell Shoe Co,,180 Premium Outlets Blvd.,,Salisbury,MD,21804,US,(410)749-4561,38.3912,-75.5761,,,,
Vernon Powell Shoes,,7340 Guilford Dr,,Salisbury,MD,21801,US,,38.3719,-75.572,,,,
Off Broadway 5044,,54 Bolton Street,,Burlington,MA,1803,US,A97-43E,40.0446,-74.8819,,,,
Off Broadway 5050,,"750 Belmont St, Rte 123",,Plymouth,MA,2360,US,678-393-0081,42.0689,-71.0484,,,,
Off Broadway 5075,,11A Brattle Street,,Medford,MA,2155,US,,42.3732,-71.12,,,,
Off Broadway 5080,,103 Main St,,Foxboro,MA,2035,US,,42.0722,-71.2579,,,,
Rockport Clearance Outlet,,1655 Boston Road,,Lee,MA,1238,US,(413) 243-1236,42.1825,-72.2153,,,,
Rockport Clearance Outlet,,385 South Bridge Street,,Marlboro,MA,1752,US,(508) 460-9006,42.3348,-71.5452,,,,
Rockport Factory Outlet,,1 Premium Outlet Blvd,,Wrentham,MA,2093,US,(508) 384-3343,42.0362,-71.3472,,,,
Shoe Market Inc,,45 Storey Avenue,,Hingham,MA,2043,US,(781)749-9696,42.2159,-70.8793,,,,
"Sole Central, Inc.",,229 South Main Street,,Fall River,MA,2721,US,508-567-3992,41.6994,-71.1576,,,,
Mr Alans Superstore 10,,2415 Sagamore Parkway,,E Pointe,MI,48021,US,810-777-1500,42.4662,-82.9448,,,,
Mr Alans Superstore 12,,9638 Joseph Campau St,,Redford,MI,48239,US,313-387-4100,42.3944,-83.2974,,,,
Norm Henry Fine Shoes,,4750 Fashion Square Mall,,Owosso,MI,48867,US,989 -725-8450,42.9978,-84.1766,,,,
Okun Bros Shoes,,1982 West Grand River,,Kalamazoo,MI,49007,US,269-342-1536,42.0652,-85.6547,,,,
Orza Srl,,"V. Arosio, 6",,Monza,MI,20052,US,039-328301 Stefano - Massimo,45.5317,9.28466,,,,
Parmigiani Snc,,"V. Pretorio, 26",,Magenta,MI,20013,US,,45.4648,8.88485,,,,
Privalia Vendita Diretta Srl,,"Via Tacito, 6",,Milano,MI,20137,US,0247921105-403 amm Francesca,45.447,9.21757,,,,
Ratti Srl,,"V. San Luigi, 15",,San Damiano Di Brugherio,MI,20047,US,,45.5675,9.30674,,,,
Rockport Clearance Outlet,,47750 Grand River Ave,,Birch Run,MI,48415,US,(989) 624-9865,43.2509,-83.8358,,,,
Rockport Store,,2750 West Big Beaver Road,,Dearborn,MI,48126,US,,42.3244,-83.2551,,,,
Rockport Store,,35000 West Warren Avenue,,Harper Woods,MI,48225,US,,42.4426,-82.9376,,,,
Ted's Boot Shop Inc.,,54 East Main Street,,Northampton,MA,1060,US,(413)586-1074,42.3196,-72.6295,,,,
The Tannery,,280 School Street,,Boston,MA,2116,US,,42.3169,-71.1013,,,,
The Tannery,,450 Washington Street,,Cambridge,MA,2138,US,,42.3781,-71.107,,,,
The Tannery,,711 Boylston St,,Cambridge,MA,2138,US,617-491-0810,42.3496,-71.0798,,,,
Westies Footwear,,75 Leonard Street,,Dennis,MA,2638,US,,41.6883,-70.1486,,,,
Westies Shoe Outlet,,769 Iyannough Road,,Orleans,MA,2653,US,,41.7457,-69.9753,,,,
Spinnaker Sas Di Nicoletta Arpone E C.,,"V. Carlo Goldoni, 3",,Milano,MI,20129,US,,45.4692,9.20782,,,,
The Abelman Company,,3165 28Th Street Se,,Bessemer,MI,49911,US,,46.4783,-89.94,,,,
The Shoe Store,,14187 Telegraph Rd,,Waterford,MI,48328,US,248-681-0811,42.633,-83.3256,,,,
The Shoe Store,,500 W. 14 Mile Road,,Brighton,MI,48116,US,810-225-6244,42.5257,-83.7905,,,,
Tilton And Sons Shoes,,179 Portage Street,,Tecumseh,MI,49286,US,517-423-2150,41.5714,-87.1727,,,,
Van Hoeck's,,6666 South Westnedge Avenue,,Grand Rapids,MI,49503,US,616-454-2282,43.0504,-85.684,,,,
Verfaillie Shoes Inc,,4440 24Th Avenue,,St Clair Shores,MI,48080,US,586-775-5537,42.4635,-82.9017,,,,
Village Shoe Inn,,14200 Lakeside Circle (Women),,Farmington,MI,48336,US,248-474-4105,42.4645,-83.3763,,,,
Village Shoe Inn,,18000 Verner Road,,Rochester,MI,48307,US,248-652-2695,42.6806,-83.1338,,,,
Village Shoe Inn,,2415 Sagamore Parkway South,,East Pointe,MI,48021,US,586-775-7634,42.4662,-82.9448,,,,
Yaeger's,,29522 Ford Rd,,Monroe,MI,48162,US,,42.0532,-83.3868,,,,
Yaeger's Shoes,,18900 Michigan Avenue,,Monroe,MI,48162,US,734-241-5090,41.9257,-83.3804,,,,
Anderson Shoes,,401 Division Street South,,Saint Paul,MN,55101,US,,44.8963,-93.2002,,,,
Bare's Bootery,,4201 West Division Street,,Aitkin,MN,56431,US,,46.533,-93.7103,,,,
Benders Shoes,,7235 France Avenue South,,Grand Rapids,MN,55744,US,,47.2372,-93.5302,,,,
Burkhartzmeyer Shoes,,568 N Rolling Meadows Dr,,Fairbault,MN,55021,US,,44.314,-93.2986,,,,
Carly's Shoes,,14251 Burnhaven Drive,,Hutchinson,MN,55350,US,,44.8925,-94.3693,,,,
Expressions North,,342 3rd Street Ne,,Pequot Lakes,MN,56472,US,,46.6479,-94.3346,,,,
Fingerhut Direct Mktg Inc,,921 County Rd. 42 West Ste. B,,Eden Prairie,MN,55344,US,,44.8652,-93.4095,,,,
Foursome Inc,,7971 Southtown Center,,Plymouth,MN,55447,US,,44.9933,-93.4959,,,,
Hierlingers Shoes,,6509 Flying Cloud Drive,,Princeton,MN,55371,US,,45.57,-93.5816,,,,
Hughes Shoes Inc,,8300 97Th St S,,Red Wing,MN,55066,US,,44.5133,-92.8359,,,,
L J Norby Co,,40 North Waite Ave.,,Detroit Lakes,MN,56501,US,,46.8172,-95.8453,,,,
Macy's,,128 Central Ave,,St Paul,MN,55101,US,,44.9543,-93.0991,,,,
Macy's,,1375 Commerce Street,,Minnetonka,MN,55305,US,,44.8643,-93.4651,,,,
Macy's,,24 Main St N,,Minneapolis,MN,55402,US,,44.9872,-93.2595,,,,
Macy's,,3001 White Bear Avenue,,Roseville,MN,55113,US,,45.0061,-93.1566,,,,
Dillard's,,1200 10th Ave. S.,,Missoula,MT,59801,US,406-721-3100,46.8605,-114.019,,,,
Dillard's,,802 Kirkwood Mall,,Billings,MT,59102,US,406-656-0100,45.7889,-108.591,,,,
Macy's,,1200 10Th Ave S,,Bozeman,MT,59718,US,,45.6712,-111.051,,,,
Macy's,,140 S 24Th St West,,Helena,MT,59602,US,,34.0598,-118.482,,,,
Macy's,,3405 North Montana Avenue,,Missoula,MT,59802,US,,46.8725,-113.94,,,,
Scheels,,300 S 24Th St W,,Great Falls,MT,59405,US,,47.5018,-111.266,,,,
Village Shoes,,2400 10th St. Sw,,Great Falls,MT,59405,US,,47.4809,-111.291,,,,
Village Shoes,,2800 S Columbia Road,,Billings,MT,59102,US,,34.0713,-81.0244,,,,
Macy's,,4000 S.W.Court Mall Of America,,Edina,MN,55435,US,,44.9377,-93.3029,,,,
Macy's,,405 W 3rd St,,Maplewood,MN,55109,US,,45.0183,-93.0024,,,,
Macy's,,409 1st Ave Nw,,Rochester,MN,55902,US,,44.0189,-92.4649,,,,
Macy's,,6415 Labeaux Ave.,,Burnsville,MN,55306,US,,44.7178,-93.2844,,,,
Macy's,,740 E Lake St,,Bloomington,MN,55425,US,,44.8723,-93.2972,,,,
Macy's,,968 Payne Ave,,Roseville,MN,55113,US,,44.9596,-93.0777,,,,
Macy's,,985 E. Highway 61,,St. Cloud,MN,56301,US,,45.5011,-94.0169,,,,
Macy's,,The Mall Of America #225,,Edina,MN,55435,US,,44.9499,-93.3021,,,,
O & B Shoe Co,,3570 Vicksburg Ln. North,,Rochester,MN,55902,US,,34.1179,-117.512,,,,
Plymouth Shoe Store,,901 Apache Mall,,Albert Lea,MN,56007,US,,43.6478,-93.3687,,,,
Purdy's Shoe Store,,4426 Main Street,,Thief River Falls,MN,56701,US,,48.1348,-96.1814,,,,
Robert's Shoe Store,,7845 Main Street North,,Minneapolis,MN,55407,US,,45.079,-93.2684,,,,
Rockport Store,,700 On The Mall,,Bloomington,MN,55425,US,952-883-0331,44.8408,-93.2983,,,,
Rogans Shoes,,100 Southdale Center,,Rochester,MN,55901,US,,44.0781,-92.5099,,,,
Brown's Shoe Fit Co.,,200 North 66th Street,,Lincoln,NE,68505,US,(402) 464-7463,40.8156,-96.6301,,,,
Dillard's,,1500 E 11Th Ave,,Omaha,NE,68144,US,402-697-1323,41.243,-95.9307,,,,
Dillard's,,3030 Oak View Dr,,Grand Island,NE,68803,US,308-384-5200,42.9788,-78.9066,,,,
Dillard's,,6060 Maple St,,Lincoln,NE,68505,US,402-464-7451,40.8127,-96.6154,,,,
Haney Shoe Store Inc,,118 N Main Street,,Omaha,NE,68104,US,,41.2016,-96.034,,,,
Kent's Men's Shoes,,2520 Vine Street,,Lincoln,NE,68505,US,,40.8208,-96.6841,,,,
Rogans Shoes,,3446 Nw 55Th St,,Winona,MN,55987,US,,44.0554,-91.6664,,,,
Scheels,,100-1st Ave Sw,,Mankato,MN,56001,US,100-1st Ave Sw,44.1814,-93.9926,,,,
Scheels,,118 Minnesota Ave. N,,Moorehead,MN,56560,US,,46.8752,-96.7759,,,,
Scheels,,12411 Wayzata Blvd,,Eden Prairie,MN,55344,US,,44.8495,-93.4239,,,,
Scheels,,129 S Broadway,,Waite Park,MN,56387,US,,44.9991,-93.2796,,,,
Schuler Shoes,,1175 E. Wayzata Blvd. Ste. 15,,Wayzata,MN,55391,US,952-345-0021,44.9752,-93.5275,,,,
Schuler Shoes,,1850 Adams St.,,Waite Park,MN,56387,US,320-253-8777,45.0064,-93.2572,,,,
Schuler Shoes,,502 1st St,,Minneapolis,MN,55416,US,,44.9885,-93.2734,,,,
Schuler Shoes,,8251 Flying Cloud Dr.,,Maple Grove,MN,55369,US,763-494-4878,45.0725,-93.4558,,,,
Schuler Shoes #76,,2100 Snelling Ave N,,Woodbury,MN,55129,US,651-731-8700,44.9239,-92.9594,,,,
Schuler Shoes Inc,,10150 Hudson Rd,,Burnsville,MN,55306,US,952-898-5585,44.7148,-93.2423,,,,
Dillard's,,1200 Scheels Dr,,Reno,NV,89511,US,775-852-3080,39.5307,-119.722,,,,
Dillard's,,1955 South Casino Drive,,Las Vegas,NV,89107,US,702-870-2039,36.1512,-115.153,,,,
Dillard's,,700 S Telshor Blvd,,Henderson,NV,89014,US,702-435-6300,36.0313,-115.007,,,,
Macy's,,1304 Sunset Road,,Las Vegas,NV,89102,US,,36.0718,-115.136,,,,
Macy's,,1320 W Sunset Rd,,Las Vegas,NV,89107,US,,36.0712,-115.173,,,,
Macy's,,3200 Las Vegas Boulevard South,,Las Vegas,NV,89169,US,,36.1272,-115.172,,,,
Macy's,,3634 South Maryland Parkway,,Reno,NV,89502,US,,39.659,-119.87,,,,
Macy's,,4100 Meadows Lane,,Las Vegas,NV,89109,US,,36.1734,-115.196,,,,
Macy's,,4250 Cerrillos Rd,,Henderson,NV,89014,US,,36.0633,-115.053,,,,
Macy's,,7400 South Las Vegas Blvd.,,Reno,NV,89502,US,,36.0973,-115.167,,,,
Rockport Clearance Outlet,,2609 North Prince,,Laughlin,NV,89029,US,(702) 299-9450,35.1678,-114.573,,,,
Rockport Clearance Outlet,,3200 Las Vegas Blvd. South,,Las Vegas,NV,89123,US,(702) 260-7910,36.1272,-115.172,,,,
Schuler Shoes Inc,,411 Cedar Street,,Roseville,MN,55113,US,651-631-8344,44.958,-93.1009,,,,
Schuler Shoes Inc,,5201 Excelsior Blvd,,Bloomington,MN,55431,US,763-494-4878,44.8308,-93.3087,,,,
The Rare Pair,,874 Fox Point Plaza,,Northfield,MN,55057,US,,44.5001,-93.1135,,,,
Tradehome Shoe Stores,,4301 W Wisconsin Avenue,,Cottage Grove,MN,55016,US,,44.8864,-92.8829,,,,
Alec's Shoe Store,,1503 Hartford Ave,,Nashua,NH,3060,US,,42.7829,-71.4969,,,,
Bootlegger's Footwear Center,,261 Mohawk Trail,,Keene,NH,3431,US,603-352-5201,42.7867,-72.4974,,,,
Bootlegger's Footwear Center,,314 Daniel Webster Highway,,Rochester,NH,3839,US,603-332-3506,43.3029,-71.046,,,,
Bootlegger's Footwear Center,,425 West Street Plaza,,Stratham,NH,3885,US,603-772-7463,42.9947,-70.9269,,,,
Bootlegger's Footwear Center,,574 Main Street,,Rochester,NH,3839,US,603-332-3506,43.318,-70.9947,,,,
Bootlegger's Footwear Center,,59 Gonic Road,,Wolfeboro,NH,3894,US,603-569-3560,43.6104,-71.1649,,,,
Bootlegger's Footwear Center,,Av. Santiago Mari,,Laconia,NH,3246,US,603-524-1276,43.5645,-71.482,,,,
Bootlegger's Footwear Center,,Centro Comercial Orinokia,,Meredith,NH,3253,US,603-279-7463,43.6322,-71.5146,,,,
Joe Kings Shoe Shop,,1500 South Willow Street,,Concord,NH,3301,US,(603)225-8704,43.1259,-71.4513,,,,
Macy's,,125 South River Road,,Newington,NH,3801,US,,43.1067,-70.8123,,,,
Macy's,,310 Daniel Webster Highway,,Salem,NH,3079,US,,42.795,-71.2256,,,,
Macy's,,7 Providence Place,,Nashua,NH,3060,US,,42.7305,-71.4958,,,,
Macy's,,85 Rockingham Park Blvd,,Bedford,NH,3110,US,,42.9599,-71.4763,,,,
Alpine Shop,,1550 St. Louis Galleria,,St. Louis,MO,63122,US,,38.6337,-90.3483,,,,
Belk,,103 S Smith St,,Branson,MO,65616,US,,36.8112,-93.4284,,,,
Bob Jones Shoes,,18809 East 39Th Street,,Kansas City,MO,64108,US,,39.0522,-94.4661,,,,
Calzature Da Franco,,"V. Remesina Interna, 42",,Carpi,MO,41012,US,059-681223,44.7922,10.8793,,,,
Dillard's,,100 West Park Mall,,Independence,MO,64057,US,816-795-1818,39.0928,-94.4352,,,,
Dillard's,,1237 East Main,,Chesterfield,MO,63017,US,636-532-4040,38.6517,-90.5705,,,,
Dillard's,,2 West County Center,,Saint Peters,MO,63376,US,636-970-2555,38.8226,-90.2474,,,,
Dillard's,,300 Tanger Boulevard,,Springfield,MO,65804,US,417-883-4550,37.1565,-93.2483,,,,
Dillard's,,359 Northpark Lane,,Columbia,MO,65203,US,573-876-8600,38.96,-92.3848,,,,
Dillard's,,3702 Frederick Ave,,Jefferson City,MO,65109,US,573-893-4497,38.6024,-90.381,,,,
Dillard's,,400 Northwest Plaza,,Saint Louis,MO,63117,US,314-725-8363,38.6478,-90.2762,,,,
Dillard's,,800 Ward Pkwy,,St Joseph,MO,64506,US,816-232-7666,39.7899,-94.8022,,,,
Dillard's,,900 Nw Blue Parkway,,Kansas City,MO,64153,US,816-741-0707,38.8913,-94.6067,,,,
Dillard's,,9916 Manchester Rd,,Saint Louis,MO,63129,US,314-487-1600,38.6047,-90.3788,,,,
8-Village Mart,,2021 N Highland Ave,,Holly Springs,MS,38635,US,662-252-7771,34.7626,-89.4502,,,,
Belk,,1000 Turtle Creek Dr #A7,,Gulfport,MS,39503,US,,30.4782,-89.0529,,,,
Belk,,1350 Bonita Lakes Circle,,Hattiesburg,MS,39402,US,,31.3271,-89.2903,,,,
Belk,,150 Dogwood Place,,Meridian,MS,39301,US,,32.3461,-88.6863,,,,
Belk,,1722 Veterans Blvd,,Columbus,MS,39701,US,,32.479,-84.9874,,,,
Belk,,2101 Brookmeade Dr,,Oxford,MS,38655,US,,34.3665,-89.5192,,,,
Belk,,230 Towne Center Loop,,Corinth,MS,38834,US,,34.9343,-88.5223,,,,
Belk,,2600 Beach Boulevard Ste 14,,Mccomb,MS,39648,US,,31.2856,-90.4757,,,,
Belk,,3505 Pemberton Square Blv,,Flowood,MS,39232,US,,32.2769,-90.1125,,,,
Dillard's,,1000 Bonita Lakes Circle,,Hattiesburg,MS,39402,US,601-268-6700,31.3271,-89.2903,,,,
Dillard's,,1001 Barnes Crossing Rd,,Ridgeland,MS,39157,US,601-957-7100,32.4545,-90.1806,,,,
Dillard's,,10360 Factory Shop Boulevard,,Biloxi,MS,39531,US,228-385-3834,30.512,-88.5581,,,,
Benjamin Lovell Shoes,,170 W White Horse Pike,,Haddonfield,NJ,8033,US,,39.9063,-75.0804,,,,
Boscov's,,1034 Old Country Road-Store #16,,Clifton Park,NJ,12065,US,(518) 348-0080,42.8378,-73.7713,,,,
Boscov's,,121 Carver Ave,,Wyckoff Eatontown,NJ,7724,US,(732) 578-9115,40.9836,-74.0111,,,,
Boscov's,,1750 Oak Street,,Toms River,NJ,8753,US,(732) 505-0770,39.9876,-74.1468,,,,
Boscov's,,2501 Burlington-Mt. Holly Road,,Voorhees,NJ,8043,US,856-772-6400,40.0517,-74.921,,,,
Boscov's,,500 Rt 73 South Bldg F,,Moorestown,NJ,8057,US,(856) 231-1101,39.958,-74.988,,,,
Boscov's,,6725 Black Horse Pike,,Vineland,NJ,8360,US,856-327-3800,39.4968,-75.0157,,,,
Boscov's,,Almonesson & Clements Br Dr.,,Egg Harbor Township,NJ,8234,US,(609) 383-1880,39.8189,-75.0987,,,,
Boscov's,,Route 38 & Lenola Road,,Deptford,NJ,8096,US,(856) 686-1223,39.8391,-75.1229,,,,
Carellas Shoes Inc,,100 Cumberland Mall,,Mercerville,NJ,8619,US,(609)587-5823,40.2252,-74.6577,,,,
Carl's Shoes Inc,,493 Route 38 West,,Moorestown,NJ,8057,US,(856)235-6223,39.945,-74.9665,,,,
Famous Brand Shoes,,Route 34 North,,Newton,NJ,7860,US,(973)383-3288,41.0667,-74.8128,,,,
Fazio Shoes Inc,,400 Route 38,,Pleasantville,NJ,8232,US,(609)641-0183,39.3914,-74.5182,,,,
Rockport Concept Store,,4450 Spring Mountain Road,,Las Vegas,NV,89109,US,702-369-0715,36.1263,-115.201,,,,
Scheels,,3663 Las Vegas Blvd S,,Sparks,NV,89434,US,,36.1562,-115.027,,,,
Macy's,,92 Cluff Crossing Rd,,Manchester,NH,3103,US,,42.9501,-71.4584,,,,
Off Broadway 5031,,80 Premium Outlets Blvd.,,Salem,NH,3079,US,66V-078  Rockingham Mall,42.795,-71.2256,,,,
Off Broadway 5045,,201 Main Street,,Manchester,NH,3103,US,V7F-408  Tj Maxx Plaza,42.9871,-71.474,,,,
Red's Shoe Barn Inc,,45 N Main Street,,Plaistow,NH,3865,US,(000)000-0000,42.82,-71.0948,,,,
Red's Shoe Barn Inc,,6200 20Th St,,Dover,NH,3820,US,(603)742-1893,43.1871,-70.91,,,,
Rockport Clearance Outlet,,400 Warwick Mall,,Merrimack,NH,3054,US,(603) 424-7077,42.8502,-71.5155,,,,
Ej's Shoes Inc,,10 South County Centerway,,Saint Louis,MO,63132,US,,38.5042,-90.3284,,,,
Family Shoe Store,,201 North Stadium Boulevard,,Boonville,MO,65223,US,,38.9029,-92.7071,,,,
Hayes Shoe Store,,1117 N. Promenade Pky,,Cuba,MO,65453,US,,38.0527,-91.4014,,,,
Laurie's Shoe Center Inc,,601 Olive Street,,Saint Louis,MO,63122,US,,38.6285,-90.1906,,,,
Lorenz Shoes Ii,,#1 Mid Rivers Mall,,Perryville,MO,63755,US,,37.425,-89.6628,,,,
Macy's,,101 White Oaks Mall,,Chesterfield,MO,63017,US,,38.4771,-90.9035,,,,
Macy's,,1105 Saint Louis Galleria,,St. Louis,MO,63129,US,,38.637,-90.347,,,,
Macy's,,120 N Cedar St # 122,,Columbia,MO,65203,US,,38.8965,-92.3413,,,,
Macy's,,126 W Washington St,,Springfield,MO,65804,US,,37.2196,-93.2858,,,,
Macy's,,1600 Park 370 Pl,,St. Louis,MO,63117,US,,38.6162,-90.2092,,,,
Macy's,,17 West Saint Joseph St,,Lee'S Summit,MO,64086,US,,38.9197,-94.2846,,,,
Macy's,,1914 Grand Blvd,,Kansas City,MO,64155,US,,39.0899,-94.5818,,,,
Dillard's,,150 Dogwood Pl,,Meridian,MS,39301,US,601-482-8929,32.3461,-88.6863,,,,
Dillard's,,350 John R Junkin Dr,,Vicksburg,MS,39180,US,601-638-8853,32.3526,-90.8779,,,,
Dillard's,,377 W. Jackson Street,,Southaven,MS,38671,US,662-536-4786,34.9398,-90.0127,,,,
Hi-Tec,,"V. Fapanni, 38",,Mestre,MS,30173,US,041-988997,45.4942,12.2445,,,,
Mcraes 667,,617 Highway 7 South,,Greenville,MS,38701,US,662-334-8258,33.3989,-91.0493,,,,
Mcraes 668,,1000 Metrocenter,,Meridian,MS,39301,US,601-484-7800,32.3643,-88.7037,,,,
Mcraes 669,,708 S Cass St,,Vicksburg,MS,39180,US,601-638-9500,32.3526,-90.8779,,,,
Mcraes 671,,2319 Jackson Ave W,,Tupelo,MS,38804,US,662-680-7258,34.2647,-88.7563,,,,
Mcraes 672,,1200 E County Line Rd,,Jackson,MS,39209,US,601-968-6258,32.4773,-90.3099,,,,
Mcraes 673,,15226 Crossroads Parkway,,Gautier,MS,39553,US,228-497-8300,30.3858,-88.6117,,,,
Mcraes 674,,10360 Road 375,,Laurel,MS,39440,US,601-426-8342,31.8492,-88.9687,,,,
Mcraes 675,,2800 Hwy 90,,Columbus,MS,39701,US,662-329-9500,30.2325,-93.1141,,,,
Globe Shoes,,100 Paramus Park,,Paramus,NJ,7652,US,201-843-6515,40.9542,-74.0684,,,,
Globe Shoes,,275 Route 4 West,,Paramus,NJ,7652,US,(201)843-6515,40.9054,-74.0326,,,,
Hat Box,,400 Quakerbridge Road,,Lakewood,NJ,8701,US,,40.0721,-74.2069,,,,
J T Murdoch Shoes,,151 Broad Street,,Bloomfield,NJ,7003,US,(973)748-6484,40.7993,-74.1969,,,,
Jdr Shoe Warehouse,,Route 10 East,,Cherry Hill,NJ,8003,US,(856)751-6668,39.8756,-75.0601,,,,
"L.L.Bean Marlton, Nj",,6003 Voorhees Town Center,,Marlton,NJ,8053,US,888-552-9883,39.8726,-74.9069,,,,
Luxe Boutique,,1 Garden State Plaza,,Rochelle Park,NJ,7662,US,,40.915,-74.0787,,,,
Luxe Boutique,,100 Route 46,,Cresskill,NJ,7626,US,,40.9403,-73.9576,,,,
Macy's,,8 Hooper Street Or 121 Carver Avenue,,Eatontown,NJ,7724,US,,40.3039,-74.0703,,,,
Macy's,,100 Linwood Plaza Route 9W,,West Orange,NJ,7052,US,,40.8372,-74.2667,,,,
Macy's,,100 Premium Outlets Dr. #703,,Voorhees,NJ,8043,US,,39.8413,-74.9375,,,,
Macy's,,112 Eisenhower Parkway,,South Plainfield,NJ,7080,US,,40.6337,-74.4074,,,,
Macy's,,2 Mid Rivers Mall Dr,,Independence,MO,64057,US,,39.0632,-94.3462,,,,
Macy's,,207 Truman Blvd,,St. Ann,MO,63074,US,,38.2179,-90.3862,,,,
Macy's,,220 S County Center Way,,St. Peters,MO,63376,US,,38.663,-90.5653,,,,
Macy's,,400 N.W. Barry Road,,Joplin,MO,64801,US,,37.0822,-94.6002,,,,
Macy's,,440 North Kirkwood Rd,,St. Louis,MO,63131,US,,38.586,-90.4056,,,,
Macy's,,49 Chesterfield Mall,,Florissant,MO,63034,US,,38.6512,-90.5663,,,,
Macy's,,500 Jamestown Mall,,St. Louis,MO,63101,US,,38.8077,-90.2233,,,,
Macy's,,8620 Olive Blvd,,Cape Girardeau,MO,63703,US,,37.3156,-89.5224,,,,
Off Broadway 5040,,100 Chesterfield Mall,,Hazelwood,MO,63042,US,9V3-543  St Louis Mills,38.654,-90.565,,,,
Off Broadway 5052,,18805 E 39Th St,,Kansas City,MO,64114,US,,39.0522,-94.4661,,,,
Rockport Factory Outlet,,3115 W Broadway,,Branson,MO,65616,US,(417) 337-9846,36.5928,-93.3961,,,,
Roosevelt Bootery Inc,,7350 Nw 87Th Terrace,,Nevada,MO,64772,US,,37.8392,-94.3547,,,,
Tank Footwear Inc,,3000 W Deyoung St,,Crystal City,MO,63019,US,,38.2212,-90.379,,,,
Tom's Shoes,,407 Main Street,,Saint James,MO,65559,US,,38.0094,-91.6228,,,,
Mcraes 677,,1651 Hwy 1 S,,Natchez,MS,39120,US,601-445-6400,31.057,-92.0275,,,,
