store_name,store_number,address,address2,city,state,zip_code,country,phone_number,latitude,longitude,store_hours,store_type,other_fields,coming_soon
U.S. Bank Tower CA Office,5204 ,633 W 5th St Fl 1, ,Los Angeles,CA,90071,US,2136156300    ,34.05103,-118.25453,"Monday 09:00:00-17:00:00, Tuesday 09:00:00-17:00:00, Wednesday 09:00:00-17:00:00, Thursday 09:00:00-17:00:00, Friday 09:00:00-17:00:00, Saturday 00:00:00-00:00:00, Sunday 00:00:00-00:00:00",,,
Olympic & Figueroa Office,4643 ,710 W Olympic Blvd, ,Los Angeles,CA,90015,US,2137654810    ,34.0445075996392,-118.263124077561,"Monday 09:00:00-17:00:00, Tuesday 09:00:00-17:00:00, Wednesday 09:00:00-17:00:00, Thursday 09:00:00-17:00:00, Friday 09:00:00-18:00:00, Saturday 09:00:00-13:00:00, Sunday 00:00:00-00:00:00",,,
Boyle Heights Office,1024 ,2708 E 1st St Ste A, ,Los Angeles,CA,90033,US,3232608000    ,34.0419260576214,-118.205868923613,"Monday 09:00:00-17:00:00, Tuesday 09:00:00-17:00:00, Wednesday 09:00:00-17:00:00, Thursday 09:00:00-17:00:00, Friday 09:00:00-18:00:00, Saturday 09:00:00-13:00:00, Sunday 00:00:00-00:00:00",,,
West Third Street Vons Office,8984 ,3461 W 3rd St, ,Los Angeles,CA,90020,US,2133510451    ,34.0690949669534,-118.290811773038,"Monday 10:00:00-19:00:00, Tuesday 10:00:00-19:00:00, Wednesday 10:00:00-19:00:00, Thursday 10:00:00-19:00:00, Friday 10:00:00-19:00:00, Saturday 10:00:00-17:00:00, Sunday 10:00:00-14:00:00",,,
Los Angeles Vermont CA Ralphs Office,5911 ,2600 S Vermont Ave, ,Los Angeles,CA,90007,US,3237304726    ,34.032014,-118.290681,"Monday 10:00:00-19:00:00, Tuesday 10:00:00-19:00:00, Wednesday 10:00:00-19:00:00, Thursday 10:00:00-19:00:00, Friday 10:00:00-19:00:00, Saturday 10:00:00-17:00:00, Sunday 10:00:00-14:00:00",,,
Beverly & Serrano CA Office,7234 ,4500 Beverly Blvd, ,Los Angeles,CA,90004,US,3237621655    ,34.07602,-118.30707,"Monday 09:00:00-17:00:00, Tuesday 09:00:00-17:00:00, Wednesday 09:00:00-17:00:00, Thursday 09:00:00-17:00:00, Friday 09:00:00-18:00:00, Saturday 09:00:00-13:00:00, Sunday 00:00:00-00:00:00",,,
San Fernando CA Super King Office,5429 ,2716 N San Fernando Rd, ,Los Angeles,CA,90065,US,3232246100    ,34.11001,-118.24336,"Monday 10:00:00-19:00:00, Tuesday 10:00:00-19:00:00, Wednesday 10:00:00-19:00:00, Thursday 10:00:00-19:00:00, Friday 10:00:00-19:00:00, Saturday 10:00:00-17:00:00, Sunday 10:00:00-14:00:00",,,
Los Feliz CA Office,7198 ,1702 N Vermont Ave, ,Los Angeles,CA,90027,US,3236673580    ,34.1019885731852,-118.29171569588,"Monday 09:00:00-17:00:00, Tuesday 09:00:00-17:00:00, Wednesday 09:00:00-17:00:00, Thursday 09:00:00-17:00:00, Friday 09:00:00-18:00:00, Saturday 09:00:00-13:00:00, Sunday 00:00:00-00:00:00",,,
Larchmont CA Office,7235 ,157 N Larchmont Blvd, ,Los Angeles,CA,90004,US,3237621635    ,34.07466,-118.32398,"Monday 09:00:00-17:00:00, Tuesday 09:00:00-17:00:00, Wednesday 09:00:00-17:00:00, Thursday 09:00:00-17:00:00, Friday 09:00:00-18:00:00, Saturday 09:00:00-13:00:00, Sunday 00:00:00-00:00:00",,,
Hollywood & Western CA Office,8213 ,5454 Hollywood Blvd, ,Los Angeles,CA,90027,US,3238601511    ,34.1014,-118.30882,"Monday 09:00:00-17:00:00, Tuesday 09:00:00-17:00:00, Wednesday 09:00:00-17:00:00, Thursday 09:00:00-17:00:00, Friday 09:00:00-18:00:00, Saturday 09:00:00-13:00:00, Sunday 00:00:00-00:00:00",,,
West Los Feliz Boulevard Vons Office,3573 ,311 W Los Feliz Rd, ,Glendale,CA,91204,US,8185474112    ,34.12925,-118.25864,"Monday 10:00:00-19:00:00, Tuesday 10:00:00-19:00:00, Wednesday 10:00:00-19:00:00, Thursday 10:00:00-19:00:00, Friday 10:00:00-19:00:00, Saturday 10:00:00-17:00:00, Sunday 10:00:00-14:00:00",,,
Maywood CA Office,7197 ,4449 Slauson Ave, ,Maywood,CA,90270,US,3239233780    ,33.9872517589879,-118.186247326091,"Monday 09:00:00-17:00:00, Tuesday 09:00:00-17:00:00, Wednesday 09:00:00-17:00:00, Thursday 09:00:00-17:00:00, Friday 09:00:00-18:00:00, Saturday 09:00:00-13:00:00, Sunday 00:00:00-00:00:00",,,
La Brea CA Office,7218 ,736 N La Brea Ave, ,Los Angeles,CA,90038,US,3232021910    ,34.08444,-118.34368,"Monday 09:00:00-17:00:00, Tuesday 09:00:00-17:00:00, Wednesday 09:00:00-17:00:00, Thursday 09:00:00-17:00:00, Friday 09:00:00-17:00:00, Saturday 00:00:00-00:00:00, Sunday 00:00:00-00:00:00",,,
Hollywood CA Office,7191 ,6922 Hollywood Blvd, ,Hollywood,CA,90028,US,3238176360    ,34.1015020998969,-118.341038460025,"Monday 09:00:00-17:00:00, Tuesday 09:00:00-17:00:00, Wednesday 09:00:00-17:00:00, Thursday 09:00:00-17:00:00, Friday 09:00:00-18:00:00, Saturday 00:00:00-00:00:00, Sunday 00:00:00-00:00:00",,,
Eagle Rock Vons Office,6569 ,7311 N Figueroa St, ,Los Angeles,CA,90041,US,3234740615    ,34.13619,-118.18931,"Monday 10:00:00-19:00:00, Tuesday 10:00:00-19:00:00, Wednesday 10:00:00-19:00:00, Thursday 10:00:00-19:00:00, Friday 10:00:00-19:00:00, Saturday 10:00:00-17:00:00, Sunday 10:00:00-15:00:00",,,
Slauson and Crenshaw Office,4537 ,5760 Crenshaw Blvd, ,Los Angeles,CA,90043,US,3232903410    ,33.98944,-118.33027,"Monday 09:00:00-17:00:00, Tuesday 09:00:00-17:00:00, Wednesday 09:00:00-17:00:00, Thursday 09:00:00-17:00:00, Friday 09:00:00-18:00:00, Saturday 09:00:00-13:00:00, Sunday 00:00:00-00:00:00",,,
Cudahy CA Office,5902 ,7220 Atlantic Ave, ,Cudahy,CA,90201,US,3235606300    ,33.9696283287578,-118.187861718703,"Monday 09:00:00-17:00:00, Tuesday 09:00:00-17:00:00, Wednesday 09:00:00-17:00:00, Thursday 09:00:00-17:00:00, Friday 09:00:00-18:00:00, Saturday 09:00:00-13:00:00, Sunday 00:00:00-00:00:00",,,
Baldwin Hills Office,7851 ,3605 S La Brea Ave, ,Los Angeles,CA,90016,US,3232955204    ,34.021343740331,-118.355662445862,"Monday 09:00:00-17:00:00, Tuesday 09:00:00-17:00:00, Wednesday 09:00:00-17:00:00, Thursday 09:00:00-17:00:00, Friday 09:00:00-18:00:00, Saturday 09:00:00-13:00:00, Sunday 00:00:00-00:00:00",,,
South Pasadena CA Office,7220 ,1153 Fair Oaks Ave, ,South Pasadena,CA,91030,US,6264037900    ,34.1124941171582,-118.150438689102,"Monday 09:00:00-17:00:00, Tuesday 09:00:00-17:00:00, Wednesday 09:00:00-17:00:00, Thursday 09:00:00-17:00:00, Friday 09:00:00-18:00:00, Saturday 09:00:00-13:00:00, Sunday 00:00:00-00:00:00",,,
Fairfax CA Office,7248 ,145 S Fairfax Ave, ,Los Angeles,CA,90036,US,3237611922    ,34.073,-118.36176,"Monday 09:00:00-17:00:00, Tuesday 09:00:00-17:00:00, Wednesday 09:00:00-17:00:00, Thursday 09:00:00-17:00:00, Friday 09:00:00-17:00:00, Saturday 00:00:00-00:00:00, Sunday 00:00:00-00:00:00",,,
North Glendale Avenue Vons Office,3566 ,561 N Glendale Ave, ,Glendale,CA,91206,US,8185005365    ,34.1552,-118.24481,"Monday 10:00:00-19:00:00, Tuesday 10:00:00-19:00:00, Wednesday 10:00:00-19:00:00, Thursday 10:00:00-19:00:00, Friday 10:00:00-19:00:00, Saturday 10:00:00-17:00:00, Sunday 10:00:00-14:00:00",,,
Glendale Office,4655 ,600 N Brand Blvd, ,Glendale,CA,91203,US,8189375962    ,34.15504,-118.25437,"Monday 09:00:00-17:00:00, Tuesday 09:00:00-17:00:00, Wednesday 09:00:00-17:00:00, Thursday 09:00:00-17:00:00, Friday 09:00:00-18:00:00, Saturday 09:00:00-13:00:00, Sunday 00:00:00-00:00:00",,,
Montebello CA Office,7227 ,1611 W Beverly Blvd, ,Montebello,CA,90640,US,3232015440    ,34.01916,-118.11689,"Monday 09:00:00-17:00:00, Tuesday 09:00:00-17:00:00, Wednesday 09:00:00-17:00:00, Thursday 09:00:00-17:00:00, Friday 09:00:00-18:00:00, Saturday 09:00:00-13:00:00, Sunday 00:00:00-00:00:00",,,
West Hollywood Office,4651 ,8901 Santa Monica Blvd, ,West Hollywood,CA,90069,US,3106571677    ,34.084878465217,-118.384272779867,"Monday 09:00:00-17:00:00, Tuesday 09:00:00-17:00:00, Wednesday 09:00:00-17:00:00, Thursday 09:00:00-17:00:00, Friday 09:00:00-18:00:00, Saturday 09:00:00-13:00:00, Sunday 00:00:00-00:00:00",,,
Burbank Pavilions Office,6858 ,1110 W Alameda Ave, ,Burbank,CA,91506,US,8182383924    ,34.1628919401871,-118.314034097788,"Monday 10:00:00-19:00:00, Tuesday 10:00:00-19:00:00, Wednesday 10:00:00-19:00:00, Thursday 10:00:00-19:00:00, Friday 10:00:00-19:00:00, Saturday 10:00:00-17:00:00, Sunday 10:00:00-14:00:00",,,
Phoenix Tower AZ Office,8214 ,101 N 1st Ave Ste 110, ,Phoenix,AZ,85003,US,6022575470    ,33.449616,-112.075404,"Monday 08:30:00-16:30:00, Tuesday 08:30:00-16:30:00, Wednesday 08:30:00-16:30:00, Thursday 08:30:00-16:30:00, Friday 08:30:00-16:30:00, Saturday 00:00:00-00:00:00, Sunday 00:00:00-00:00:00",,,
East McDowell Safeway Office,5132 ,340 E McDowell Rd, ,Phoenix,AZ,85004,US,6022531435    ,33.46623,-112.06707,"Monday 10:00:00-19:00:00, Tuesday 10:00:00-19:00:00, Wednesday 10:00:00-19:00:00, Thursday 10:00:00-19:00:00, Friday 10:00:00-19:00:00, Saturday 10:00:00-17:00:00, Sunday 10:00:00-15:00:00",,,
West Osborn Rd Safeway Office,5103 ,520 W Osborn Rd, ,Phoenix,AZ,85013,US,6022631227    ,33.48842,-112.08201,"Monday 10:00:00-19:00:00, Tuesday 10:00:00-19:00:00, Wednesday 10:00:00-19:00:00, Thursday 10:00:00-19:00:00, Friday 10:00:00-19:00:00, Saturday 10:00:00-17:00:00, Sunday 10:00:00-15:00:00",,,
Phoenix Uptown Office,2603 ,3800 N Central Ave Ste C-200, ,Phoenix,AZ,85012,US,6022301233    ,33.49144,-112.07556,"Monday 09:00:00-17:00:00, Tuesday 09:00:00-17:00:00, Wednesday 09:00:00-17:00:00, Thursday 09:00:00-17:00:00, Friday 09:00:00-17:00:00, Saturday 00:00:00-00:00:00, Sunday 00:00:00-00:00:00",,,
South 16th St Safeway Office,5152 ,6202 S 16th St, ,Phoenix,AZ,85042,US,6023040453    ,33.39043,-112.04872,"Monday 10:00:00-19:00:00, Tuesday 10:00:00-19:00:00, Wednesday 10:00:00-19:00:00, Thursday 10:00:00-19:00:00, Friday 10:00:00-19:00:00, Saturday 10:00:00-17:00:00, Sunday 10:00:00-15:00:00",,,
Biltmore Office,2597 ,2222 E Camelback Rd Ste 100, ,Phoenix,AZ,85016,US,6022224600    ,33.5096,-112.03274,"Monday 09:00:00-17:00:00, Tuesday 09:00:00-17:00:00, Wednesday 09:00:00-17:00:00, Thursday 09:00:00-17:00:00, Friday 09:00:00-17:00:00, Saturday 09:00:00-14:00:00, Sunday 00:00:00-00:00:00",,,
35th & Southern Office,3738 ,3530 W Southern Ave, ,Phoenix,AZ,85041,US,6023050400    ,33.392522,-112.135013,"Monday 09:00:00-17:00:00, Tuesday 09:00:00-17:00:00, Wednesday 09:00:00-17:00:00, Thursday 09:00:00-17:00:00, Friday 09:00:00-17:00:00, Saturday 00:00:00-00:00:00, Sunday 00:00:00-00:00:00",,,
Laveen Safeway Office,7820 ,5035 W Baseline Rd, ,Laveen,AZ,85339,US,6022374830    ,33.37657,-112.1666,"Monday 10:00:00-19:00:00, Tuesday 10:00:00-19:00:00, Wednesday 10:00:00-19:00:00, Thursday 10:00:00-19:00:00, Friday 10:00:00-19:00:00, Saturday 10:00:00-17:00:00, Sunday 10:00:00-15:00:00",,,
43rd and Northern Fry's Office,6586 ,4329 W Northern Ave, ,Glendale,AZ,85301,US,6237597342    ,33.55219,-112.15289,"Monday 10:00:00-19:00:00, Tuesday 10:00:00-19:00:00, Wednesday 10:00:00-19:00:00, Thursday 10:00:00-19:00:00, Friday 10:00:00-19:00:00, Saturday 10:00:00-17:00:00, Sunday 10:00:00-15:00:00",,,
75th & McDowell AZ Office,2590 ,1820 N 75th Ave Ste 100, ,Phoenix,AZ,85035,US,6238484600    ,33.46822,-112.22115,"Monday 09:00:00-17:00:00, Tuesday 09:00:00-17:00:00, Wednesday 09:00:00-17:00:00, Thursday 09:00:00-17:00:00, Friday 09:00:00-17:00:00, Saturday 09:00:00-15:00:00, Sunday 00:00:00-00:00:00",,,
Old Town Scottsdale AZ Office,7178 ,4253 N Scottsdale Rd, ,Scottsdale,AZ,85251,US,4804813434    ,33.49816,-111.92563,"Monday 09:00:00-17:00:00, Tuesday 09:00:00-17:00:00, Wednesday 09:00:00-17:00:00, Thursday 09:00:00-17:00:00, Friday 09:00:00-17:00:00, Saturday 00:00:00-00:00:00, Sunday 00:00:00-00:00:00",,,
West Camelback Rd Safeway Office,5136 ,4811 N 83rd Ave, ,Phoenix,AZ,85033,US,6238498797    ,33.5074359668269,-112.237651934471,"Monday 10:00:00-19:00:00, Tuesday 10:00:00-19:00:00, Wednesday 10:00:00-19:00:00, Thursday 10:00:00-19:00:00, Friday 10:00:00-19:00:00, Saturday 10:00:00-17:00:00, Sunday 10:00:00-15:00:00",,,
Tempe Marketplace Office,8659 ,2060 E Rio Salado Pkwy, ,Tempe,AZ,85281,US,4803035420    ,33.4294008873785,-111.899506140309,"Monday 09:00:00-17:00:00, Tuesday 09:00:00-17:00:00, Wednesday 09:00:00-17:00:00, Thursday 09:00:00-17:00:00, Friday 09:00:00-17:00:00, Saturday 09:00:00-14:00:00, Sunday 00:00:00-00:00:00",,,
Shea and Tatum Fry's Office,6943 ,4707 E Shea Blvd, ,Phoenix,AZ,85028,US,4804830522    ,33.58129,-111.97913,"Monday 10:00:00-19:00:00, Tuesday 10:00:00-19:00:00, Wednesday 10:00:00-19:00:00, Thursday 10:00:00-19:00:00, Friday 10:00:00-19:00:00, Saturday 10:00:00-17:00:00, Sunday 10:00:00-15:00:00",,,
Tempe Office,2711 ,1800 E Baseline Rd, ,Tempe,AZ,85283,US,4807568000    ,33.378796,-111.908823,"Monday 09:00:00-17:00:00, Tuesday 09:00:00-17:00:00, Wednesday 09:00:00-17:00:00, Thursday 09:00:00-17:00:00, Friday 09:00:00-17:00:00, Saturday 09:00:00-13:00:00, Sunday 00:00:00-00:00:00",,,
Ahwatukee Safeway Office,5105 ,4005 E Chandler Blvd, ,Phoenix,AZ,85048,US,4807042052    ,33.30472,-111.99677,"Monday 10:00:00-19:00:00, Tuesday 10:00:00-19:00:00, Wednesday 10:00:00-19:00:00, Thursday 10:00:00-19:00:00, Friday 10:00:00-19:00:00, Saturday 10:00:00-17:00:00, Sunday 10:00:00-15:00:00",,,
East Elliot Rd Safeway Office,5106 ,1515 E Elliot Rd, ,Tempe,AZ,85284,US,4808396408    ,33.34841,-111.91325,"Monday 10:00:00-19:00:00, Tuesday 10:00:00-19:00:00, Wednesday 10:00:00-19:00:00, Thursday 10:00:00-19:00:00, Friday 10:00:00-19:00:00, Saturday 10:00:00-17:00:00, Sunday 10:00:00-15:00:00",,,
West Main St Safeway Office,7701 ,1960 W Main St, ,Mesa,AZ,85201,US,4809642608    ,33.4150164539317,-111.873393796878,"Monday 10:00:00-19:00:00, Tuesday 10:00:00-19:00:00, Wednesday 10:00:00-19:00:00, Thursday 10:00:00-19:00:00, Friday 10:00:00-19:00:00, Saturday 10:00:00-17:00:00, Sunday 10:00:00-15:00:00",,,
Ray & Rural Fry's Office,6557 ,9900 S Rural Rd, ,Tempe,AZ,85284,US,4807583922    ,33.32149,-111.92985,"Monday 10:00:00-19:00:00, Tuesday 10:00:00-19:00:00, Wednesday 10:00:00-19:00:00, Thursday 10:00:00-19:00:00, Friday 10:00:00-19:00:00, Saturday 10:00:00-17:00:00, Sunday 10:00:00-15:00:00",,,
West Thunderbird Glendale Safeway Office,5109 ,5860 W Thunderbird Rd, ,Glendale,AZ,85306,US,6029381599    ,33.6107892405684,-112.184584276177,"Monday 10:00:00-19:00:00, Tuesday 10:00:00-19:00:00, Wednesday 10:00:00-19:00:00, Thursday 10:00:00-19:00:00, Friday 10:00:00-19:00:00, Saturday 10:00:00-17:00:00, Sunday 10:00:00-15:00:00",,,
Scottsdale Office,2601 ,9719 N Hayden Rd, ,Scottsdale,AZ,85258,US,4805567760    ,33.575,-111.90541,"Monday 09:00:00-17:00:00, Tuesday 09:00:00-17:00:00, Wednesday 09:00:00-17:00:00, Thursday 09:00:00-17:00:00, Friday 09:00:00-17:00:00, Saturday 09:00:00-14:00:00, Sunday 00:00:00-00:00:00",,,
Fountain Square AZ Office,8650 ,630 E Bell Rd, ,Phoenix,AZ,85022,US,6024674800    ,33.6404279500206,-112.06601648434,"Monday 09:00:00-17:00:00, Tuesday 09:00:00-17:00:00, Wednesday 09:00:00-17:00:00, Thursday 09:00:00-17:00:00, Friday 09:00:00-17:30:00, Saturday 09:00:00-14:00:00, Sunday 00:00:00-00:00:00",,,
West Bell Rd Safeway Office,5137 ,3450 W Bell Rd, ,Phoenix,AZ,85053,US,6029930554    ,33.64055,-112.13346,"Monday 10:00:00-19:00:00, Tuesday 10:00:00-19:00:00, Wednesday 10:00:00-19:00:00, Thursday 10:00:00-19:00:00, Friday 10:00:00-19:00:00, Saturday 10:00:00-17:00:00, Sunday 10:00:00-15:00:00",,,
83rd Ave Safeway Office,7702 ,12320 N 83rd Ave, ,Peoria,AZ,85381,US,6238780793    ,33.596622,-112.239285,"Monday 10:00:00-19:00:00, Tuesday 10:00:00-19:00:00, Wednesday 10:00:00-19:00:00, Thursday 10:00:00-19:00:00, Friday 10:00:00-19:00:00, Saturday 10:00:00-17:00:00, Sunday 10:00:00-15:00:00",,,
Downtown Mesa AZ Office,8655 ,1 N MacDonald Ste 107, ,Mesa,AZ,85201,US,4806448220    ,33.41549,-111.83377,"Monday 09:00:00-17:00:00, Tuesday 09:00:00-17:00:00, Wednesday 09:00:00-17:00:00, Thursday 09:00:00-17:00:00, Friday 09:00:00-17:00:00, Saturday 00:00:00-00:00:00, Sunday 00:00:00-00:00:00",,,
South Wacker Office,4361 ,71 S Wacker Dr, ,Chicago,IL,60606,US,3127778000    ,41.88116,-87.63649,"Monday 08:00:00-17:30:00, Tuesday 08:00:00-17:30:00, Wednesday 08:00:00-17:30:00, Thursday 08:00:00-17:30:00, Friday 08:00:00-17:30:00, Saturday 00:00:00-00:00:00, Sunday 00:00:00-00:00:00",,,
25 East Washington IL Office,2291 ,25 E Washington St, ,Chicago,IL,60602,US,3126961450    ,41.88291,-87.62668,"Monday 08:30:00-17:00:00, Tuesday 08:30:00-17:00:00, Wednesday 08:30:00-17:00:00, Thursday 08:30:00-17:00:00, Friday 08:30:00-17:00:00, Saturday 00:00:00-00:00:00, Sunday 00:00:00-00:00:00",,,
The Rookery Building IL Office,3974 ,209 S La Salle St, ,Chicago,IL,60604,US,3123258950    ,41.87907,-87.63183,"Monday 08:30:00-17:00:00, Tuesday 08:30:00-17:00:00, Wednesday 08:30:00-17:00:00, Thursday 08:30:00-17:00:00, Friday 08:30:00-17:00:00, Saturday 00:00:00-00:00:00, Sunday 00:00:00-00:00:00",,,
Chicago River Office,0585 ,225 N Michigan Ave Ste C110, ,Chicago,IL,60601,US,3129467478    ,41.886379,-87.623584,"Monday 08:00:00-17:00:00, Tuesday 08:00:00-17:00:00, Wednesday 08:00:00-17:00:00, Thursday 08:00:00-17:00:00, Friday 08:00:00-17:00:00, Saturday 00:00:00-00:00:00, Sunday 00:00:00-00:00:00",,,
Cosmopolitan IL Office,7142 ,801 N Clark St, ,Chicago,IL,60610,US,3126645200    ,41.89686,-87.63085,"Monday 09:00:00-17:00:00, Tuesday 09:00:00-17:00:00, Wednesday 09:00:00-17:00:00, Thursday 09:00:00-17:00:00, Friday 09:00:00-17:00:00, Saturday 09:00:00-13:00:00, Sunday 00:00:00-00:00:00",,,
Northwestern Memorial Hospital Office,6581 ,251 E Huron St Fl 2, ,Chicago,IL,60611,US,3125174922    ,41.894459,-87.62222,"Monday 08:00:00-17:00:00, Tuesday 08:00:00-17:00:00, Wednesday 08:00:00-17:00:00, Thursday 08:00:00-17:00:00, Friday 08:00:00-17:00:00, Saturday 00:00:00-00:00:00, Sunday 00:00:00-00:00:00",,,
West Town Office,0587 ,745 N Milwaukee Ave, ,Chicago,IL,60642,US,3124556115    ,41.89555,-87.65392,"Monday 09:00:00-17:00:00, Tuesday 09:00:00-17:00:00, Wednesday 09:00:00-17:00:00, Thursday 09:00:00-17:00:00, Friday 09:00:00-17:00:00, Saturday 09:00:00-13:00:00, Sunday 00:00:00-00:00:00",,,
Chinatown Square Office,4283 ,2131 S China Pl, ,Chicago,IL,60616,US,3129490103    ,41.85429,-87.63352,"Monday 09:00:00-17:00:00, Tuesday 09:00:00-17:00:00, Wednesday 09:00:00-17:00:00, Thursday 09:00:00-17:00:00, Friday 09:00:00-17:00:00, Saturday 09:00:00-13:00:00, Sunday 00:00:00-00:00:00",,,
Chinatown Office,4282 ,2263 S Wentworth Ave, ,Chicago,IL,60616,US,3127911950    ,41.8513,-87.6316,"Monday 09:00:00-17:00:00, Tuesday 09:00:00-17:00:00, Wednesday 09:00:00-17:00:00, Thursday 09:00:00-17:00:00, Friday 09:00:00-17:00:00, Saturday 09:00:00-13:00:00, Sunday 00:00:00-00:00:00",,,
Lincoln Park Office,0944 ,1953 N Clybourn Ave, ,Chicago,IL,60614,US,7734043075    ,41.91677,-87.65721,"Monday 09:00:00-17:00:00, Tuesday 09:00:00-17:00:00, Wednesday 09:00:00-17:00:00, Thursday 09:00:00-17:00:00, Friday 09:00:00-17:00:00, Saturday 09:00:00-13:00:00, Sunday 00:00:00-00:00:00",,,
Clybourn Ave Jewel-Osco Office,6902 ,2550 N Clybourn Ave, ,Chicago,IL,60614,US,7733272471    ,41.92771,-87.67458,"Monday 10:00:00-19:00:00, Tuesday 10:00:00-19:00:00, Wednesday 10:00:00-19:00:00, Thursday 10:00:00-19:00:00, Friday 10:00:00-19:00:00, Saturday 09:00:00-16:00:00, Sunday 12:00:00-16:00:00",,,
Bridgeport Office,4274 ,600 W 37th St, ,Chicago,IL,60609,US,7733764808    ,41.82743,-87.64131,"Monday 09:00:00-17:00:00, Tuesday 09:00:00-17:00:00, Wednesday 09:00:00-17:00:00, Thursday 09:00:00-17:00:00, Friday 09:00:00-17:00:00, Saturday 09:00:00-13:00:00, Sunday 00:00:00-00:00:00",,,
Riverfront Plaza Office,4354 ,2595 N Elston Ave, ,Chicago,IL,60647,US,7732525563    ,41.9286640468643,-87.6826108874483,"Monday 09:00:00-17:00:00, Tuesday 09:00:00-17:00:00, Wednesday 09:00:00-17:00:00, Thursday 09:00:00-17:00:00, Friday 09:00:00-17:00:00, Saturday 09:00:00-13:00:00, Sunday 00:00:00-00:00:00",,,
Cermak Office,4280 ,2854 W Cermak Rd, ,Chicago,IL,60623,US,7732477080    ,41.85214,-87.6976,"Monday 09:00:00-17:00:00, Tuesday 09:00:00-17:00:00, Wednesday 09:00:00-17:00:00, Thursday 09:00:00-17:00:00, Friday 09:00:00-17:00:00, Saturday 09:00:00-13:00:00, Sunday 00:00:00-00:00:00",,,
West Garfield IL Office,7151 ,310 N Pulaski Rd, ,Chicago,IL,60624,US,7738262070    ,41.886042322048,-87.7258799281611,"Monday 09:00:00-17:00:00, Tuesday 09:00:00-17:00:00, Wednesday 09:00:00-17:00:00, Thursday 09:00:00-17:00:00, Friday 09:00:00-17:00:00, Saturday 09:00:00-13:00:00, Sunday 00:00:00-00:00:00",,,
Lincoln Ave & Irving Park Office,4326 ,4037 N Lincoln Ave, ,Chicago,IL,60618,US,7734040590    ,41.955287619287,-87.6794975894321,"Monday 09:00:00-17:00:00, Tuesday 09:00:00-17:00:00, Wednesday 09:00:00-17:00:00, Thursday 09:00:00-17:00:00, Friday 09:00:00-17:00:00, Saturday 09:00:00-13:00:00, Sunday 00:00:00-00:00:00",,,
Milwaukee Ave IL Office,7146 ,2958 N Milwaukee Ave, ,Chicago,IL,60618,US,7733843400    ,41.93496,-87.71763,"Monday 09:00:00-17:00:00, Tuesday 09:00:00-17:00:00, Wednesday 09:00:00-17:00:00, Thursday 09:00:00-17:00:00, Friday 09:00:00-17:00:00, Saturday 09:00:00-13:00:00, Sunday 00:00:00-00:00:00",,,
Cicero IL Office,7152 ,4765 W Cermak Rd, ,Cicero,IL,60804,US,7082224740    ,41.8511976692936,-87.7427765921856,"Monday 09:00:00-17:00:00, Tuesday 09:00:00-17:00:00, Wednesday 09:00:00-17:00:00, Thursday 09:00:00-17:00:00, Friday 09:00:00-17:00:00, Saturday 09:00:00-13:00:00, Sunday 00:00:00-00:00:00",,,
Austin IL Office,2316 ,5201 W Madison St, ,Chicago,IL,60644,US,7738540670    ,41.8803320019362,-87.7552428173152,"Monday 09:00:00-17:00:00, Tuesday 09:00:00-17:00:00, Wednesday 09:00:00-17:00:00, Thursday 09:00:00-17:00:00, Friday 09:00:00-17:00:00, Saturday 09:00:00-13:00:00, Sunday 00:00:00-00:00:00",,,
Irving Park IL Office,2307 ,3515 W Irving Park Rd, ,Chicago,IL,60618,US,7734783131    ,41.9537583871989,-87.7159704411825,"Monday 09:00:00-17:00:00, Tuesday 09:00:00-17:00:00, Wednesday 09:00:00-17:00:00, Thursday 09:00:00-17:00:00, Friday 09:00:00-17:00:00, Saturday 09:00:00-13:00:00, Sunday 00:00:00-00:00:00",,,
Lincoln Square Office,4328 ,4725 N Western Ave, ,Chicago,IL,60625,US,7737690077    ,41.9677,-87.6886,"Monday 09:00:00-17:00:00, Tuesday 09:00:00-17:00:00, Wednesday 09:00:00-17:00:00, Thursday 09:00:00-17:00:00, Friday 09:00:00-17:00:00, Saturday 09:00:00-13:00:00, Sunday 00:00:00-00:00:00",,,
Edgewater Office,2304 ,5340 N Clark St, ,Chicago,IL,60640,US,7737692100    ,41.9791697943886,-87.6683904879663,"Monday 09:00:00-17:00:00, Tuesday 09:00:00-17:00:00, Wednesday 09:00:00-17:00:00, Thursday 09:00:00-17:00:00, Friday 09:00:00-17:00:00, Saturday 09:00:00-13:00:00, Sunday 00:00:00-00:00:00",,,
Englewood IL Office,7144 ,815 W 63rd St, ,Chicago,IL,60621,US,7738738800    ,41.77939,-87.64552,"Monday 09:00:00-17:00:00, Tuesday 09:00:00-17:00:00, Wednesday 09:00:00-17:00:00, Thursday 09:00:00-17:00:00, Friday 09:00:00-17:00:00, Saturday 09:00:00-13:00:00, Sunday 00:00:00-00:00:00",,,
Oak Park Driveup Office,2313D,835 W Lake St, ,Oak Park,IL,60301,US,7084455142    ,41.88801,-87.77488,"Monday 00:00:00-00:00:00, Tuesday 00:00:00-00:00:00, Wednesday 00:00:00-00:00:00, Thursday 00:00:00-00:00:00, Friday 00:00:00-00:00:00, Saturday 00:00:00-00:00:00, Sunday 00:00:00-00:00:00",,,
Oak Park-Madison St IL Office,7162 ,11 Madison St, ,Oak Park,IL,60302,US,7083865000    ,41.880010619992,-87.7751983670586,"Monday 09:00:00-17:00:00, Tuesday 09:00:00-17:00:00, Wednesday 09:00:00-17:00:00, Thursday 09:00:00-17:00:00, Friday 09:00:00-17:00:00, Saturday 09:00:00-13:00:00, Sunday 00:00:00-00:00:00",,,
San Diego Main Office,4618 ,600 W Broadway Ste 100, ,San Diego,CA,92101,US,6192326213    ,32.71677,-117.16872,"Monday 09:00:00-17:00:00, Tuesday 09:00:00-17:00:00, Wednesday 09:00:00-17:00:00, Thursday 09:00:00-17:00:00, Friday 09:00:00-18:00:00, Saturday 00:00:00-00:00:00, Sunday 00:00:00-00:00:00",,,
San Diego-Kettner Blvd CA Office,7284 ,1420 Kettner Blvd, ,San Diego,CA,92101,US,6197442140    ,32.72017,-117.16958,"Monday 09:00:00-17:00:00, Tuesday 09:00:00-17:00:00, Wednesday 09:00:00-17:00:00, Thursday 09:00:00-17:00:00, Friday 09:00:00-18:00:00, Saturday 00:00:00-00:00:00, Sunday 00:00:00-00:00:00",,,
Mission Hills Office,4690 ,610 W Washington St, ,San Diego,CA,92103,US,6196825300    ,32.75021,-117.16901,"Monday 09:00:00-17:00:00, Tuesday 09:00:00-17:00:00, Wednesday 09:00:00-17:00:00, Thursday 09:00:00-17:00:00, Friday 09:00:00-18:00:00, Saturday 09:00:00-13:00:00, Sunday 00:00:00-00:00:00",,,
North Park CA Office,7290 ,3201 University Ave, ,San Diego,CA,92104,US,6195845300    ,32.74817,-117.1247,"Monday 09:00:00-17:00:00, Tuesday 09:00:00-17:00:00, Wednesday 09:00:00-17:00:00, Thursday 09:00:00-17:00:00, Friday 09:00:00-18:00:00, Saturday 09:00:00-13:00:00, Sunday 00:00:00-00:00:00",,,
36th and El Cajon Office,4696 ,3560 El Cajon Blvd, ,San Diego,CA,92104,US,6196416500    ,32.75586,-117.1163,"Monday 09:00:00-17:00:00, Tuesday 09:00:00-17:00:00, Wednesday 09:00:00-17:00:00, Thursday 09:00:00-17:00:00, Friday 09:00:00-18:00:00, Saturday 09:00:00-13:00:00, Sunday 00:00:00-00:00:00",,,
Point Loma Office,4684 ,1331 Rosecrans St, ,San Diego,CA,92106,US,6192265400    ,32.72412,-117.22943,"Monday 09:00:00-17:00:00, Tuesday 09:00:00-17:00:00, Wednesday 09:00:00-17:00:00, Thursday 09:00:00-17:00:00, Friday 09:00:00-18:00:00, Saturday 09:00:00-13:00:00, Sunday 00:00:00-00:00:00",,,
Morena Office,4683 ,5330 Napa St, ,San Diego,CA,92110,US,6197855900    ,32.76571,-117.19724,"Monday 09:00:00-17:00:00, Tuesday 09:00:00-17:00:00, Wednesday 09:00:00-17:00:00, Thursday 09:00:00-17:00:00, Friday 09:00:00-18:00:00, Saturday 09:00:00-13:00:00, Sunday 00:00:00-00:00:00",,,
Mission Valley CA Office,7286 ,1455 Frazee Rd Ste 104, ,San Diego,CA,92108,US,6192787400    ,32.77404,-117.1585,"Monday 09:00:00-17:00:00, Tuesday 09:00:00-17:00:00, Wednesday 09:00:00-17:00:00, Thursday 09:00:00-17:00:00, Friday 09:00:00-18:00:00, Saturday 00:00:00-00:00:00, Sunday 00:00:00-00:00:00",,,
Midway Drive CA Vons Office,6953 ,3645 Midway Dr, ,San Diego,CA,92110,US,6192215090    ,32.75139,-117.21716,"Monday 10:00:00-19:00:00, Tuesday 10:00:00-19:00:00, Wednesday 10:00:00-19:00:00, Thursday 10:00:00-19:00:00, Friday 10:00:00-19:00:00, Saturday 10:00:00-17:00:00, Sunday 10:00:00-14:00:00",,,
University of San Diego Office,8447 ,5998 Alcala Park Univ Ctr Ste 125, ,San Diego,CA,92110,US,6197855972    ,32.7719049839853,-117.186182673265,"Monday 09:00:00-17:00:00, Tuesday 09:00:00-17:00:00, Wednesday 09:00:00-18:00:00, Thursday 09:00:00-17:00:00, Friday 09:00:00-16:00:00, Saturday 00:00:00-00:00:00, Sunday 00:00:00-00:00:00",,,
Loma Portal Office,4685 ,2150 Chatsworth Blvd, ,San Diego,CA,92107,US,6192265557    ,32.73907,-117.22881,"Monday 09:00:00-17:00:00, Tuesday 09:00:00-17:00:00, Wednesday 09:00:00-17:00:00, Thursday 09:00:00-17:00:00, Friday 09:00:00-18:00:00, Saturday 00:00:00-00:00:00, Sunday 00:00:00-00:00:00",,,
Southeastern / Euclid CA Office,7289 ,5100 Federal Blvd, ,San Diego,CA,92105,US,6192665700    ,32.72188,-117.08447,"Monday 09:00:00-17:00:00, Tuesday 09:00:00-17:00:00, Wednesday 09:00:00-17:00:00, Thursday 09:00:00-17:00:00, Friday 09:00:00-18:00:00, Saturday 09:00:00-13:00:00, Sunday 00:00:00-00:00:00",,,
Ocean Beach Office,4682 ,4827 Newport Ave, ,San Diego,CA,92107,US,6192265517    ,32.74482,-117.24835,"Monday 09:00:00-17:00:00, Tuesday 09:00:00-17:00:00, Wednesday 09:00:00-17:00:00, Thursday 09:00:00-17:00:00, Friday 09:00:00-18:00:00, Saturday 09:00:00-13:00:00, Sunday 00:00:00-00:00:00",,,
Ocean Beach Drive-Up,4682D,4827 Newport Ave, ,San Diego,CA,92107,US,6192265485    ,32.74482,-117.24835,"Monday 00:00:00-00:00:00, Tuesday 00:00:00-00:00:00, Wednesday 00:00:00-00:00:00, Thursday 00:00:00-00:00:00, Friday 00:00:00-00:00:00, Saturday 00:00:00-00:00:00, Sunday 00:00:00-00:00:00",,,
College Area Vons Office,3575 ,6155 El Cajon Blvd, ,San Diego,CA,92115,US,6192295080    ,32.76107,-117.06517,"Monday 10:00:00-19:00:00, Tuesday 10:00:00-19:00:00, Wednesday 10:00:00-19:00:00, Thursday 10:00:00-19:00:00, Friday 10:00:00-19:00:00, Saturday 10:00:00-17:00:00, Sunday 10:00:00-14:00:00",,,
San Diego State University CA Office,8293 ,5500 Campanile Dr, ,San Diego,CA,92182,US,6192292880    ,32.77215,-117.07253,"Monday 08:00:00-17:00:00, Tuesday 08:00:00-17:00:00, Wednesday 08:00:00-17:00:00, Thursday 08:00:00-17:00:00, Friday 08:00:00-17:00:00, Saturday 00:00:00-00:00:00, Sunday 00:00:00-00:00:00",,,
Balboa Vons Office,8505 ,5555 Balboa Ave, ,San Diego,CA,92111,US,8582682490    ,32.818324,-117.178923,"Monday 10:00:00-19:00:00, Tuesday 10:00:00-19:00:00, Wednesday 10:00:00-19:00:00, Thursday 10:00:00-19:00:00, Friday 10:00:00-19:00:00, Saturday 10:00:00-17:00:00, Sunday 10:00:00-14:00:00",,,
Clairemont Genesee Office,7292 ,4195 Genesee Ave, ,San Diego,CA,92111,US,8584276790    ,32.8191578197944,-117.181667470075,"Monday 09:00:00-17:00:00, Tuesday 09:00:00-17:00:00, Wednesday 09:00:00-17:00:00, Thursday 09:00:00-17:00:00, Friday 09:00:00-18:00:00, Saturday 09:00:00-13:00:00, Sunday 00:00:00-00:00:00",,,
Pacific Beach Office,4691 ,1606 Grand Ave, ,San Diego,CA,92109,US,8584566738    ,32.79827,-117.24003,"Monday 09:00:00-17:00:00, Tuesday 09:00:00-17:00:00, Wednesday 09:00:00-17:00:00, Thursday 09:00:00-17:00:00, Friday 09:00:00-18:00:00, Saturday 09:00:00-13:00:00, Sunday 00:00:00-00:00:00",,,
Chula Vista - H St Office,1017 ,399 H St, ,Chula Vista,CA,91910,US,6194091200    ,32.63367,-117.08105,"Monday 09:00:00-17:00:00, Tuesday 09:00:00-17:00:00, Wednesday 09:00:00-17:00:00, Thursday 09:00:00-17:00:00, Friday 09:00:00-18:00:00, Saturday 09:00:00-13:00:00, Sunday 00:00:00-00:00:00",,,
Kearny Mesa Regional Office,1015 ,9005 Complex Dr, ,San Diego,CA,92123,US,8586367300    ,32.83076,-117.13433,"Monday 09:00:00-17:00:00, Tuesday 09:00:00-17:00:00, Wednesday 09:00:00-17:00:00, Thursday 09:00:00-17:00:00, Friday 09:00:00-18:00:00, Saturday 00:00:00-00:00:00, Sunday 00:00:00-00:00:00",,,
Saturn Boulevard Vons Office,4770 ,665 Saturn Blvd, ,San Diego,CA,92154,US,6194244300    ,32.584862081132,-117.092556685927,"Monday 10:00:00-19:00:00, Tuesday 10:00:00-19:00:00, Wednesday 10:00:00-19:00:00, Thursday 10:00:00-19:00:00, Friday 10:00:00-19:00:00, Saturday 10:00:00-17:00:00, Sunday 10:00:00-14:00:00",,,
La Mesa CA Albertsons Office,5924 ,8920 Fletcher Pkwy, ,La Mesa,CA,91942,US,6196673390    ,32.78579,-117.00533,"Monday 10:00:00-19:00:00, Tuesday 10:00:00-19:00:00, Wednesday 10:00:00-19:00:00, Thursday 10:00:00-19:00:00, Friday 10:00:00-19:00:00, Saturday 10:00:00-17:00:00, Sunday 10:00:00-14:00:00",,,
Lake Murray CA Albertsons Office,5950 ,8650 Lake Murray Blvd, ,San Diego,CA,92119,US,6196685151    ,32.80153,-117.01285,"Monday 10:00:00-19:00:00, Tuesday 10:00:00-19:00:00, Wednesday 10:00:00-19:00:00, Thursday 10:00:00-19:00:00, Friday 10:00:00-19:00:00, Saturday 10:00:00-17:00:00, Sunday 10:00:00-14:00:00",,,
Chula Vista CA Ralphs Office,5960 ,659 E Palomar St, ,Chula Vista,CA,91911,US,6196563292    ,32.61542,-117.02511,"Monday 10:00:00-19:00:00, Tuesday 10:00:00-19:00:00, Wednesday 10:00:00-19:00:00, Thursday 10:00:00-19:00:00, Friday 10:00:00-19:00:00, Saturday 10:00:00-17:00:00, Sunday 10:00:00-14:00:00",,,
Turlock Office,3879 ,427 E Olive Ave, ,Turlock,CA,95380,US,2096675557    ,37.49755,-120.8445,"Monday 09:00:00-17:00:00, Tuesday 09:00:00-17:00:00, Wednesday 09:00:00-17:00:00, Thursday 09:00:00-17:00:00, Friday 09:00:00-18:00:00, Saturday 09:00:00-13:00:00, Sunday 00:00:00-00:00:00",,,
Patterson Office,3873 ,13 Plaza, ,Patterson,CA,95363,US,2098923540    ,37.47144,-121.131,"Monday 09:00:00-17:00:00, Tuesday 09:00:00-17:00:00, Wednesday 09:00:00-17:00:00, Thursday 09:00:00-17:00:00, Friday 09:00:00-18:00:00, Saturday 09:00:00-13:00:00, Sunday 00:00:00-00:00:00",,,
Modesto Main Office,3877 ,1120 11th St, ,Modesto,CA,95354,US,2094915050    ,37.64272,-121.00061,"Monday 09:00:00-17:00:00, Tuesday 09:00:00-17:00:00, Wednesday 09:00:00-17:00:00, Thursday 09:00:00-17:00:00, Friday 09:00:00-18:00:00, Saturday 00:00:00-00:00:00, Sunday 00:00:00-00:00:00",,,
Paso Robles CA Albertsons Office,5925 ,189 Niblick Rd, ,Paso Robles,CA,93446,US,8052376111    ,35.61615,-120.68119,"Monday 10:00:00-19:00:00, Tuesday 10:00:00-19:00:00, Wednesday 10:00:00-19:00:00, Thursday 10:00:00-19:00:00, Friday 10:00:00-19:00:00, Saturday 10:00:00-19:00:00, Sunday 10:00:00-14:00:00",,,
McHenry Office,3878 ,2008 McHenry Ave, ,Modesto,CA,95350,US,2094915040    ,37.67352,-120.99351,"Monday 09:00:00-17:00:00, Tuesday 09:00:00-17:00:00, Wednesday 09:00:00-17:00:00, Thursday 09:00:00-17:00:00, Friday 09:00:00-18:00:00, Saturday 09:00:00-13:00:00, Sunday 00:00:00-00:00:00",,,
Twain Harte Office,3849 ,22953 Twain Harte Dr, ,Twain Harte,CA,95383,US,2095863277    ,38.03807,-120.22867,"Monday 09:00:00-17:00:00, Tuesday 09:00:00-17:00:00, Wednesday 09:00:00-17:00:00, Thursday 09:00:00-17:00:00, Friday 09:00:00-18:00:00, Saturday 00:00:00-00:00:00, Sunday 00:00:00-00:00:00",,,
Tully Office,3880 ,3501 Tully Rd Ste A, ,Modesto,CA,95356,US,2094915000    ,37.68972,-121.01294,"Monday 09:00:00-17:00:00, Tuesday 09:00:00-17:00:00, Wednesday 09:00:00-17:00:00, Thursday 09:00:00-17:00:00, Friday 09:00:00-18:00:00, Saturday 00:00:00-00:00:00, Sunday 00:00:00-00:00:00",,,
Sacramento Main Office,3811 ,621 Capitol Mall Ste 110, ,Sacramento,CA,95814,US,9164983888    ,38.57875,-121.49907,"Monday 08:30:00-16:30:00, Tuesday 08:30:00-16:30:00, Wednesday 08:30:00-16:30:00, Thursday 08:30:00-16:30:00, Friday 08:30:00-16:30:00, Saturday 00:00:00-00:00:00, Sunday 00:00:00-00:00:00",,,
19th Street & S Safeway Office,8658 ,1814 19th St, ,Sacramento,CA,95811,US,9163265885    ,38.56812,-121.48592,"Monday 10:00:00-19:00:00, Tuesday 10:00:00-19:00:00, Wednesday 10:00:00-19:00:00, Thursday 10:00:00-19:00:00, Friday 10:00:00-19:00:00, Saturday 10:00:00-17:00:00, Sunday 10:00:00-14:00:00",,,
Alhambra and J Office,3854 ,1001 Alhambra Blvd, ,Sacramento,CA,95816,US,9164414505    ,38.5724,-121.46508,"Monday 09:00:00-17:00:00, Tuesday 09:00:00-17:00:00, Wednesday 09:00:00-17:00:00, Thursday 09:00:00-17:00:00, Friday 09:00:00-17:00:00, Saturday 09:00:00-13:00:00, Sunday 00:00:00-00:00:00",,,
West Sacramento Office,3821 ,1401 Merkley Ave, ,West Sacramento,CA,95691,US,9163711010    ,38.57895,-121.52647,"Monday 09:00:00-17:00:00, Tuesday 09:00:00-17:00:00, Wednesday 09:00:00-17:00:00, Thursday 09:00:00-17:00:00, Friday 09:00:00-17:00:00, Saturday 09:00:00-13:00:00, Sunday 00:00:00-00:00:00",,,
Oak Park Office,3814 ,3418 Broadway, ,Sacramento,CA,95817,US,9167330480    ,38.55206,-121.46923,"Monday 09:00:00-17:00:00, Tuesday 09:00:00-17:00:00, Wednesday 09:00:00-17:00:00, Thursday 09:00:00-17:00:00, Friday 09:00:00-17:00:00, Saturday 09:00:00-13:00:00, Sunday 00:00:00-00:00:00",,,
Riverpoint Walmart Office,6657 ,755 Riverpoint Ct, ,W Sacramento,CA,95605,US,9163760537    ,38.58757,-121.55014,"Monday 10:00:00-19:00:00, Tuesday 10:00:00-19:00:00, Wednesday 10:00:00-19:00:00, Thursday 10:00:00-19:00:00, Friday 10:00:00-19:00:00, Saturday 10:00:00-17:00:00, Sunday 10:00:00-14:00:00",,,
Campus Commons Office,3800 ,2264 Fair Oaks Blvd, ,Sacramento,CA,95825,US,9166481778    ,38.57399,-121.41253,"Monday 09:00:00-17:00:00, Tuesday 09:00:00-17:00:00, Wednesday 09:00:00-17:00:00, Thursday 09:00:00-17:00:00, Friday 09:00:00-17:00:00, Saturday 10:00:00-14:00:00, Sunday 00:00:00-00:00:00",,,
Natomas Town Center Safeway Office,8902 ,2851 Del Paso Rd, ,Sacramento,CA,95835,US,9162858859    ,38.65716,-121.52464,"Monday 10:00:00-19:00:00, Tuesday 10:00:00-19:00:00, Wednesday 10:00:00-19:00:00, Thursday 10:00:00-19:00:00, Friday 10:00:00-19:00:00, Saturday 10:00:00-17:00:00, Sunday 10:00:00-14:00:00",,,
Arden Way Safeway Office,8466 ,3320 Arden Way, ,Sacramento,CA,95825,US,9169797234    ,38.59441,-121.38666,"Monday 10:00:00-19:00:00, Tuesday 10:00:00-19:00:00, Wednesday 10:00:00-19:00:00, Thursday 10:00:00-19:00:00, Friday 10:00:00-19:00:00, Saturday 10:00:00-17:00:00, Sunday 10:00:00-14:00:00",,,
Greenhaven Office,3801 ,950 Florin Rd, ,Sacramento,CA,95831,US,9163914080    ,38.49531,-121.52313,"Monday 09:00:00-17:00:00, Tuesday 09:00:00-17:00:00, Wednesday 09:00:00-17:00:00, Thursday 09:00:00-17:00:00, Friday 09:00:00-17:00:00, Saturday 10:00:00-14:00:00, Sunday 00:00:00-00:00:00",,,
Country Club Office,3802 ,2460 Watt Ave, ,Sacramento,CA,95825,US,9164862731    ,38.61012,-121.3827,"Monday 09:00:00-17:00:00, Tuesday 09:00:00-17:00:00, Wednesday 09:00:00-17:00:00, Thursday 09:00:00-17:00:00, Friday 09:00:00-17:00:00, Saturday 09:00:00-13:00:00, Sunday 00:00:00-00:00:00",,,
Florin Mall CA Office,5928 ,6005 Florin Rd Ste 500, ,Sacramento,CA,95823,US,9163994960    ,38.49755,-121.43542,"Monday 09:00:00-17:00:00, Tuesday 09:00:00-17:00:00, Wednesday 09:00:00-17:00:00, Thursday 09:00:00-17:00:00, Friday 09:00:00-17:00:00, Saturday 09:00:00-13:00:00, Sunday 00:00:00-00:00:00",,,
Manzanita Avenue Safeway Office,7833 ,4040 Manzanita Ave, ,Carmichael,CA,95608,US,9169797239    ,38.63795,-121.32757,"Monday 10:00:00-19:00:00, Tuesday 10:00:00-19:00:00, Wednesday 10:00:00-19:00:00, Thursday 10:00:00-19:00:00, Friday 10:00:00-19:00:00, Saturday 10:00:00-17:00:00, Sunday 10:00:00-14:00:00",,,
Cordova Village Safeway Office,8870 ,10635 Folsom Blvd, ,Rancho Cordova,CA,95670,US,9168435345    ,38.59515,-121.29307,"Monday 10:00:00-19:00:00, Tuesday 10:00:00-19:00:00, Wednesday 10:00:00-19:00:00, Thursday 10:00:00-19:00:00, Friday 10:00:00-19:00:00, Saturday 10:00:00-17:00:00, Sunday 10:00:00-14:00:00",,,
Laguna Boulevard Safeway Office,8866 ,5021 Laguna Blvd, ,Elk Grove,CA,95758,US,9166914050    ,38.42402,-121.44618,"Monday 10:00:00-19:00:00, Tuesday 10:00:00-19:00:00, Wednesday 10:00:00-19:00:00, Thursday 10:00:00-19:00:00, Friday 10:00:00-19:00:00, Saturday 10:00:00-17:00:00, Sunday 10:00:00-14:00:00",,,
Elk Grove Laguna CA Office,5248 ,5000 Laguna Blvd, ,Elk Grove,CA,95758,US,9166911300    ,38.42286,-121.44751,"Monday 09:00:00-17:00:00, Tuesday 09:00:00-17:00:00, Wednesday 09:00:00-17:00:00, Thursday 09:00:00-17:00:00, Friday 09:00:00-17:00:00, Saturday 09:00:00-13:00:00, Sunday 00:00:00-00:00:00",,,
Zinfandel CA Office,5990 ,3217 Zinfandel Dr, ,Rancho Cordova,CA,95670,US,9166314456    ,38.58368,-121.28487,"Monday 09:00:00-17:00:00, Tuesday 09:00:00-17:00:00, Wednesday 09:00:00-17:00:00, Thursday 09:00:00-17:00:00, Friday 09:00:00-17:00:00, Saturday 09:00:00-13:00:00, Sunday 00:00:00-00:00:00",,,
Rancho Cordova Office,3813 ,11111 Olson Dr, ,Rancho Cordova,CA,95670,US,9166389812    ,38.59861,-121.28212,"Monday 09:00:00-17:00:00, Tuesday 09:00:00-17:00:00, Wednesday 09:00:00-17:00:00, Thursday 09:00:00-17:00:00, Friday 09:00:00-17:00:00, Saturday 09:00:00-13:00:00, Sunday 00:00:00-00:00:00",,,
Dewey Drive Safeway Office,7840 ,5450 Dewey Dr, ,Fair Oaks,CA,95628,US,9165350230    ,38.66516,-121.30708,"Monday 10:00:00-19:00:00, Tuesday 10:00:00-19:00:00, Wednesday 10:00:00-19:00:00, Thursday 10:00:00-19:00:00, Friday 10:00:00-19:00:00, Saturday 10:00:00-17:00:00, Sunday 10:00:00-14:00:00",,,
East Elk Grove Office,3897 ,9230 Elk Grove Florin Rd Ste 120, ,Elk Grove,CA,95624,US,9166887060    ,38.42238,-121.37208,"Monday 09:00:00-17:00:00, Tuesday 09:00:00-17:00:00, Wednesday 09:00:00-17:00:00, Thursday 09:00:00-17:00:00, Friday 09:00:00-17:00:00, Saturday 10:00:00-14:00:00, Sunday 00:00:00-00:00:00",,,
Davis Main Office,3816 ,304 F St, ,Davis,CA,95616,US,5307567283    ,38.54509,-121.7401,"Monday 09:00:00-17:00:00, Tuesday 09:00:00-17:00:00, Wednesday 09:00:00-17:00:00, Thursday 09:00:00-17:00:00, Friday 09:00:00-17:00:00, Saturday 09:00:00-13:00:00, Sunday 00:00:00-00:00:00",,,
Sunrise Mall Office,3853 ,6199 Sunrise Mall, ,Citrus Heights,CA,95610,US,9167261831    ,38.6782922706705,-121.267175270117,"Monday 09:00:00-17:00:00, Tuesday 09:00:00-17:00:00, Wednesday 09:00:00-17:00:00, Thursday 09:00:00-17:00:00, Friday 09:00:00-18:00:00, Saturday 09:00:00-13:00:00, Sunday 00:00:00-00:00:00",,,
Madison & Hazel Safeway Office,7837 ,8925 Madison Ave, ,Fair Oaks,CA,95628,US,9165357520    ,38.66521,-121.22409,"Monday 10:00:00-19:00:00, Tuesday 10:00:00-19:00:00, Wednesday 10:00:00-19:00:00, Thursday 10:00:00-19:00:00, Friday 10:00:00-19:00:00, Saturday 10:00:00-17:00:00, Sunday 10:00:00-14:00:00",,,
Sunrise Avenue Safeway Office,7841 ,989 Sunrise Ave, ,Roseville,CA,95661,US,9167827027    ,38.7311,-121.2713,"Monday 10:00:00-19:00:00, Tuesday 10:00:00-19:00:00, Wednesday 10:00:00-19:00:00, Thursday 10:00:00-19:00:00, Friday 10:00:00-19:00:00, Saturday 10:00:00-17:00:00, Sunday 10:00:00-14:00:00",,,
Roseville CA Office,3855 ,221 Estates Dr, ,Roseville,CA,95678,US,9167823146    ,38.74741,-121.27175,"Monday 09:00:00-17:00:00, Tuesday 09:00:00-17:00:00, Wednesday 09:00:00-17:00:00, Thursday 09:00:00-17:00:00, Friday 09:00:00-17:00:00, Saturday 09:00:00-13:00:00, Sunday 00:00:00-00:00:00",,,
Lomas Blvd NM Office,4963 ,111 Lomas Blvd NW Ste 100, ,Albuquerque,NM,87102,US,5052468100    ,35.0912,-106.64723,"Monday 09:00:00-17:00:00, Tuesday 09:00:00-17:00:00, Wednesday 09:00:00-17:00:00, Thursday 09:00:00-17:00:00, Friday 09:00:00-18:00:00, Saturday 00:00:00-00:00:00, Sunday 00:00:00-00:00:00",,,
Nob Hill NM Office,4965 ,3000 Central Ave SE, ,Albuquerque,NM,87106,US,5052557700    ,35.08039,-106.61169,"Monday 09:00:00-17:00:00, Tuesday 09:00:00-17:00:00, Wednesday 09:00:00-17:00:00, Thursday 09:00:00-17:00:00, Friday 09:00:00-18:00:00, Saturday 09:00:00-13:00:00, Sunday 00:00:00-00:00:00",,,
Carlisle Blvd NM Office,4958 ,1418 Carlisle Blvd NE, ,Albuquerque,NM,87110,US,5052320400    ,35.095571934166,-106.604147497435,"Monday 09:00:00-17:00:00, Tuesday 09:00:00-17:00:00, Wednesday 09:00:00-17:00:00, Thursday 09:00:00-17:00:00, Friday 09:00:00-18:00:00, Saturday 09:00:00-13:00:00, Sunday 00:00:00-00:00:00",,,
Montgomery Blvd NM Office,4964 ,5001 Montgomery Blvd NE, ,Albuquerque,NM,87109,US,5058304900    ,35.13109,-106.58831,"Monday 09:00:00-17:00:00, Tuesday 09:00:00-17:00:00, Wednesday 09:00:00-17:00:00, Thursday 09:00:00-17:00:00, Friday 09:00:00-18:00:00, Saturday 09:00:00-13:00:00, Sunday 00:00:00-00:00:00",,,
Uptown NM Office,4971 ,2300 Louisiana Blvd NE, ,Albuquerque,NM,87110,US,5058302801    ,35.10502,-106.56842,"Monday 09:00:00-17:00:00, Tuesday 09:00:00-17:00:00, Wednesday 09:00:00-17:00:00, Thursday 09:00:00-17:00:00, Friday 09:00:00-18:00:00, Saturday 09:00:00-13:00:00, Sunday 00:00:00-00:00:00",,,
South Valley Isleta Blvd NM Office,4960 ,3801 Isleta Blvd SW, ,Albuquerque,NM,87105,US,5058737333    ,35.01985,-106.68355,"Monday 09:00:00-17:00:00, Tuesday 09:00:00-17:00:00, Wednesday 09:00:00-17:00:00, Thursday 09:00:00-17:00:00, Friday 09:00:00-18:00:00, Saturday 09:00:00-12:00:00, Sunday 00:00:00-00:00:00",,,
Snowheights NM Office,4969 ,2015 Eubank Blvd NE, ,Albuquerque,NM,87112,US,5052934800    ,35.10508,-106.5335,"Monday 09:00:00-17:00:00, Tuesday 09:00:00-17:00:00, Wednesday 09:00:00-17:00:00, Thursday 09:00:00-17:00:00, Friday 09:00:00-18:00:00, Saturday 09:00:00-13:00:00, Sunday 00:00:00-00:00:00",,,
Petroglyph NM Office,4966 ,8251 Golf Course Rd NW, ,Albuquerque,NM,87120,US,5058978600    ,35.178,-106.68882,"Monday 09:00:00-17:00:00, Tuesday 09:00:00-17:00:00, Wednesday 09:00:00-17:00:00, Thursday 09:00:00-17:00:00, Friday 09:00:00-18:00:00, Saturday 09:00:00-13:00:00, Sunday 00:00:00-00:00:00",,,
Sycamore Plaza NM Office,4970 ,5620 Wyoming Blvd NE, ,Albuquerque,NM,87109,US,5058570300    ,35.14461,-106.55225,"Monday 09:00:00-17:00:00, Tuesday 09:00:00-17:00:00, Wednesday 09:00:00-17:00:00, Thursday 09:00:00-17:00:00, Friday 09:00:00-18:00:00, Saturday 09:00:00-13:00:00, Sunday 00:00:00-00:00:00",,,
Journal Center NM Office,4961 ,7900 Jefferson St NE, ,Albuquerque,NM,87109,US,5058236200    ,35.172322,-106.591748,"Monday 09:00:00-17:00:00, Tuesday 09:00:00-17:00:00, Wednesday 09:00:00-17:00:00, Thursday 09:00:00-17:00:00, Friday 09:00:00-18:00:00, Saturday 00:00:00-00:00:00, Sunday 00:00:00-00:00:00",,,
Juan Tabo Blvd NM Office,4962 ,3620 Juan Tabo Blvd NE, ,Albuquerque,NM,87111,US,5052934400    ,35.12309,-106.51512,"Monday 09:00:00-17:00:00, Tuesday 09:00:00-17:00:00, Wednesday 09:00:00-17:00:00, Thursday 09:00:00-17:00:00, Friday 09:00:00-18:00:00, Saturday 09:00:00-13:00:00, Sunday 00:00:00-00:00:00",,,
Rio Rancho Blvd NM Office,4986 ,1781 Rio Rancho Dr SE, ,Rio Rancho,NM,87124,US,5059948200    ,35.22549,-106.66104,"Monday 09:00:00-17:00:00, Tuesday 09:00:00-17:00:00, Wednesday 09:00:00-17:00:00, Thursday 09:00:00-17:00:00, Friday 09:00:00-18:00:00, Saturday 09:00:00-12:00:00, Sunday 00:00:00-00:00:00",,,
Rio Rancho Southern NM Office,4987 ,1000 Commercial Dr SE, ,Rio Rancho,NM,87124,US,5059621960    ,35.241552,-106.700512,"Monday 09:00:00-17:00:00, Tuesday 09:00:00-17:00:00, Wednesday 09:00:00-17:00:00, Thursday 09:00:00-17:00:00, Friday 09:00:00-18:00:00, Saturday 09:00:00-12:00:00, Sunday 00:00:00-00:00:00",,,
Bernalillo NM Office,4974 ,388 W Highway 550, ,Bernalillo,NM,87004,US,5057714300    ,35.3205335356526,-106.551285810138,"Monday 09:00:00-17:00:00, Tuesday 09:00:00-17:00:00, Wednesday 09:00:00-17:00:00, Thursday 09:00:00-17:00:00, Friday 09:00:00-18:00:00, Saturday 09:00:00-12:00:00, Sunday 00:00:00-00:00:00",,,
Los Lunas NM Office,4981 ,2421 Main St SE, ,Los Lunas,NM,87031,US,5058657006    ,34.80556,-106.70266,"Monday 09:00:00-17:00:00, Tuesday 09:00:00-17:00:00, Wednesday 09:00:00-17:00:00, Thursday 09:00:00-17:00:00, Friday 09:00:00-18:00:00, Saturday 09:00:00-12:00:00, Sunday 00:00:00-00:00:00",,,
Belen Reinken Ave NM Office,4973 ,620 W Reinken Ave, ,Belen,NM,87002,US,5059660400    ,34.6633589280576,-106.780686182315,"Monday 09:00:00-17:00:00, Tuesday 09:00:00-17:00:00, Wednesday 09:00:00-17:00:00, Thursday 09:00:00-17:00:00, Friday 09:00:00-18:00:00, Saturday 09:00:00-12:00:00, Sunday 00:00:00-00:00:00",,,
Moriarty NM Office,4982 ,1401 Route 66 Ave, ,Moriarty,NM,87035,US,5058325510    ,35.00478,-106.02533,"Monday 09:00:00-17:00:00, Tuesday 09:00:00-17:00:00, Wednesday 09:00:00-17:00:00, Thursday 09:00:00-17:00:00, Friday 09:00:00-18:00:00, Saturday 00:00:00-00:00:00, Sunday 00:00:00-00:00:00",,,
Santa Fe Cerrillos NM Office,4989 ,3787 Cerrillos Rd, ,Santa Fe,NM,87507,US,5054282444    ,35.6435580591468,-106.01096248301,"Monday 09:00:00-17:00:00, Tuesday 09:00:00-17:00:00, Wednesday 09:00:00-17:00:00, Thursday 09:00:00-17:00:00, Friday 09:00:00-18:00:00, Saturday 00:00:00-00:00:00, Sunday 00:00:00-00:00:00",,,
Santa Fe San Mateo NM Office,4991 ,600 W San Mateo Rd, ,Santa Fe,NM,87505,US,5059469800    ,35.66161,-105.95719,"Monday 09:00:00-17:00:00, Tuesday 09:00:00-17:00:00, Wednesday 09:00:00-17:00:00, Thursday 09:00:00-17:00:00, Friday 09:00:00-18:00:00, Saturday 09:00:00-12:00:00, Sunday 00:00:00-00:00:00",,,
Santa Fe Downtown NM Office,4990 ,201 Washington Ave, ,Santa Fe,NM,87501,US,5059928444    ,35.68925,-105.93677,"Monday 09:00:00-17:00:00, Tuesday 09:00:00-17:00:00, Wednesday 09:00:00-17:00:00, Thursday 09:00:00-17:00:00, Friday 09:00:00-18:00:00, Saturday 00:00:00-00:00:00, Sunday 00:00:00-00:00:00",,,
Pojoaque Supermarket NM Office,4984 ,9 W Gutierrez, ,Santa Fe,NM,87506,US,5054552848    ,35.8827250341378,-106.012552828532,"Monday 09:00:00-17:00:00, Tuesday 09:00:00-17:00:00, Wednesday 09:00:00-17:00:00, Thursday 09:00:00-17:00:00, Friday 09:00:00-18:00:00, Saturday 09:00:00-13:00:00, Sunday 00:00:00-00:00:00",,,
Grants NM Office,4978 ,1129 N First St, ,Grants,NM,87020,US,5052874438    ,35.1599522380377,-107.842131520819,"Monday 09:00:00-17:00:00, Tuesday 09:00:00-17:00:00, Wednesday 09:00:00-17:00:00, Thursday 09:00:00-17:00:00, Friday 09:00:00-18:00:00, Saturday 00:00:00-00:00:00, Sunday 00:00:00-00:00:00",,,
Anaheim Office,1983 ,100 W Lincoln Ave, ,Anaheim,CA,92805,US,7144913488    ,33.83612,-117.91449,"Monday 09:00:00-17:00:00, Tuesday 09:00:00-17:00:00, Wednesday 09:00:00-17:00:00, Thursday 09:00:00-17:00:00, Friday 09:00:00-18:00:00, Saturday 09:00:00-13:00:00, Sunday 00:00:00-00:00:00",,,
Fullerton CA Office,5217 ,2481 E Chapman Ave, ,Fullerton,CA,92831,US,7148795210    ,33.87449,-117.88771,"Monday 09:00:00-17:00:00, Tuesday 09:00:00-17:00:00, Wednesday 09:00:00-17:00:00, Thursday 09:00:00-17:00:00, Friday 09:00:00-18:00:00, Saturday 09:00:00-13:00:00, Sunday 00:00:00-00:00:00",,,
Cal State Univ - Fullerton Office,9679 ,"Titan Bookstore, 800 N State College Blvd", ,Fullerton,CA,92831,US,7144461900    ,33.87994,-117.88542,"Monday 08:00:00-17:00:00, Tuesday 08:00:00-17:00:00, Wednesday 08:00:00-17:00:00, Thursday 08:00:00-17:00:00, Friday 08:00:00-15:00:00, Saturday 00:00:00-00:00:00, Sunday 00:00:00-00:00:00",,,
Orange Office,4635 ,303 W Katella Ave, ,Orange,CA,92867,US,7147712700    ,33.8096,-117.85528,"Monday 09:00:00-17:00:00, Tuesday 09:00:00-17:00:00, Wednesday 09:00:00-17:00:00, Thursday 09:00:00-17:00:00, Friday 09:00:00-18:00:00, Saturday 09:00:00-13:00:00, Sunday 00:00:00-00:00:00",,,
Buena Park CA Office,7203 ,8460 La Palma Ave, ,Buena Park,CA,90620,US,7148222820    ,33.84638,-117.98532,"Monday 09:00:00-17:00:00, Tuesday 09:00:00-17:00:00, Wednesday 09:00:00-17:00:00, Thursday 09:00:00-17:00:00, Friday 09:00:00-18:00:00, Saturday 09:00:00-13:00:00, Sunday 00:00:00-00:00:00",,,
Orange-Main St CA Office,7245 ,130 S Main St Ste A, ,Orange,CA,92868,US,7149222045    ,33.78754,-117.8676,"Monday 09:00:00-17:00:00, Tuesday 09:00:00-17:00:00, Wednesday 09:00:00-17:00:00, Thursday 09:00:00-17:00:00, Friday 09:00:00-18:00:00, Saturday 09:00:00-13:00:00, Sunday 00:00:00-00:00:00",,,
Fullerton Albertsons Office,6705 ,2291 W Malvern Ave, ,Fullerton,CA,92833,US,7149922745    ,33.87848,-117.96555,"Monday 10:00:00-19:00:00, Tuesday 10:00:00-19:00:00, Wednesday 10:00:00-19:00:00, Thursday 10:00:00-19:00:00, Friday 10:00:00-19:00:00, Saturday 10:00:00-17:00:00, Sunday 10:00:00-14:00:00",,,
Sunny Hills CA Office,5246 ,201 W Bastanchury Rd, ,Fullerton,CA,92835,US,7146802300    ,33.89501,-117.93117,"Monday 09:00:00-17:00:00, Tuesday 09:00:00-17:00:00, Wednesday 09:00:00-17:00:00, Thursday 09:00:00-17:00:00, Friday 09:00:00-18:00:00, Saturday 09:00:00-13:00:00, Sunday 00:00:00-00:00:00",,,
Nohl Ranch CA Vons Office,6955 ,2684 N Tustin St, ,Orange,CA,92865,US,7142798285    ,33.8333,-117.83751,"Monday 10:00:00-19:00:00, Tuesday 10:00:00-19:00:00, Wednesday 10:00:00-19:00:00, Thursday 10:00:00-19:00:00, Friday 10:00:00-19:00:00, Saturday 10:00:00-17:00:00, Sunday 10:00:00-14:00:00",,,
Tustin/La Palma Office,4638 ,3800 E La Palma Ave, ,Anaheim,CA,92807,US,7146304500    ,33.85489,-117.83662,"Monday 09:00:00-17:00:00, Tuesday 09:00:00-17:00:00, Wednesday 09:00:00-17:00:00, Thursday 09:00:00-17:00:00, Friday 09:00:00-18:00:00, Saturday 00:00:00-00:00:00, Sunday 00:00:00-00:00:00",,,
Orange-Old Towne CA Office,7225 ,216 E Chapman Ave, ,Orange,CA,92866,US,7149222065    ,33.78764,-117.85155,"Monday 09:00:00-17:00:00, Tuesday 09:00:00-17:00:00, Wednesday 09:00:00-17:00:00, Thursday 09:00:00-17:00:00, Friday 09:00:00-18:00:00, Saturday 09:00:00-13:00:00, Sunday 00:00:00-00:00:00",,,
Placentia CA Office,7206 ,201 E Yorba Linda Blvd, ,Placentia,CA,92870,US,7149842611    ,33.88828,-117.86294,"Monday 09:00:00-17:00:00, Tuesday 09:00:00-17:00:00, Wednesday 09:00:00-17:00:00, Thursday 09:00:00-17:00:00, Friday 09:00:00-18:00:00, Saturday 09:00:00-13:00:00, Sunday 00:00:00-00:00:00",,,
Placentia CA Ralphs Office,5423 ,710 N Rose Dr, ,Placentia,CA,92870,US,7149853435    ,33.87726,-117.84229,"Monday 10:00:00-19:00:00, Tuesday 10:00:00-19:00:00, Wednesday 10:00:00-19:00:00, Thursday 10:00:00-19:00:00, Friday 10:00:00-19:00:00, Saturday 10:00:00-17:00:00, Sunday 10:00:00-14:00:00",,,
Santa Ana Office,1987 ,2740 N Grand Ave, ,Santa Ana,CA,92705,US,7147715050    ,33.77474,-117.85372,"Monday 09:00:00-17:00:00, Tuesday 09:00:00-17:00:00, Wednesday 09:00:00-17:00:00, Thursday 09:00:00-17:00:00, Friday 09:00:00-18:00:00, Saturday 09:00:00-13:00:00, Sunday 00:00:00-00:00:00",,,
Stanton CA Office,7242 ,12000 Beach Blvd, ,Stanton,CA,90680,US,7146222180    ,33.78807,-117.99248,"Monday 09:00:00-17:00:00, Tuesday 09:00:00-17:00:00, Wednesday 09:00:00-17:00:00, Thursday 09:00:00-17:00:00, Friday 09:00:00-18:00:00, Saturday 09:00:00-13:00:00, Sunday 00:00:00-00:00:00",,,
Buena Park North CA Office,7233 ,5470 Beach Blvd, ,Buena Park,CA,90621,US,7147353195    ,33.88168,-117.9973,"Monday 09:00:00-17:00:00, Tuesday 09:00:00-17:00:00, Wednesday 09:00:00-17:00:00, Thursday 09:00:00-17:00:00, Friday 09:00:00-18:00:00, Saturday 09:00:00-13:00:00, Sunday 00:00:00-00:00:00",,,
Brea Imperial Hwy CA Office,5912 ,2545 E Imperial Hwy Ste B, ,Brea,CA,92821,US,7146724195    ,33.91151,-117.86424,"Monday 09:00:00-17:00:00, Tuesday 09:00:00-17:00:00, Wednesday 09:00:00-17:00:00, Thursday 09:00:00-17:00:00, Friday 09:00:00-18:00:00, Saturday 09:00:00-13:00:00, Sunday 00:00:00-00:00:00",,,
West Imperial Hwy Vons Office,3589 ,2101 W Imperial Hwy, ,La Habra,CA,90631,US,5626914399    ,33.91842,-117.96921,"Monday 10:00:00-19:00:00, Tuesday 10:00:00-19:00:00, Wednesday 10:00:00-19:00:00, Thursday 10:00:00-19:00:00, Friday 10:00:00-19:00:00, Saturday 10:00:00-17:00:00, Sunday 10:00:00-14:00:00",,,
Brea Office,4628 ,275 W Central Ave, ,Brea,CA,92821,US,7145293983    ,33.93259,-117.89775,"Monday 09:00:00-17:00:00, Tuesday 09:00:00-17:00:00, Wednesday 09:00:00-17:00:00, Thursday 09:00:00-17:00:00, Friday 09:00:00-18:00:00, Saturday 09:00:00-13:00:00, Sunday 00:00:00-00:00:00",,,
Westminster-Brookhurst CA Office,7252 ,15555 Brookhurst St, ,Westminster,CA,92683,US,7143381580    ,33.7367852925941,-117.954896617231,"Monday 09:00:00-17:00:00, Tuesday 09:00:00-17:00:00, Wednesday 09:00:00-17:00:00, Thursday 09:00:00-17:00:00, Friday 09:00:00-18:00:00, Saturday 09:00:00-13:00:00, Sunday 00:00:00-00:00:00",,,
Valley View Vons Office,3570 ,11861 Valley View St, ,Garden Grove,CA,92845,US,7148901326    ,33.79014,-118.02926,"Monday 10:00:00-19:00:00, Tuesday 10:00:00-19:00:00, Wednesday 10:00:00-19:00:00, Thursday 10:00:00-19:00:00, Friday 10:00:00-19:00:00, Saturday 10:00:00-17:00:00, Sunday 10:00:00-14:00:00",,,
Garden Grove CA Office,7228 ,12112 Valley View St, ,Garden Grove,CA,92845,US,7146221770    ,33.78671,-118.02804,"Monday 09:00:00-17:00:00, Tuesday 09:00:00-17:00:00, Wednesday 09:00:00-17:00:00, Thursday 09:00:00-17:00:00, Friday 09:00:00-18:00:00, Saturday 09:00:00-13:00:00, Sunday 00:00:00-00:00:00",,,
Anaheim Hills CA Office,5909 ,5701 E Santa Ana Canyon Rd Ste A, ,Anaheim Hills,CA,92807,US,7146854990    ,33.8514377090482,-117.790365979616,"Monday 09:00:00-17:00:00, Tuesday 09:00:00-17:00:00, Wednesday 09:00:00-17:00:00, Thursday 09:00:00-17:00:00, Friday 09:00:00-18:00:00, Saturday 09:00:00-13:00:00, Sunday 00:00:00-00:00:00",,,
Tustin CA Office,5013 ,17851 17th St, ,Tustin,CA,92780,US,7148380933    ,33.760339,-117.820906,"Monday 09:00:00-17:00:00, Tuesday 09:00:00-17:00:00, Wednesday 09:00:00-17:00:00, Thursday 09:00:00-17:00:00, Friday 09:00:00-18:00:00, Saturday 09:00:00-13:00:00, Sunday 00:00:00-00:00:00",,,
Brookhurst & Edinger Albertsons Office,8443 ,16061 Brookhurst St, ,Fountain Valley,CA,92708,US,7147759090    ,33.729333,-117.956591,"Monday 10:00:00-19:00:00, Tuesday 10:00:00-19:00:00, Wednesday 10:00:00-19:00:00, Thursday 10:00:00-19:00:00, Friday 10:00:00-19:00:00, Saturday 10:00:00-17:00:00, Sunday 10:00:00-14:00:00",,,
Oswego IL Meijer Office,2374 ,2700 US Highway 34, ,Oswego,IL,60543,US,6305548205    ,41.699474,-88.311556,"Monday 09:00:00-19:00:00, Tuesday 09:00:00-19:00:00, Wednesday 09:00:00-19:00:00, Thursday 09:00:00-19:00:00, Friday 09:00:00-19:00:00, Saturday 09:00:00-16:00:00, Sunday 12:00:00-16:00:00",,,
Aurora Meijer Office,2682 ,808 N Route 59, ,Aurora,IL,60504,US,6306922610    ,41.767757814855,-88.2059674826976,"Monday 09:00:00-19:00:00, Tuesday 09:00:00-19:00:00, Wednesday 09:00:00-19:00:00, Thursday 09:00:00-19:00:00, Friday 09:00:00-19:00:00, Saturday 10:00:00-16:00:00, Sunday 12:00:00-16:00:00",,,
White Eagle Office,2378 ,4455 Montgomery Rd, ,Naperville,IL,60564,US,6302365490    ,41.7324986279609,-88.2067484413108,"Monday 09:00:00-17:00:00, Tuesday 09:00:00-17:00:00, Wednesday 09:00:00-17:00:00, Thursday 09:00:00-17:00:00, Friday 09:00:00-17:00:00, Saturday 09:00:00-13:00:00, Sunday 00:00:00-00:00:00",,,
Naperville Caputo's Fresh Markets Office,4340 ,3115 111th St, ,Naperville,IL,60564,US,6309224499    ,41.681347,-88.207541,"Monday 10:00:00-19:00:00, Tuesday 10:00:00-19:00:00, Wednesday 10:00:00-19:00:00, Thursday 10:00:00-19:00:00, Friday 10:00:00-19:00:00, Saturday 10:00:00-16:00:00, Sunday 11:00:00-15:00:00",,,
Naperville Office,2360 ,136 S Washington St, ,Naperville,IL,60540,US,6309838800    ,41.77321,-88.14746,"Monday 09:00:00-17:00:00, Tuesday 09:00:00-17:00:00, Wednesday 09:00:00-17:00:00, Thursday 09:00:00-17:00:00, Friday 09:00:00-17:00:00, Saturday 09:00:00-13:00:00, Sunday 00:00:00-00:00:00",,,
Naperville - Diehl Rd Office,4339 ,270 W Diehl Rd, ,Naperville,IL,60563,US,6303579577    ,41.80099,-88.15146,"Monday 09:00:00-17:00:00, Tuesday 09:00:00-17:00:00, Wednesday 09:00:00-17:00:00, Thursday 09:00:00-17:00:00, Friday 09:00:00-17:00:00, Saturday 09:00:00-13:00:00, Sunday 00:00:00-00:00:00",,,
Geneva IL Office,2337 ,808 W State St, ,Geneva,IL,60134,US,6302328300    ,41.888447,-88.315178,"Monday 09:00:00-17:00:00, Tuesday 09:00:00-17:00:00, Wednesday 09:00:00-17:00:00, Thursday 09:00:00-17:00:00, Friday 09:00:00-17:00:00, Saturday 09:00:00-13:00:00, Sunday 00:00:00-00:00:00",,,
Plainfield Walmart Office,4352 ,12690 S Route 59, ,Plainfield,IL,60585,US,8155773159    ,41.653468,-88.206681,"Monday 10:00:00-19:00:00, Tuesday 10:00:00-19:00:00, Wednesday 10:00:00-19:00:00, Thursday 10:00:00-19:00:00, Friday 10:00:00-19:00:00, Saturday 10:00:00-16:00:00, Sunday 11:00:00-15:00:00",,,
St. Charles Meijer Office,2683 ,855 S Randall Rd, ,Saint Charles,IL,60174,US,6307626430    ,41.9002980587655,-88.340312642289,"Monday 09:00:00-19:00:00, Tuesday 09:00:00-19:00:00, Wednesday 09:00:00-19:00:00, Thursday 09:00:00-19:00:00, Friday 09:00:00-19:00:00, Saturday 09:00:00-16:00:00, Sunday 12:00:00-16:00:00",,,
Plainfield IL Meijer Office,2367 ,13521 S Route 59, ,Plainfield,IL,60544,US,8152678100    ,41.6352417423517,-88.2028170730307,"Monday 09:00:00-19:00:00, Tuesday 09:00:00-19:00:00, Wednesday 09:00:00-19:00:00, Thursday 09:00:00-19:00:00, Friday 09:00:00-19:00:00, Saturday 09:00:00-16:00:00, Sunday 12:00:00-16:00:00",,,
Market Meadows Office,2366 ,1230 S Naper Blvd, ,Naperville,IL,60540,US,6309833970    ,41.7518376212506,-88.1150829178042,"Monday 09:00:00-17:00:00, Tuesday 09:00:00-17:00:00, Wednesday 09:00:00-17:00:00, Thursday 09:00:00-17:00:00, Friday 09:00:00-17:00:00, Saturday 09:00:00-13:00:00, Sunday 00:00:00-00:00:00",,,
Bolingbrook Meijer Office,2637 ,225 N Weber Rd, ,Bolingbrook,IL,60440,US,6303783640    ,41.70084,-88.12714,"Monday 09:00:00-19:00:00, Tuesday 09:00:00-19:00:00, Wednesday 09:00:00-19:00:00, Thursday 09:00:00-19:00:00, Friday 09:00:00-19:00:00, Saturday 09:00:00-16:00:00, Sunday 12:00:00-16:00:00",,,
West Chicago Office,4368 ,115 High St, ,West Chicago,IL,60185,US,6302931777    ,41.88475,-88.20278,"Monday 09:00:00-17:00:00, Tuesday 09:00:00-17:00:00, Wednesday 09:00:00-17:00:00, Thursday 09:00:00-17:00:00, Friday 09:00:00-17:00:00, Saturday 09:00:00-13:00:00, Sunday 00:00:00-00:00:00",,,
Lisle - Maple Ave Office,4330 ,2745 Maple Ave, ,Lisle,IL,60532,US,6303691776    ,41.7805130696646,-88.1036880217863,"Monday 09:00:00-17:00:00, Tuesday 09:00:00-17:00:00, Wednesday 09:00:00-17:00:00, Thursday 09:00:00-17:00:00, Friday 09:00:00-17:00:00, Saturday 09:00:00-13:00:00, Sunday 00:00:00-00:00:00",,,
St. Charles Office,2267 ,135 Smith Rd, ,St. Charles,IL,60174,US,6307627300    ,41.924512,-88.262241,"Monday 09:00:00-17:00:00, Tuesday 09:00:00-17:00:00, Wednesday 09:00:00-17:00:00, Thursday 09:00:00-17:00:00, Friday 09:00:00-17:00:00, Saturday 09:00:00-13:00:00, Sunday 00:00:00-00:00:00",,,
Lisle IL Office,7157 ,1026 Ogden Ave, ,Lisle,IL,60532,US,6307240100    ,41.80174,-88.07431,"Monday 09:00:00-17:00:00, Tuesday 09:00:00-17:00:00, Wednesday 09:00:00-17:00:00, Thursday 09:00:00-17:00:00, Friday 09:00:00-17:00:00, Saturday 09:00:00-13:00:00, Sunday 00:00:00-00:00:00",,,
Bolingbrook Office,2369 ,443 N Bolingbrook Dr, ,Bolingbrook,IL,60440,US,6307599200    ,41.709468,-88.069592,"Monday 09:00:00-17:00:00, Tuesday 09:00:00-17:00:00, Wednesday 09:00:00-17:00:00, Thursday 09:00:00-17:00:00, Friday 09:00:00-17:00:00, Saturday 09:00:00-13:00:00, Sunday 00:00:00-00:00:00",,,
College of DuPage Office,6698 ,425 Fawell Blvd, ,Glen Ellyn,IL,60137,US,6304692545    ,41.84264,-88.06624,"Monday 08:00:00-17:00:00, Tuesday 08:00:00-17:00:00, Wednesday 08:00:00-17:00:00, Thursday 08:00:00-17:00:00, Friday 08:00:00-17:00:00, Saturday 00:00:00-00:00:00, Sunday 00:00:00-00:00:00",,,
Carol Stream Office,4278 ,451 S Schmale Rd, ,Carol Stream,IL,60188,US,6306684700    ,41.8908026853478,-88.1062715774936,"Monday 09:00:00-17:00:00, Tuesday 09:00:00-17:00:00, Wednesday 09:00:00-17:00:00, Thursday 09:00:00-17:00:00, Friday 09:00:00-17:00:00, Saturday 09:00:00-13:00:00, Sunday 00:00:00-00:00:00",,,
63rd Street Office,2372 ,2201 63rd St, ,Downers Grove,IL,60516,US,6309633350    ,41.77192,-88.03736,"Monday 09:00:00-17:00:00, Tuesday 09:00:00-17:00:00, Wednesday 09:00:00-17:00:00, Thursday 09:00:00-17:00:00, Friday 09:00:00-17:00:00, Saturday 09:00:00-13:00:00, Sunday 00:00:00-00:00:00",,,
East Boughton Road Meijer Office,1440 ,755 E Boughton Rd, ,Bolingbrook,IL,60440,US,6307398010    ,41.7231260476315,-88.038587706306,"Monday 09:00:00-19:00:00, Tuesday 09:00:00-19:00:00, Wednesday 09:00:00-19:00:00, Thursday 09:00:00-19:00:00, Friday 09:00:00-19:00:00, Saturday 09:00:00-16:00:00, Sunday 12:00:00-16:00:00",,,
Woodridge Office,4376 ,7460 Woodward Ave, ,Woodridge,IL,60517,US,6309643600    ,41.751396,-88.031642,"Monday 09:00:00-17:00:00, Tuesday 09:00:00-17:00:00, Wednesday 09:00:00-17:00:00, Thursday 09:00:00-17:00:00, Friday 09:00:00-17:00:00, Saturday 09:00:00-13:00:00, Sunday 00:00:00-00:00:00",,,
Roosevelt Road Office,2350 ,736 Roosevelt Rd, ,Glen Ellyn,IL,60137,US,6307907980    ,41.859440453249,-88.0558860197796,"Monday 09:00:00-17:00:00, Tuesday 09:00:00-17:00:00, Wednesday 09:00:00-17:00:00, Thursday 09:00:00-17:00:00, Friday 09:00:00-17:00:00, Saturday 09:00:00-13:00:00, Sunday 00:00:00-00:00:00",,,
Glen Ellyn Office,2353 ,453 Forest Ave, ,Glen Ellyn,IL,60137,US,6309427010    ,41.87582,-88.06419,"Monday 09:00:00-17:00:00, Tuesday 09:00:00-17:00:00, Wednesday 09:00:00-17:00:00, Thursday 09:00:00-17:00:00, Friday 09:00:00-17:00:00, Saturday 09:00:00-13:00:00, Sunday 00:00:00-00:00:00",,,
Joliet Walmart Office,4324 ,1401 IL Route 59, ,Shorewood,IL,60431,US,8156093869    ,41.54745,-88.20276,"Monday 10:00:00-19:00:00, Tuesday 10:00:00-19:00:00, Wednesday 10:00:00-19:00:00, Thursday 10:00:00-19:00:00, Friday 10:00:00-19:00:00, Saturday 10:00:00-16:00:00, Sunday 11:00:00-15:00:00",,,
Over the Rhine Office,9054 ,1116 Main St, ,Cincinnati,OH,45202,US,5132631800    ,39.10842,-84.51118,"Monday 08:30:00-17:00:00, Tuesday 08:30:00-17:00:00, Wednesday 08:30:00-17:00:00, Thursday 08:30:00-17:00:00, Friday 08:30:00-17:00:00, Saturday 00:00:00-00:00:00, Sunday 00:00:00-00:00:00",,,
Fifth & Walnut Office,0002 ,425 Walnut St, ,Cincinnati,OH,45202,US,5136324234    ,39.10084,-84.51141,"Monday 08:30:00-17:00:00, Tuesday 08:30:00-17:00:00, Wednesday 08:30:00-17:00:00, Thursday 08:30:00-17:00:00, Friday 08:30:00-17:00:00, Saturday 00:00:00-00:00:00, Sunday 00:00:00-00:00:00",,,
4th and Elm Office,0023 ,201 W 4th St, ,Cincinnati,OH,45202,US,5133618243    ,39.09935,-84.51599,"Monday 09:00:00-17:00:00, Tuesday 09:00:00-17:00:00, Wednesday 09:00:00-17:00:00, Thursday 09:00:00-17:00:00, Friday 09:00:00-17:00:00, Saturday 00:00:00-00:00:00, Sunday 00:00:00-00:00:00",,,
Taylors Landing Office,0131 ,810 Monmouth St, ,Newport,KY,41071,US,8596553438    ,39.08892,-84.4915,"Monday 08:30:00-17:00:00, Tuesday 08:30:00-17:00:00, Wednesday 08:30:00-17:00:00, Thursday 08:30:00-17:00:00, Friday 08:30:00-17:00:00, Saturday 00:00:00-00:00:00, Sunday 00:00:00-00:00:00",,,
Queensgate Office,0009 ,925 W 8th St, ,Cincinnati,OH,45203,US,5133618252    ,39.10339,-84.531205,"Monday 08:30:00-17:00:00, Tuesday 08:30:00-17:00:00, Wednesday 08:30:00-17:00:00, Thursday 08:30:00-17:00:00, Friday 08:30:00-17:00:00, Saturday 00:00:00-00:00:00, Sunday 00:00:00-00:00:00",,,
Northern Kentucky University Office,1485 ,University Center Bldg Nunn Dr, ,Newport,KY,41099,US,8594426150    ,39.087760925293,-84.4895477294922,"Monday 08:00:00-17:00:00, Tuesday 08:00:00-17:00:00, Wednesday 08:00:00-17:00:00, Thursday 08:00:00-17:00:00, Friday 08:00:00-17:00:00, Saturday 00:00:00-00:00:00, Sunday 00:00:00-00:00:00",,,
6th and Madison Office,0105 ,602 Madison Ave, ,Covington,KY,41011,US,8592926206    ,39.0844775430922,-84.5103295576173,"Monday 08:30:00-17:00:00, Tuesday 08:30:00-17:00:00, Wednesday 08:30:00-17:00:00, Thursday 08:30:00-17:00:00, Friday 08:30:00-17:00:00, Saturday 00:00:00-00:00:00, Sunday 00:00:00-00:00:00",,,
Newport Kroger Office,6896 ,130 Pavilion Pkwy, ,Newport,KY,41071,US,8592612842    ,39.090317,-84.478106,"Monday 09:00:00-19:00:00, Tuesday 09:00:00-19:00:00, Wednesday 09:00:00-19:00:00, Thursday 09:00:00-19:00:00, Friday 09:00:00-19:00:00, Saturday 09:00:00-16:00:00, Sunday 12:00:00-16:00:00",,,
University Office,0011 ,530 E University Ave, ,Cincinnati,OH,45219,US,5134756070    ,39.1331,-84.49853,"Monday 09:00:00-17:00:00, Tuesday 09:00:00-17:00:00, Wednesday 09:00:00-17:00:00, Thursday 09:00:00-17:00:00, Friday 09:00:00-18:00:00, Saturday 09:00:00-13:00:00, Sunday 00:00:00-00:00:00",,,
Cincinnati Children's Hospital Office,5163 ,3244 Burnet Ave Ste BN1.114, ,Cincinnati,OH,45229,US,5132815600    ,39.13916,-84.49998,"Monday 08:00:00-17:00:00, Tuesday 08:00:00-17:00:00, Wednesday 08:00:00-17:00:00, Thursday 08:00:00-17:00:00, Friday 08:00:00-17:00:00, Saturday 00:00:00-00:00:00, Sunday 00:00:00-00:00:00",,,
Clifton OH Office,0012 ,425 Ludlow Ave, ,Cincinnati,OH,45220,US,5134756061    ,39.14393,-84.52355,"Monday 09:00:00-17:00:00, Tuesday 09:00:00-17:00:00, Wednesday 09:00:00-17:00:00, Thursday 09:00:00-17:00:00, Friday 09:00:00-18:00:00, Saturday 09:00:00-13:00:00, Sunday 00:00:00-00:00:00",,,
Xavier University Office,8577 ,3800 Victory Pkwy, ,Cincinnati,OH,45207,US,5137453798    ,39.14771,-84.4781,"Monday 08:00:00-17:00:00, Tuesday 08:00:00-17:00:00, Wednesday 08:00:00-17:00:00, Thursday 08:00:00-17:00:00, Friday 08:00:00-17:00:00, Saturday 00:00:00-00:00:00, Sunday 00:00:00-00:00:00",,,
Fort Thomas Office,9038 ,2 S Fort Thomas Ave, ,Fort Thomas,KY,41075,US,8594422008    ,39.07857,-84.44792,"Monday 09:00:00-17:00:00, Tuesday 09:00:00-17:00:00, Wednesday 09:00:00-17:00:00, Thursday 09:00:00-17:00:00, Friday 09:00:00-18:00:00, Saturday 09:00:00-13:00:00, Sunday 00:00:00-00:00:00",,,
Hyde Park Office,2781 ,3424 Edwards Rd, ,Cincinnati,OH,45208,US,5135337401    ,39.13842,-84.44311,"Monday 09:00:00-17:00:00, Tuesday 09:00:00-17:00:00, Wednesday 09:00:00-17:00:00, Thursday 09:00:00-17:00:00, Friday 09:00:00-18:00:00, Saturday 09:00:00-13:00:00, Sunday 00:00:00-00:00:00",,,
Fort Wright Office,8530 ,2001 Dixie Hwy, ,Ft. Wright,KY,41011,US,8595786030    ,39.054937,-84.547984,"Monday 09:00:00-17:00:00, Tuesday 09:00:00-17:00:00, Wednesday 09:00:00-17:00:00, Thursday 09:00:00-17:00:00, Friday 09:00:00-18:00:00, Saturday 00:00:00-00:00:00, Sunday 00:00:00-00:00:00",,,
Latonia Office,9030 ,3937 Winston Ave, ,Covington,KY,41015,US,8596553410    ,39.0442,-84.50543,"Monday 09:00:00-17:00:00, Tuesday 09:00:00-17:00:00, Wednesday 09:00:00-17:00:00, Thursday 09:00:00-17:00:00, Friday 09:00:00-18:00:00, Saturday 09:00:00-13:00:00, Sunday 00:00:00-00:00:00",,,
Norwood Office,8515 ,4525 Montgomery Rd, ,Cincinnati,OH,45212,US,5134585200    ,39.15946,-84.45727,"Monday 09:00:00-17:00:00, Tuesday 09:00:00-17:00:00, Wednesday 09:00:00-17:00:00, Thursday 09:00:00-17:00:00, Friday 09:00:00-18:00:00, Saturday 09:00:00-13:00:00, Sunday 00:00:00-00:00:00",,,
Elmwood Office,0016 ,5655 Vine St, ,Cincinnati,OH,45216,US,5134827000    ,39.18434,-84.49136,"Monday 09:00:00-17:00:00, Tuesday 09:00:00-17:00:00, Wednesday 09:00:00-17:00:00, Thursday 09:00:00-17:00:00, Friday 09:00:00-17:00:00, Saturday 00:00:00-00:00:00, Sunday 00:00:00-00:00:00",,,
Crescent Springs Office,9033 ,609 Buttermilk Pike, ,Crescent Springs,KY,41017,US,8595786000    ,39.05182,-84.57779,"Monday 09:00:00-17:00:00, Tuesday 09:00:00-17:00:00, Wednesday 09:00:00-17:00:00, Thursday 09:00:00-17:00:00, Friday 09:00:00-18:00:00, Saturday 09:00:00-13:00:00, Sunday 00:00:00-00:00:00",,,
Hyde Park OH Meijer Office,4759 ,4825 Marburg Ave Unit B, ,Cincinnati,OH,45209,US,5133511112    ,39.162187,-84.425661,"Monday 09:00:00-19:00:00, Tuesday 09:00:00-19:00:00, Wednesday 09:00:00-19:00:00, Thursday 09:00:00-19:00:00, Friday 09:00:00-19:00:00, Saturday 09:00:00-16:00:00, Sunday 12:00:00-16:00:00",,,
Delhi OH Remke Office,8004 ,5025 Delhi Ave, ,Cincinnati,OH,45238,US,5133478700    ,39.093796,-84.610323,"Monday 09:00:00-19:00:00, Tuesday 09:00:00-19:00:00, Wednesday 09:00:00-19:00:00, Thursday 09:00:00-19:00:00, Friday 09:00:00-19:00:00, Saturday 09:00:00-16:00:00, Sunday 12:00:00-16:00:00",,,
Fort Mitchell Remke Office,9026 ,2501 Dixie Hwy, ,Ft Mitchell,KY,41017,US,8595786020    ,39.035967,-84.560704,"Monday 09:00:00-19:00:00, Tuesday 09:00:00-19:00:00, Wednesday 09:00:00-19:00:00, Thursday 09:00:00-19:00:00, Friday 09:00:00-19:00:00, Saturday 09:00:00-16:00:00, Sunday 12:00:00-16:00:00",,,
Westwood Cheviot Office,8514 ,3168 Harrison Ave, ,Cincinnati,OH,45211,US,5133894212    ,39.15313,-84.60193,"Monday 09:00:00-17:00:00, Tuesday 09:00:00-17:00:00, Wednesday 09:00:00-17:00:00, Thursday 09:00:00-17:00:00, Friday 09:00:00-18:00:00, Saturday 09:00:00-13:00:00, Sunday 00:00:00-00:00:00",,,
Cold Spring Office,0136 ,3600 Alexandria Pike, ,Cold Spring,KY,41076,US,8594422000    ,39.02844,-84.45061,"Monday 09:00:00-17:00:00, Tuesday 09:00:00-17:00:00, Wednesday 09:00:00-17:00:00, Thursday 09:00:00-17:00:00, Friday 09:00:00-18:00:00, Saturday 09:00:00-13:00:00, Sunday 00:00:00-00:00:00",,,
Taylor Mill Remke Office,9032 ,5018 Old Taylor Mill Rd, ,Covington,KY,41015,US,8596553428    ,39.0172121143294,-84.5078667695704,"Monday 09:00:00-19:00:00, Tuesday 09:00:00-19:00:00, Wednesday 09:00:00-19:00:00, Thursday 09:00:00-19:00:00, Friday 09:00:00-19:00:00, Saturday 09:00:00-16:00:00, Sunday 12:00:00-16:00:00",,,
U.S. Bank St. Paul Center Office,2501 ,101 5th St E, ,Saint Paul,MN,55101,US,6514668330    ,44.94753,-93.09185,"Monday 07:30:00-17:00:00, Tuesday 07:30:00-17:00:00, Wednesday 07:30:00-17:00:00, Thursday 07:30:00-17:00:00, Friday 07:30:00-17:00:00, Saturday 00:00:00-00:00:00, Sunday 00:00:00-00:00:00",,,
West Side Flats Office,6551 ,60 Livingston Ave, ,Saint Paul,MN,55107,US,6512245117    ,44.9338649660362,-93.082405,"Monday 08:00:00-16:00:00, Tuesday 08:00:00-16:00:00, Wednesday 08:00:00-16:00:00, Thursday 08:00:00-16:00:00, Friday 08:00:00-16:00:00, Saturday 00:00:00-00:00:00, Sunday 00:00:00-00:00:00",,,
East St. Paul Office,0213 ,1000 Payne Ave, ,Saint Paul,MN,55130,US,6517782650    ,44.9714,-93.07287,"Monday 09:00:00-18:00:00, Tuesday 09:00:00-18:00:00, Wednesday 09:00:00-18:00:00, Thursday 09:00:00-18:00:00, Friday 09:00:00-18:00:00, Saturday 00:00:00-00:00:00, Sunday 00:00:00-00:00:00",,,
Grand Office,0210 ,1071 Grand Ave, ,Saint Paul,MN,55105,US,6512296123    ,44.9403,-93.14544,"Monday 09:00:00-18:00:00, Tuesday 09:00:00-18:00:00, Wednesday 09:00:00-18:00:00, Thursday 09:00:00-18:00:00, Friday 09:00:00-18:00:00, Saturday 09:00:00-13:00:00, Sunday 00:00:00-00:00:00",,,
West St. Paul Office,0723 ,1493 Robert St S, ,West Saint Paul,MN,55118,US,6515520420    ,44.901269,-93.08128,"Monday 09:00:00-18:00:00, Tuesday 09:00:00-18:00:00, Wednesday 09:00:00-18:00:00, Thursday 09:00:00-18:00:00, Friday 09:00:00-18:00:00, Saturday 09:00:00-13:00:00, Sunday 00:00:00-00:00:00",,,
Battle Creek Office,0237 ,1959 Burns Ave, ,Saint Paul,MN,55119,US,6517317219    ,44.94897,-93.01769,"Monday 09:00:00-18:00:00, Tuesday 09:00:00-18:00:00, Wednesday 09:00:00-18:00:00, Thursday 09:00:00-18:00:00, Friday 09:00:00-18:00:00, Saturday 09:00:00-13:00:00, Sunday 00:00:00-00:00:00",,,
Highland Park Office,0140 ,711 Cleveland Ave S, ,Saint Paul,MN,55116,US,6516956200    ,44.920283,-93.187722,"Monday 09:00:00-18:00:00, Tuesday 09:00:00-18:00:00, Wednesday 09:00:00-18:00:00, Thursday 09:00:00-18:00:00, Friday 09:00:00-18:00:00, Saturday 09:00:00-13:00:00, Sunday 00:00:00-00:00:00",,,
Midway Office,0212 ,2383 University Ave W, ,Saint Paul,MN,55114,US,6516473528    ,44.96421,-93.19713,"Monday 09:00:00-18:00:00, Tuesday 09:00:00-18:00:00, Wednesday 09:00:00-18:00:00, Thursday 09:00:00-18:00:00, Friday 09:00:00-18:00:00, Saturday 00:00:00-00:00:00, Sunday 00:00:00-00:00:00",,,
Little Canada Office,0138 ,2850 Rice St, ,Little Canada,MN,55113,US,6517665660    ,45.02701,-93.10521,"Monday 09:00:00-18:00:00, Tuesday 09:00:00-18:00:00, Wednesday 09:00:00-18:00:00, Thursday 09:00:00-18:00:00, Friday 09:00:00-18:00:00, Saturday 09:00:00-13:00:00, Sunday 00:00:00-00:00:00",,,
Roseville MN Office,4665 ,2690 Snelling Ave N, ,Roseville,MN,55113,US,6516368300    ,45.022,-93.16614,"Monday 09:00:00-18:00:00, Tuesday 09:00:00-18:00:00, Wednesday 09:00:00-18:00:00, Thursday 09:00:00-18:00:00, Friday 09:00:00-18:00:00, Saturday 09:00:00-13:00:00, Sunday 00:00:00-00:00:00",,,
Nokomis Office,2472 ,4930 34th Ave S, ,Minneapolis,MN,55417,US,6122767000    ,44.91321,-93.22328,"Monday 09:00:00-18:00:00, Tuesday 09:00:00-18:00:00, Wednesday 09:00:00-18:00:00, Thursday 09:00:00-18:00:00, Friday 09:00:00-18:00:00, Saturday 09:00:00-13:00:00, Sunday 00:00:00-00:00:00",,,
Roseville Lunds & Byerlys Office,0640 ,1601 County Road C W, ,Roseville,MN,55113,US,6516391620    ,45.022896,-93.170136,"Monday 10:00:00-19:00:00, Tuesday 10:00:00-19:00:00, Wednesday 10:00:00-19:00:00, Thursday 10:00:00-19:00:00, Friday 10:00:00-19:00:00, Saturday 10:00:00-17:00:00, Sunday 11:00:00-15:00:00",,,
Lake Street Mpls Office,0112 ,2800 E Lake St, ,Minneapolis,MN,55406,US,6127288300    ,44.94893,-93.23077,"Monday 09:00:00-18:00:00, Tuesday 09:00:00-18:00:00, Wednesday 09:00:00-18:00:00, Thursday 09:00:00-18:00:00, Friday 09:00:00-18:00:00, Saturday 09:00:00-13:00:00, Sunday 00:00:00-00:00:00",,,
Woodbury Lunds & Byerlys Office,6856 ,7050 Valley Creek PLZ, ,Woodbury,MN,55125,US,6516053500    ,44.9261978462448,-92.9633808629651,"Monday 10:00:00-19:00:00, Tuesday 10:00:00-19:00:00, Wednesday 10:00:00-19:00:00, Thursday 10:00:00-19:00:00, Friday 10:00:00-19:00:00, Saturday 10:00:00-17:00:00, Sunday 11:00:00-15:00:00",,,
Maplewood Office,4664 ,1760 Beam Ave, ,Maplewood,MN,55109,US,6517472000    ,45.02732,-93.02724,"Monday 09:00:00-18:00:00, Tuesday 09:00:00-18:00:00, Wednesday 09:00:00-18:00:00, Thursday 09:00:00-18:00:00, Friday 09:00:00-18:00:00, Saturday 09:00:00-13:00:00, Sunday 00:00:00-00:00:00",,,
University MN Office,0721 ,718 Washington Ave SE, ,Minneapolis,MN,55414,US,6123787181    ,44.97322,-93.22758,"Monday 09:00:00-18:00:00, Tuesday 09:00:00-18:00:00, Wednesday 09:00:00-18:00:00, Thursday 09:00:00-18:00:00, Friday 09:00:00-18:00:00, Saturday 09:00:00-13:00:00, Sunday 00:00:00-00:00:00",,,
Oakdale MN Office,4072 ,7620 10th St N, ,Saint Paul,MN,55128,US,6517357847    ,44.963924,-92.951106,"Monday 09:00:00-18:00:00, Tuesday 09:00:00-18:00:00, Wednesday 09:00:00-18:00:00, Thursday 09:00:00-18:00:00, Friday 09:00:00-18:00:00, Saturday 09:00:00-13:00:00, Sunday 00:00:00-00:00:00",,,
Dinkytown Office,0743 ,401 14th Ave SE, ,Minneapolis,MN,55414,US,6123315445    ,44.98082,-93.23581,"Monday 09:00:00-17:00:00, Tuesday 09:00:00-17:00:00, Wednesday 09:00:00-17:00:00, Thursday 09:00:00-17:00:00, Friday 09:00:00-17:00:00, Saturday 09:00:00-13:00:00, Sunday 00:00:00-00:00:00",,,
University of Minnesota-West Bank Skyway Office,6788 ,219 19th Ave S Ste 140, ,Minneapolis,MN,55455,US,6123784490    ,44.97339,-93.24406,"Monday 09:00:00-17:00:00, Tuesday 09:00:00-17:00:00, Wednesday 09:00:00-17:00:00, Thursday 09:00:00-17:00:00, Friday 09:00:00-16:00:00, Saturday 00:00:00-00:00:00, Sunday 00:00:00-00:00:00",,,
Thomson Reuters Office,6701 ,610 Opperman Dr, ,Eagan,MN,55123,US,6514521051    ,44.829651,-93.117565,"Monday 07:00:00-16:00:00, Tuesday 07:00:00-16:00:00, Wednesday 07:00:00-16:00:00, Thursday 07:00:00-16:00:00, Friday 07:00:00-16:00:00, Saturday 00:00:00-00:00:00, Sunday 00:00:00-00:00:00",,,
South Minneapolis Office,0110 ,919 E Lake St, ,Minneapolis,MN,55407,US,6128216221    ,44.94801,-93.26076,"Monday 09:00:00-18:00:00, Tuesday 09:00:00-18:00:00, Wednesday 09:00:00-18:00:00, Thursday 09:00:00-18:00:00, Friday 09:00:00-18:00:00, Saturday 09:00:00-13:00:00, Sunday 00:00:00-00:00:00",,,
Eagan North Lunds & Byerlys Office,0121 ,1299 Promenade Pl, ,Eagan,MN,55121,US,6514528070    ,44.8349849663824,-93.1590766021417,"Monday 10:00:00-19:00:00, Tuesday 10:00:00-19:00:00, Wednesday 10:00:00-19:00:00, Thursday 10:00:00-19:00:00, Friday 10:00:00-19:00:00, Saturday 10:00:00-17:00:00, Sunday 11:00:00-15:00:00",,,
Woodbury Office,0465 ,8575 Valley Creek Rd, ,Woodbury,MN,55125,US,6512640200    ,44.91941,-92.93205,"Monday 09:00:00-18:00:00, Tuesday 09:00:00-18:00:00, Wednesday 09:00:00-18:00:00, Thursday 09:00:00-18:00:00, Friday 09:00:00-18:00:00, Saturday 09:00:00-13:00:00, Sunday 00:00:00-00:00:00",,,
Hennepin County Medical Center Office,6616 ,701 Park Ave, ,Minneapolis,MN,55415,US,6123333130    ,44.97209,-93.2624,"Monday 08:00:00-17:00:00, Tuesday 08:00:00-17:00:00, Wednesday 08:00:00-17:00:00, Thursday 08:00:00-17:00:00, Friday 08:00:00-17:00:00, Saturday 00:00:00-00:00:00, Sunday 00:00:00-00:00:00",,,
St. Anthony Falls Office,0102 ,30 4th Street NE, ,Minneapolis,MN,55414,US,6123787101    ,44.9887038654955,-93.2552116972796,"Monday 09:00:00-18:00:00, Tuesday 09:00:00-18:00:00, Wednesday 09:00:00-18:00:00, Thursday 09:00:00-18:00:00, Friday 09:00:00-18:00:00, Saturday 09:00:00-13:00:00, Sunday 00:00:00-00:00:00",,,
Oak Harbor Office,0681 ,215 W Water St, ,Oak Harbor,OH,43449,US,4198982411    ,41.50745,-83.14771,"Monday 09:00:00-17:00:00, Tuesday 09:00:00-17:00:00, Wednesday 09:00:00-17:00:00, Thursday 09:00:00-17:00:00, Friday 09:00:00-17:00:00, Saturday 09:00:00-12:00:00, Sunday 00:00:00-00:00:00",,,
Potter Village Office,0684 ,1214 Oak Harbor Rd, ,Fremont,OH,43420,US,4193345373    ,41.36,-83.13717,"Monday 08:30:00-16:30:00, Tuesday 08:30:00-16:30:00, Wednesday 08:30:00-16:30:00, Thursday 08:30:00-16:30:00, Friday 08:30:00-17:00:00, Saturday 08:30:00-12:00:00, Sunday 00:00:00-00:00:00",,,
Fremont Downtown Office,0673 ,400 W State St, ,Fremont,OH,43420,US,4193345325    ,41.34808,-83.11435,"Monday 09:00:00-17:00:00, Tuesday 09:00:00-16:00:00, Wednesday 09:00:00-16:00:00, Thursday 09:00:00-16:00:00, Friday 09:00:00-17:00:00, Saturday 09:00:00-12:00:00, Sunday 00:00:00-00:00:00",,,
Port Clinton Office,0683 ,142 E 2nd St, ,Port Clinton,OH,43452,US,4197342145    ,41.51172,-82.93955,"Monday 09:00:00-17:00:00, Tuesday 09:00:00-17:00:00, Wednesday 09:00:00-17:00:00, Thursday 09:00:00-17:00:00, Friday 09:00:00-17:00:00, Saturday 09:00:00-12:00:00, Sunday 00:00:00-00:00:00",,,
Tiffin West Office,9277 ,730 W Market St, ,Tiffin,OH,44883,US,4194477133    ,41.11165,-83.20663,"Monday 09:00:00-17:00:00, Tuesday 09:00:00-17:00:00, Wednesday 09:00:00-17:00:00, Thursday 09:00:00-17:00:00, Friday 09:00:00-17:00:00, Saturday 09:00:00-12:00:00, Sunday 00:00:00-00:00:00",,,
Sandusky Perkins Office,0685 ,205 W Perkins Ave, ,Sandusky,OH,44870,US,4196278272    ,41.43316,-82.70044,"Monday 09:00:00-17:00:00, Tuesday 09:00:00-17:00:00, Wednesday 09:00:00-17:00:00, Thursday 09:00:00-17:00:00, Friday 09:00:00-17:00:00, Saturday 09:00:00-12:00:00, Sunday 00:00:00-00:00:00",,,
Ada Office,9199 ,528 S Main St, ,Ada,OH,45810,US,4196347045    ,40.765962,-83.822764,"Monday 09:00:00-16:30:00, Tuesday 09:00:00-16:30:00, Wednesday 09:00:00-16:30:00, Thursday 09:00:00-16:30:00, Friday 09:00:00-17:00:00, Saturday 09:00:00-12:00:00, Sunday 00:00:00-00:00:00",,,
Delphos Office,0526 ,901 Elida Ave, ,Delphos,OH,45833,US,4196921171    ,40.843621,-84.329319,"Monday 09:00:00-17:00:00, Tuesday 09:00:00-17:00:00, Wednesday 09:00:00-17:00:00, Thursday 09:00:00-17:00:00, Friday 09:00:00-17:00:00, Saturday 09:00:00-12:00:00, Sunday 00:00:00-00:00:00",,,
Kenton Office,2612 ,111 E Columbus St, ,Kenton,OH,43326,US,4196731201    ,40.64842,-83.60763,"Monday 09:00:00-16:00:00, Tuesday 09:00:00-16:00:00, Wednesday 09:00:00-16:00:00, Thursday 09:00:00-16:00:00, Friday 09:00:00-17:00:00, Saturday 09:00:00-12:00:00, Sunday 00:00:00-00:00:00",,,
Shelby OH Office,0646 ,85 W Main St, ,Shelby,OH,44875,US,4193472111    ,40.88164,-82.663,"Monday 09:00:00-16:00:00, Tuesday 09:00:00-16:00:00, Wednesday 09:00:00-16:00:00, Thursday 09:00:00-16:00:00, Friday 09:00:00-18:00:00, Saturday 09:00:00-12:00:00, Sunday 00:00:00-00:00:00",,,
Lorain Super Walmart Office,6746 ,4380 Leavitt Rd, ,Lorain,OH,44053,US,4402822295    ,41.43018,-82.20806,"Monday 09:00:00-19:00:00, Tuesday 09:00:00-19:00:00, Wednesday 09:00:00-19:00:00, Thursday 09:00:00-19:00:00, Friday 09:00:00-19:00:00, Saturday 09:00:00-16:00:00, Sunday 12:00:00-16:00:00",,,
Galion Office,9262 ,1 Public Sq, ,Galion,OH,44833,US,4194681115    ,40.73349,-82.78934,"Monday 09:00:00-17:00:00, Tuesday 09:00:00-17:00:00, Wednesday 09:00:00-17:00:00, Thursday 09:00:00-17:00:00, Friday 09:00:00-17:30:00, Saturday 09:00:00-12:00:00, Sunday 00:00:00-00:00:00",,,
Elyria Office,0459 ,455 Midway Blvd, ,Elyria,OH,44035,US,4403245500    ,41.39893,-82.11268,"Monday 09:00:00-16:00:00, Tuesday 09:00:00-16:00:00, Wednesday 09:00:00-16:00:00, Thursday 09:00:00-16:00:00, Friday 09:00:00-18:00:00, Saturday 09:00:00-13:00:00, Sunday 00:00:00-00:00:00",,,
Van Wert Office,9216 ,818 S Shannon St, ,Van Wert,OH,45891,US,4192386522    ,40.86221,-84.59296,"Monday 09:00:00-17:00:00, Tuesday 09:00:00-17:00:00, Wednesday 09:00:00-17:00:00, Thursday 09:00:00-17:00:00, Friday 09:00:00-17:00:00, Saturday 09:00:00-12:00:00, Sunday 00:00:00-00:00:00",,,
Spencerville Office,9203 ,203 S Broadway St, ,Spencerville,OH,45887,US,4196474121    ,40.70609,-84.35444,"Monday 09:00:00-17:00:00, Tuesday 09:00:00-17:00:00, Wednesday 09:00:00-17:00:00, Thursday 09:00:00-17:00:00, Friday 09:00:00-17:00:00, Saturday 09:00:00-12:00:00, Sunday 00:00:00-00:00:00",,,
Convoy Office,0525 ,112 118 S Main St, ,Convoy,OH,45832,US,4197492124    ,40.9164,-84.70718,"Monday 09:00:00-17:00:00, Tuesday 09:00:00-17:00:00, Wednesday 09:00:00-17:00:00, Thursday 09:00:00-17:00:00, Friday 09:00:00-17:00:00, Saturday 09:00:00-12:00:00, Sunday 00:00:00-00:00:00",,,
Avon Heinen's Office,6610 ,35980 Detroit Rd, ,Avon,OH,44011,US,4409370922    ,41.46039,-82.01749,"Monday 09:00:00-19:00:00, Tuesday 09:00:00-19:00:00, Wednesday 09:00:00-19:00:00, Thursday 09:00:00-19:00:00, Friday 09:00:00-19:00:00, Saturday 09:00:00-16:00:00, Sunday 12:00:00-16:00:00",,,
Avon Lake Office,9153 ,32730 Walker Rd Ste C1, ,Avon Lake,OH,44012,US,4409334575    ,41.491052,-81.971662,"Monday 09:00:00-16:00:00, Tuesday 09:00:00-16:00:00, Wednesday 09:00:00-16:00:00, Thursday 09:00:00-16:00:00, Friday 09:00:00-18:00:00, Saturday 09:00:00-13:00:00, Sunday 00:00:00-00:00:00",,,
Westlake Promenade Office,9194 ,29979 Detroit Rd, ,Westlake,OH,44145,US,4408920440    ,41.46306,-81.95205,"Monday 09:00:00-17:00:00, Tuesday 09:00:00-17:00:00, Wednesday 09:00:00-17:00:00, Thursday 09:00:00-17:00:00, Friday 09:00:00-18:00:00, Saturday 09:00:00-13:00:00, Sunday 00:00:00-00:00:00",,,
North Olmsted Office,9976 ,25900 Country Club Blvd, ,North Olmsted,OH,44070,US,4407773434    ,41.414326,-81.90878,"Monday 09:00:00-16:00:00, Tuesday 09:00:00-16:00:00, Wednesday 09:00:00-16:00:00, Thursday 09:00:00-16:00:00, Friday 09:00:00-18:00:00, Saturday 09:00:00-13:00:00, Sunday 00:00:00-00:00:00",,,
North Olmsted Walmart Office,6636 ,24801 Brookpark Rd, ,North Olmsted,OH,44070,US,4407160951    ,41.41769,-81.8975,"Monday 09:00:00-19:00:00, Tuesday 09:00:00-19:00:00, Wednesday 09:00:00-19:00:00, Thursday 09:00:00-19:00:00, Friday 09:00:00-19:00:00, Saturday 09:00:00-16:00:00, Sunday 12:00:00-16:00:00",,,
Lucas Office,0644 ,8 E Main St, ,Lucas,OH,44843,US,4198922441    ,40.70356,-82.4184,"Monday 09:00:00-16:00:00, Tuesday 09:00:00-16:00:00, Wednesday 09:00:00-12:30:00, Thursday 09:00:00-16:00:00, Friday 09:00:00-18:00:00, Saturday 09:00:00-12:00:00, Sunday 00:00:00-00:00:00",,,
Jackson Center Office,8567 ,201 E Pike St, ,Jackson Center,OH,45334,US,9375966139    ,40.43945,-84.03884,"Monday 09:00:00-17:00:00, Tuesday 09:00:00-17:00:00, Wednesday 09:00:00-17:00:00, Thursday 09:00:00-17:00:00, Friday 09:00:00-17:00:00, Saturday 09:00:00-12:00:00, Sunday 00:00:00-00:00:00",,,
Rocky River Office,4442 ,19825 Detroit Rd, ,Rocky River,OH,44116,US,4403313500    ,41.47929,-81.84096,"Monday 09:00:00-16:00:00, Tuesday 09:00:00-16:00:00, Wednesday 09:00:00-16:00:00, Thursday 09:00:00-16:00:00, Friday 09:00:00-18:00:00, Saturday 09:00:00-13:00:00, Sunday 00:00:00-00:00:00",,,
Botkins Office,0516 ,108 S Mill St, ,Botkins,OH,45306,US,9376932021    ,40.46703,-84.18282,"Monday 09:00:00-17:00:00, Tuesday 09:00:00-17:00:00, Wednesday 09:00:00-17:00:00, Thursday 09:00:00-17:00:00, Friday 09:00:00-17:00:00, Saturday 09:00:00-12:00:00, Sunday 00:00:00-00:00:00",,,
Minster Office,9201 ,30 S Main St, ,Minster,OH,45865,US,4196282387    ,40.39208,-84.37624,"Monday 09:00:00-17:00:00, Tuesday 09:00:00-17:00:00, Wednesday 09:00:00-17:00:00, Thursday 09:00:00-17:00:00, Friday 09:00:00-18:00:00, Saturday 09:00:00-12:00:00, Sunday 00:00:00-00:00:00",,,
Fort Loramie Office,9198 ,26 S Main St, ,Fort Loramie,OH,45845,US,9372952911    ,40.3484,-84.37595,"Monday 09:00:00-17:00:00, Tuesday 09:00:00-17:00:00, Wednesday 09:00:00-17:00:00, Thursday 09:00:00-17:00:00, Friday 09:00:00-18:00:00, Saturday 09:00:00-12:00:00, Sunday 00:00:00-00:00:00",,,
Versailles OH Office,9220 ,1231 E Main St, ,Versailles,OH,45380,US,9375264611    ,40.22363,-84.46639,"Monday 09:00:00-17:00:00, Tuesday 09:00:00-17:00:00, Wednesday 09:00:00-17:00:00, Thursday 09:00:00-17:00:00, Friday 09:00:00-18:00:00, Saturday 09:00:00-12:00:00, Sunday 00:00:00-00:00:00",,,
Anna Office,9197 ,312 W Main St, ,Anna,OH,45302,US,9373944411    ,40.39538,-84.17765,"Monday 09:00:00-17:00:00, Tuesday 09:00:00-17:00:00, Wednesday 09:00:00-17:00:00, Thursday 09:00:00-17:00:00, Friday 09:00:00-17:00:00, Saturday 09:00:00-12:00:00, Sunday 00:00:00-00:00:00",,,
Russia Office,9202 ,207 W Main St, ,Russia,OH,45363,US,9375263214    ,40.23403,-84.40993,"Monday 09:00:00-17:00:00, Tuesday 09:00:00-17:00:00, Wednesday 09:00:00-17:00:00, Thursday 09:00:00-17:00:00, Friday 09:00:00-18:00:00, Saturday 09:00:00-12:00:00, Sunday 00:00:00-00:00:00",,,
Lynn Office,0265 ,104 N Main St, ,Lynn,IN,47355,US,7658741531    ,40.04876,-84.94013,"Monday 09:00:00-16:00:00, Tuesday 09:00:00-16:00:00, Wednesday 09:00:00-16:00:00, Thursday 09:00:00-16:00:00, Friday 09:00:00-18:00:00, Saturday 09:00:00-12:00:00, Sunday 00:00:00-00:00:00",,,
Vandemark Road Office,0512 ,111 N Vandemark Rd, ,Sidney,OH,45365,US,9374987150    ,40.28858,-84.18839,"Monday 09:00:00-17:00:00, Tuesday 09:00:00-17:00:00, Wednesday 09:00:00-17:00:00, Thursday 09:00:00-17:00:00, Friday 09:00:00-18:00:00, Saturday 09:00:00-12:00:00, Sunday 00:00:00-00:00:00",,,
Northtown Office,0513 ,1222 Wapakoneta Ave, ,Sidney,OH,45365,US,9374987160    ,40.29961,-84.15795,"Monday 09:00:00-17:00:00, Tuesday 09:00:00-17:00:00, Wednesday 09:00:00-17:00:00, Thursday 09:00:00-17:00:00, Friday 09:00:00-18:00:00, Saturday 09:00:00-12:00:00, Sunday 00:00:00-00:00:00",,,
Downtown Sidney Office,0511 ,115 E Court St, ,Sidney,OH,45365,US,9374981131    ,40.28427,-84.15592,"Monday 09:00:00-17:00:00, Tuesday 09:00:00-17:00:00, Wednesday 09:00:00-17:00:00, Thursday 09:00:00-17:00:00, Friday 09:00:00-18:00:00, Saturday 09:00:00-12:00:00, Sunday 00:00:00-00:00:00",,,
Piqua Office,9222 ,200 N College St, ,Piqua,OH,45356,US,9377782590    ,40.14752,-84.24928,"Monday 09:00:00-17:00:00, Tuesday 09:00:00-17:00:00, Wednesday 09:00:00-17:00:00, Thursday 09:00:00-17:00:00, Friday 09:00:00-18:00:00, Saturday 09:00:00-12:00:00, Sunday 00:00:00-00:00:00",,,
Hagerstown Office,0263 ,120 W Main St, ,Hagerstown,IN,47346,US,7654896183    ,39.91113,-85.16309,"Monday 09:00:00-16:00:00, Tuesday 09:00:00-16:00:00, Wednesday 09:00:00-16:00:00, Thursday 09:00:00-16:00:00, Friday 09:00:00-18:00:00, Saturday 09:00:00-12:00:00, Sunday 00:00:00-00:00:00",,,
University of Indiana Office,9993 ,2330 Chester Blvd, ,Richmond,IN,47374,US,7659652272    ,39.8676,-84.88976,"Monday 09:00:00-16:00:00, Tuesday 09:00:00-16:00:00, Wednesday 09:00:00-16:00:00, Thursday 09:00:00-17:00:00, Friday 09:00:00-17:00:00, Saturday 09:00:00-12:00:00, Sunday 00:00:00-00:00:00",,,
West Main Troy Office,0551 ,910 W Main St, ,Troy,OH,45373,US,9373358351    ,40.04367,-84.21347,"Monday 09:00:00-17:00:00, Tuesday 09:00:00-17:00:00, Wednesday 09:00:00-17:00:00, Thursday 09:00:00-17:00:00, Friday 09:00:00-18:00:00, Saturday 09:00:00-12:00:00, Sunday 00:00:00-00:00:00",,,
Sherwood OH Office,2331 ,959 N Market St, ,Troy,OH,45373,US,9373392329    ,40.05037,-84.19287,"Monday 09:00:00-17:00:00, Tuesday 09:00:00-17:00:00, Wednesday 09:00:00-17:00:00, Thursday 09:00:00-17:00:00, Friday 09:00:00-18:00:00, Saturday 09:00:00-12:00:00, Sunday 00:00:00-00:00:00",,,
South Market Office,9217 ,8 S Market St, ,Troy,OH,45373,US,9373392234    ,40.03914,-84.20388,"Monday 09:00:00-16:30:00, Tuesday 09:00:00-16:30:00, Wednesday 09:00:00-16:30:00, Thursday 09:00:00-16:30:00, Friday 09:00:00-17:00:00, Saturday 00:00:00-00:00:00, Sunday 00:00:00-00:00:00",,,
Richmond Main Office,0223 ,800 E Main St, ,Richmond,IN,47374,US,7659652000    ,39.82935,-84.89134,"Monday 09:00:00-16:00:00, Tuesday 09:00:00-16:00:00, Wednesday 09:00:00-16:00:00, Thursday 09:00:00-17:00:00, Friday 09:00:00-17:00:00, Saturday 00:00:00-00:00:00, Sunday 00:00:00-00:00:00",,,
Promenade Office,9077 ,531 E Main St, ,Richmond,IN,47374,US,7659652206    ,39.82874,-84.89464,"Monday 09:00:00-17:00:00, Tuesday 09:00:00-17:00:00, Wednesday 09:00:00-17:00:00, Thursday 09:00:00-17:00:00, Friday 09:00:00-18:00:00, Saturday 09:00:00-12:00:00, Sunday 00:00:00-00:00:00",,,
Irvine CA Office,1985 ,4180 Barranca Pkwy, ,Irvine,CA,92604,US,9495590707    ,33.6818747492494,-117.805271302924,"Monday 09:00:00-17:00:00, Tuesday 09:00:00-17:00:00, Wednesday 09:00:00-17:00:00, Thursday 09:00:00-17:00:00, Friday 09:00:00-18:00:00, Saturday 09:00:00-13:00:00, Sunday 00:00:00-00:00:00",,,
Michelson CA Office,5888 ,3121 Michelson Dr, ,Irvine,CA,92612,US,9497984200    ,33.674348,-117.844536,"Monday 09:00:00-17:00:00, Tuesday 09:00:00-17:00:00, Wednesday 09:00:00-17:00:00, Thursday 09:00:00-17:00:00, Friday 09:00:00-18:00:00, Saturday 00:00:00-00:00:00, Sunday 00:00:00-00:00:00",,,
Woodbridge Ralphs Office,6732 ,5345 Alton Pkwy, ,Irvine,CA,92604,US,9496530189    ,33.6707726808909,-117.789912167018,"Monday 10:00:00-19:00:00, Tuesday 10:00:00-19:00:00, Wednesday 10:00:00-19:00:00, Thursday 10:00:00-19:00:00, Friday 10:00:00-19:00:00, Saturday 10:00:00-17:00:00, Sunday 10:00:00-14:00:00",,,
Newport Beach Office,4634 ,4100 Newport Place Dr Ste 100, ,Newport Beach,CA,92660,US,9498632499    ,33.66324,-117.86523,"Monday 09:00:00-17:00:00, Tuesday 09:00:00-17:00:00, Wednesday 09:00:00-17:00:00, Thursday 09:00:00-17:00:00, Friday 09:00:00-18:00:00, Saturday 00:00:00-00:00:00, Sunday 00:00:00-00:00:00",,,
South Coast CA Office,5239 ,3200 Bristol St, ,Costa Mesa,CA,92626,US,7145569270    ,33.68936,-117.88457,"Monday 09:00:00-17:00:00, Tuesday 09:00:00-17:00:00, Wednesday 09:00:00-17:00:00, Thursday 09:00:00-17:00:00, Friday 09:00:00-18:00:00, Saturday 00:00:00-00:00:00, Sunday 00:00:00-00:00:00",,,
Irvine CA Albertsons Office,5983 ,14201 Jeffrey Rd, ,Irvine,CA,92620,US,9495597700    ,33.694332886452,-117.764207421221,"Monday 10:00:00-19:00:00, Tuesday 10:00:00-19:00:00, Wednesday 10:00:00-19:00:00, Thursday 10:00:00-19:00:00, Friday 10:00:00-19:00:00, Saturday 10:00:00-17:00:00, Sunday 10:00:00-14:00:00",,,
Tustin-Newport Ave CA Office,7251 ,13471 Newport Ave, ,Tustin,CA,92780,US,7143687980    ,33.74411,-117.81654,"Monday 09:00:00-17:00:00, Tuesday 09:00:00-17:00:00, Wednesday 09:00:00-17:00:00, Thursday 09:00:00-17:00:00, Friday 09:00:00-18:00:00, Saturday 09:00:00-13:00:00, Sunday 00:00:00-00:00:00",,,
Irvine Yale Ave CA Office,5245 ,13070 Yale Ave, ,Irvine,CA,92620,US,7147301045    ,33.71345,-117.7614,"Monday 09:00:00-17:00:00, Tuesday 09:00:00-17:00:00, Wednesday 09:00:00-17:00:00, Thursday 09:00:00-17:00:00, Friday 09:00:00-18:00:00, Saturday 09:00:00-13:00:00, Sunday 00:00:00-00:00:00",,,
Newport Coast Drive Pavilions Office,3551 ,21181 Newport Coast Dr, ,Newport Coast,CA,92657,US,9497196060    ,33.60708,-117.82772,"Monday 10:00:00-19:00:00, Tuesday 10:00:00-19:00:00, Wednesday 10:00:00-19:00:00, Thursday 10:00:00-19:00:00, Friday 10:00:00-19:00:00, Saturday 10:00:00-17:00:00, Sunday 10:00:00-14:00:00",,,
Costa Mesa CA Albertsons Office,5932 ,2300 Harbor Blvd, ,Costa Mesa,CA,92626,US,9495741400    ,33.65658,-117.91859,"Monday 10:00:00-19:00:00, Tuesday 10:00:00-19:00:00, Wednesday 10:00:00-19:00:00, Thursday 10:00:00-19:00:00, Friday 10:00:00-19:00:00, Saturday 10:00:00-17:00:00, Sunday 10:00:00-14:00:00",,,
Newport Beach-Westcliff Dr CA Office,7208 ,1515 Westcliff Dr, ,Newport Beach,CA,92660,US,9495151200    ,33.62542,-117.90517,"Monday 09:00:00-17:00:00, Tuesday 09:00:00-17:00:00, Wednesday 09:00:00-17:00:00, Thursday 09:00:00-17:00:00, Friday 09:00:00-18:00:00, Saturday 09:00:00-13:00:00, Sunday 00:00:00-00:00:00",,,
Costa Mesa 17th St CA Office,5218 ,360 E 17th St, ,Costa Mesa,CA,92627,US,9496427422    ,33.632,-117.91323,"Monday 09:00:00-17:00:00, Tuesday 09:00:00-17:00:00, Wednesday 09:00:00-17:00:00, Thursday 09:00:00-17:00:00, Friday 09:00:00-18:00:00, Saturday 09:00:00-13:00:00, Sunday 00:00:00-00:00:00",,,
Huntington Beach Brookhurst CA Office,5222 ,20052 Brookhurst St, ,Huntington Beach,CA,92646,US,7149622407    ,33.67149,-117.9532,"Monday 09:00:00-17:00:00, Tuesday 09:00:00-17:00:00, Wednesday 09:00:00-17:00:00, Thursday 09:00:00-17:00:00, Friday 09:00:00-18:00:00, Saturday 09:00:00-13:00:00, Sunday 00:00:00-00:00:00",,,
Lake Forest Office,4633 ,22831 Lake Forest Dr Ste 105, ,Lake Forest,CA,92630,US,9497682471    ,33.63103,-117.71504,"Monday 09:00:00-17:00:00, Tuesday 09:00:00-17:00:00, Wednesday 09:00:00-17:00:00, Thursday 09:00:00-17:00:00, Friday 09:00:00-18:00:00, Saturday 09:00:00-13:00:00, Sunday 00:00:00-00:00:00",,,
Laguna Woods CA Office,5891 ,24340 El Toro Rd, ,Laguna Woods,CA,92637,US,9494576232    ,33.60871,-117.7302,"Monday 09:00:00-17:00:00, Tuesday 09:00:00-17:00:00, Wednesday 09:00:00-17:00:00, Thursday 09:00:00-17:00:00, Friday 09:00:00-18:00:00, Saturday 09:00:00-13:00:00, Sunday 00:00:00-00:00:00",,,
Chapman Ave Albertsons Office,6709 ,8440 E Chapman Ave, ,Orange,CA,92869,US,7146333659    ,33.791844,-117.763253,"Monday 10:00:00-19:00:00, Tuesday 10:00:00-19:00:00, Wednesday 10:00:00-19:00:00, Thursday 10:00:00-19:00:00, Friday 10:00:00-19:00:00, Saturday 10:00:00-17:00:00, Sunday 10:00:00-14:00:00",,,
Huntington Beach Office,4630 ,9042 Garfield Ave, ,Huntington Beach,CA,92646,US,7149639802    ,33.68628,-117.97045,"Monday 09:00:00-17:00:00, Tuesday 09:00:00-17:00:00, Wednesday 09:00:00-17:00:00, Thursday 09:00:00-17:00:00, Friday 09:00:00-18:00:00, Saturday 00:00:00-00:00:00, Sunday 00:00:00-00:00:00",,,
Lake Forest & Trabuco CA Office,5894 ,21781 Lake Forest Dr, ,Lake Forest,CA,92630,US,9497701666    ,33.64638,-117.68826,"Monday 09:00:00-17:00:00, Tuesday 09:00:00-17:00:00, Wednesday 09:00:00-17:00:00, Thursday 09:00:00-17:00:00, Friday 09:00:00-18:00:00, Saturday 09:00:00-13:00:00, Sunday 00:00:00-00:00:00",,,
El Toro & Rockfield Ralphs Office,6883 ,23716 El Toro Rd, ,Lake Forest,CA,92630,US,9492061059    ,33.61816,-117.70315,"Monday 10:00:00-19:00:00, Tuesday 10:00:00-19:00:00, Wednesday 10:00:00-19:00:00, Thursday 10:00:00-19:00:00, Friday 10:00:00-19:00:00, Saturday 10:00:00-17:00:00, Sunday 10:00:00-14:00:00",,,
Burbank Alameda CA Ralphs Office,5917 ,25 E Alameda Ave, ,Burbank,CA,91502,US,8185635965    ,34.174039167804,-118.30032379286,"Monday 10:00:00-19:00:00, Tuesday 10:00:00-19:00:00, Wednesday 10:00:00-19:00:00, Thursday 10:00:00-19:00:00, Friday 10:00:00-19:00:00, Saturday 10:00:00-17:00:00, Sunday 10:00:00-14:00:00",,,
Burbank-San Fernando Blvd CA Office,7237 ,240 N San Fernando Blvd, ,Burbank,CA,91502,US,8188232961    ,34.1820539185518,-118.310239314644,"Monday 09:00:00-17:00:00, Tuesday 09:00:00-17:00:00, Wednesday 09:00:00-17:00:00, Thursday 09:00:00-17:00:00, Friday 09:00:00-18:00:00, Saturday 09:00:00-13:00:00, Sunday 00:00:00-00:00:00",,,
Burbank Olive CA Office,5273 ,1750 W Olive Ave, ,Burbank,CA,91506,US,8185621044    ,34.16645,-118.32338,"Monday 09:00:00-17:00:00, Tuesday 09:00:00-17:00:00, Wednesday 09:00:00-17:00:00, Thursday 09:00:00-17:00:00, Friday 09:00:00-18:00:00, Saturday 09:00:00-13:00:00, Sunday 00:00:00-00:00:00",,,
La Crescenta CA Office,7216 ,2649 Foothill Blvd, ,La Crescenta,CA,91214,US,8182364500    ,34.2218839061126,-118.236182408215,"Monday 09:00:00-17:00:00, Tuesday 09:00:00-17:00:00, Wednesday 09:00:00-17:00:00, Thursday 09:00:00-17:00:00, Friday 09:00:00-18:00:00, Saturday 00:00:00-00:00:00, Sunday 00:00:00-00:00:00",,,
Burbank Victory CA Ralphs Office,5916 ,2600 W Victory Blvd, ,Burbank,CA,91505,US,8185695750    ,34.18366,-118.33954,"Monday 10:00:00-19:00:00, Tuesday 10:00:00-19:00:00, Wednesday 10:00:00-19:00:00, Thursday 10:00:00-19:00:00, Friday 10:00:00-19:00:00, Saturday 10:00:00-17:00:00, Sunday 10:00:00-14:00:00",,,
La Crescenta Vons Office,3590 ,3233 Foothill Blvd, ,La Crescenta,CA,91214,US,8182363900    ,34.230959,-118.249781,"Monday 10:00:00-19:00:00, Tuesday 10:00:00-19:00:00, Wednesday 10:00:00-19:00:00, Thursday 10:00:00-19:00:00, Friday 10:00:00-19:00:00, Saturday 10:00:00-17:00:00, Sunday 10:00:00-14:00:00",,,
Toluca Lake CA Office,7192 ,10100 Riverside Dr, ,Toluca Lake,CA,91602,US,8185056700    ,34.151897,-118.350949,"Monday 09:00:00-17:00:00, Tuesday 09:00:00-17:00:00, Wednesday 09:00:00-17:00:00, Thursday 09:00:00-17:00:00, Friday 09:00:00-18:00:00, Saturday 09:00:00-13:00:00, Sunday 00:00:00-00:00:00",,,
Pasadena CA Office,8292 ,720 E Colorado Blvd, ,Pasadena,CA,91101,US,6263974924    ,34.1458450342364,-118.13541657092,"Monday 09:00:00-17:00:00, Tuesday 09:00:00-17:00:00, Wednesday 09:00:00-17:00:00, Thursday 09:00:00-17:00:00, Friday 09:00:00-18:00:00, Saturday 09:00:00-13:00:00, Sunday 00:00:00-00:00:00",,,
Reno Main Office,3751 ,300 S Virginia St, ,Reno,NV,89501,US,7756886603    ,39.52234,-119.81098,"Monday 09:00:00-17:30:00, Tuesday 09:00:00-17:30:00, Wednesday 09:00:00-17:30:00, Thursday 09:00:00-17:30:00, Friday 09:00:00-18:00:00, Saturday 00:00:00-00:00:00, Sunday 00:00:00-00:00:00",,,
Vassar Office,3757 ,301 Vassar St, ,Reno,NV,89502,US,7756883400    ,39.51315,-119.80283,"Monday 09:00:00-17:30:00, Tuesday 09:00:00-17:30:00, Wednesday 09:00:00-17:30:00, Thursday 09:00:00-17:30:00, Friday 09:00:00-18:00:00, Saturday 00:00:00-00:00:00, Sunday 00:00:00-00:00:00",,,
Sparks Office,3759 ,2195 Oddie Blvd, ,Sparks,NV,89431,US,7753531420    ,39.54505,-119.7734,"Monday 09:00:00-17:30:00, Tuesday 09:00:00-17:30:00, Wednesday 09:00:00-17:30:00, Thursday 09:00:00-17:30:00, Friday 09:00:00-18:00:00, Saturday 09:00:00-13:00:00, Sunday 00:00:00-00:00:00",,,
Mae Anne Avenue Safeway Office,8450 ,5150 Mae Anne Ave, ,Reno,NV,89523,US,7757464005    ,39.53248,-119.86687,"Monday 10:00:00-19:00:00, Tuesday 10:00:00-19:00:00, Wednesday 10:00:00-19:00:00, Thursday 10:00:00-19:00:00, Friday 10:00:00-19:00:00, Saturday 10:00:00-16:00:00, Sunday 12:00:00-16:00:00",,,
Kietzke - Peckham Office,3752 ,4000 Kietzke Ln, ,Reno,NV,89502,US,7756898255    ,39.48525,-119.78876,"Monday 09:00:00-17:30:00, Tuesday 09:00:00-17:30:00, Wednesday 09:00:00-17:30:00, Thursday 09:00:00-17:30:00, Friday 09:00:00-18:00:00, Saturday 09:00:00-13:00:00, Sunday 00:00:00-00:00:00",,,
