store_name,store_number,address,address2,city,state,zip_code,country,phone_number,latitude,longitude,store_hours,store_type,other_fields,coming_soon
"Culver's of Lake Havasu City, AZ - Countryshire Ave",576,1615 Countryshire Ave,,Lake Havasu City,AZ,86403,US,928-733-6192,34.49141,-114.34998,"Monday : 10:00 AM-10:00 PM, Thuesday : 10:00 AM-10:00 PM, Wednesday : 10:00 AM-10:00 PM, Thursday : 10:00 AM-10:00 PM, Friday : 10:00 AM-10:00 PM, Saturday : 10:00 AM-10:00 PM, Sunday : 10:00 AM-10:00 PM",,,
"Culver's of Atascocita, TX - E Atascocita Rd",374,5420 E Atascocita Rd,,Atascocita,TX,77346,US,281-812-8600,29.988083,-95.192776,"Monday : 10:00 AM-10:00 PM, Thuesday : 10:00 AM-10:00 PM, Wednesday : 10:00 AM-10:00 PM, Thursday : 10:00 AM-10:00 PM, Friday : 10:00 AM-10:00 PM, Saturday : 10:00 AM-10:00 PM, Sunday : 10:00 AM-10:00 PM",,,
"Culver's of Kingwood, TX - Northpark Dr",496,331 Northpark Dr,,Kingwood,TX,77339,US,281-359-0950,30.069549,-95.242414,"Monday : 10:00 AM-10:00 PM, Thuesday : 10:00 AM-10:00 PM, Wednesday : 10:00 AM-10:00 PM, Thursday : 10:00 AM-10:00 PM, Friday : 10:00 AM-10:00 PM, Saturday : 10:00 AM-10:00 PM, Sunday : 10:00 AM-10:00 PM",,,
"Culver's of The Woodlands, TX - Six Pines Dr",259,8800 Six Pines Dr,,The Woodlands,TX,77380,US,281-364-9595,30.176564,-95.459025,"Monday : 10:30 AM-10:00 PM, Thuesday : 10:30 AM-10:00 PM, Wednesday : 10:30 AM-10:00 PM, Thursday : 10:30 AM-10:00 PM, Friday : 10:30 AM-10:00 PM, Saturday : 10:30 AM-10:00 PM, Sunday : 10:30 AM-10:00 PM",,,
"Culver's of Conroe, TX - N Loop 336 W",446,1426 N Loop 336 W,,Conroe,TX,77304,US,936-788-5959,30.332896,-95.482367,"Monday : 10:30 AM-10:00 PM, Thuesday : 10:30 AM-10:00 PM, Wednesday : 10:30 AM-10:00 PM, Thursday : 10:30 AM-10:00 PM, Friday : 10:30 AM-10:00 PM, Saturday : 10:30 AM-10:00 PM, Sunday : 10:30 AM-10:00 PM",,,
"Culver's of Austin, TX - W Braker Ln",071,2240 W Braker Ln,,Austin,TX,78758,US,512-836-4162,30.391394,-97.713926,"Monday : 10:30 AM-10:30 PM, Thuesday : 10:30 AM-10:30 PM, Wednesday : 10:30 AM-10:30 PM, Thursday : 10:30 AM-10:30 PM, Friday : 10:30 AM-10:30 PM, Saturday : 10:30 AM-10:30 PM, Sunday : 10:30 AM-10:30 PM",,,
"Culver's of Austin, TX - W William Cannon Dr",050,3424 W William Cannon Dr,,Austin,TX,78745,US,512-892-1114,30.213728,-97.829356,"Monday : 10:00 AM-10:00 PM, Thuesday : 10:00 AM-10:00 PM, Wednesday : 10:00 AM-10:00 PM, Thursday : 10:00 AM-10:00 PM, Friday : 10:00 AM-10:00 PM, Saturday : 10:00 AM-10:00 PM, Sunday : 10:00 AM-10:00 PM",,,
"Culver's of San Antonio, TX - De Zavala Rd",261,5836 De Zavala Rd,,San Antonio,TX,78249,US,210-558-9797,29.562614,-98.598769,"Monday : 10:00 AM-10:30 PM, Thuesday : 10:00 AM-10:30 PM, Wednesday : 10:00 AM-10:30 PM, Thursday : 10:00 AM-10:30 PM, Friday : 10:00 AM-10:30 PM, Saturday : 10:00 AM-10:30 PM, Sunday : 10:00 AM-10:30 PM",,,
"Culver's of Rockwall, TX - Ridge Rd",224,2475 Ridge Rd,,Rockwall,TX,75087,US,972-722-6586,32.900321,-96.46712,"Monday : 10:00 AM-10:00 PM, Thuesday : 10:00 AM-10:00 PM, Wednesday : 10:00 AM-10:00 PM, Thursday : 10:00 AM-10:00 PM, Friday : 10:00 AM-10:00 PM, Saturday : 10:00 AM-10:00 PM, Sunday : 10:00 AM-10:00 PM",,,
"Culver's of Kerrville, TX - Junction Hwy",153,1300 Junction Hwy,,Kerrville,TX,78028,US,830-257-7000,30.062439,-99.170078,"Monday : 10:00 AM-10:00 PM, Thuesday : 10:00 AM-10:00 PM, Wednesday : 10:00 AM-10:00 PM, Thursday : 10:00 AM-10:00 PM, Friday : 10:00 AM-10:00 PM, Saturday : 10:00 AM-10:00 PM, Sunday : 10:00 AM-10:00 PM",,,
"Culver's of The Colony, TX - State Hwy 121",556,5100 State Hwy 121,,Lewisville,TX,75056,US,214-469-2900,33.069483,-96.878349,"Monday : 10:30 AM-10:00 PM, Thuesday : 10:30 AM-10:00 PM, Wednesday : 10:30 AM-10:00 PM, Thursday : 10:30 AM-10:00 PM, Friday : 10:30 AM-10:00 PM, Saturday : 10:30 AM-10:00 PM, Sunday : 10:30 AM-10:00 PM",,,
"Culver's of Flower Mound, TX - Flower Mound Rd",322,2709 Flower Mound Rd,,Flower Mound,TX,75022,US,972-355-3787,33.013289,-97.072622,"Monday : 10:30 AM-10:00 PM, Thuesday : 10:30 AM-10:00 PM, Wednesday : 10:30 AM-10:00 PM, Thursday : 10:30 AM-10:00 PM, Friday : 10:30 AM-10:00 PM, Saturday : 10:30 AM-10:00 PM, Sunday : 10:30 AM-10:00 PM",,,
"Culver's of McKinney, TX - W Eldorado Pkwy",064,4200 W Eldorado Pkwy,,McKinney,TX,75070,US,972-369-1190,33.169716,-96.67214,"Monday : 10:30 AM-10:00 PM, Thuesday : 10:30 AM-10:00 PM, Wednesday : 10:30 AM-10:00 PM, Thursday : 10:30 AM-10:00 PM, Friday : 10:30 AM-10:00 PM, Saturday : 10:30 AM-10:00 PM, Sunday : 10:30 AM-10:00 PM",,,
"Culver's of Phoenix, AZ - E Camelback Rd",415,825 E Camelback Rd,,Phoenix,AZ,85014,US,602-595-7876,33.508983,-112.063086,"Monday : 10:00 AM-11:00 PM, Thuesday : 10:00 AM-11:00 PM, Wednesday : 10:00 AM-11:00 PM, Thursday : 10:00 AM-11:00 PM, Friday : 10:00 AM-12:00 AM, Saturday : 10:00 AM-12:00 AM, Sunday : 10:00 AM-11:00 PM",,,
"Culver's of Tempe, AZ - E Southern Ave",532,630 E Southern Ave,,Tempe,AZ,85282,US,602-314-4445,33.393423,-111.929793,"Monday : 10:00 AM-11:00 PM, Thuesday : 10:00 AM-11:00 PM, Wednesday : 10:00 AM-11:00 PM, Thursday : 10:00 AM-11:00 PM, Friday : 10:00 AM-12:00 AM, Saturday : 10:00 AM-12:00 AM, Sunday : 10:00 AM-11:00 PM",,,
"Culver's of Phoenix, AZ - Metro Center",406,10225 N 28th Dr,,Phoenix,AZ,85051,US,602-861-2000,33.579841,-112.121445,"Monday : 10:30 AM-10:00 PM, Thuesday : 10:30 AM-10:00 PM, Wednesday : 10:30 AM-10:00 PM, Thursday : 10:30 AM-10:00 PM, Friday : 10:30 AM-11:00 PM, Saturday : 10:30 AM-11:00 PM, Sunday : 10:30 AM-10:00 PM",,,
"Culver's of Glendale, AZ - N 99th Ave",431,5127 N 99th Ave,,Glendale,AZ,85305,US,623-328-9282,33.509471,-112.271986,"Monday : 10:00 AM-11:00 PM, Thuesday : 10:00 AM-11:00 PM, Wednesday : 10:00 AM-11:00 PM, Thursday : 10:00 AM-11:00 PM, Friday : 10:00 AM-11:00 PM, Saturday : 10:00 AM-11:00 PM, Sunday : 10:00 AM-11:00 PM",,,
"Culver's of Avondale, AZ - N Avondale Blvd",450,1025 N Avondale Blvd,,Avondale,AZ,85323,US,623-792-8649,33.457311,-112.305855,"Monday : 10:00 AM-11:00 PM, Thuesday : 10:00 AM-11:00 PM, Wednesday : 10:00 AM-11:00 PM, Thursday : 10:00 AM-11:00 PM, Friday : 10:00 AM-11:00 PM, Saturday : 10:00 AM-11:00 PM, Sunday : 10:00 AM-11:00 PM",,,
"Culver's of Chandler, AZ - W Ray Rd",445,3155 W Ray Rd,,Chandler,AZ,85226,US,480-268-7249,33.319727,-111.896636,"Monday : 10:00 AM-10:30 PM, Thuesday : 10:00 AM-10:30 PM, Wednesday : 10:00 AM-10:30 PM, Thursday : 10:00 AM-10:30 PM, Friday : 10:00 AM-10:30 PM, Saturday : 10:00 AM-10:30 PM, Sunday : 10:00 AM-10:30 PM",,,
"Culver's of Scottsdale, AZ - E Shea Blvd",462,8668 E Shea Blvd,,Scottsdale,AZ,85260,US,480-636-8480,33.58274,-111.893652,"Monday : 10:30 AM-10:00 PM, Thuesday : 10:30 AM-10:00 PM, Wednesday : 10:30 AM-10:00 PM, Thursday : 10:30 AM-10:00 PM, Friday : 10:30 AM-11:00 PM, Saturday : 10:30 AM-11:00 PM, Sunday : 10:30 AM-10:00 PM",,,
"Culver's of Mesa, AZ - S Country Club Dr",378,1909 S Country Club Dr,,Mesa,AZ,85210,US,480-733-5330,33.379965,-111.839551,"Monday : 10:00 AM-10:00 PM, Thuesday : 10:00 AM-10:00 PM, Wednesday : 10:00 AM-10:00 PM, Thursday : 10:00 AM-10:00 PM, Friday : 10:00 AM-10:00 PM, Saturday : 10:00 AM-10:00 PM, Sunday : 10:00 AM-10:00 PM",,,
"Culver's of Peoria, AZ - W Ludlow Dr",425,8271 W Ludlow Dr,,Peoria,AZ,85381,US,623-242-8826,33.611639,-112.236813,"Monday : 10:00 AM-11:00 PM, Thuesday : 10:00 AM-11:00 PM, Wednesday : 10:00 AM-11:00 PM, Thursday : 10:00 AM-11:00 PM, Friday : 10:00 AM-11:00 PM, Saturday : 10:00 AM-11:00 PM, Sunday : 10:00 AM-11:00 PM",,,
"Culver's of Phoenix, AZ - N Cave Creek Rd",434,20835 N Cave Creek Rd,,Phoenix,AZ,85024,US,602-788-1616,33.676396,-112.030443,"Monday : 10:00 AM-10:00 PM, Thuesday : 10:00 AM-10:00 PM, Wednesday : 10:00 AM-10:00 PM, Thursday : 10:00 AM-10:00 PM, Friday : 10:00 AM-10:00 PM, Saturday : 10:00 AM-10:00 PM, Sunday : 10:00 AM-10:00 PM",,,
"Culver's of Phoenix, AZ - W Deer Valley Dr",379,1825 W Deer Valley Dr,,Phoenix,AZ,85027,US,623-580-4567,33.683414,-112.097986,"Monday : 10:00 AM-10:00 PM, Thuesday : 10:00 AM-10:00 PM, Wednesday : 10:00 AM-10:00 PM, Thursday : 10:00 AM-10:00 PM, Friday : 10:00 AM-10:00 PM, Saturday : 10:00 AM-10:00 PM, Sunday : 10:00 AM-10:00 PM",,,
"Culver's of Peoria, AZ - W Deer Valley Rd",553,8330 W Deer Valley Rd,,Peoria,AZ,85382,US,623-792-8957,33.682033,-112.239165,"Monday : 10:00 AM-10:00 PM, Thuesday : 10:00 AM-10:00 PM, Wednesday : 10:00 AM-10:00 PM, Thursday : 10:00 AM-10:00 PM, Friday : 10:00 AM-10:00 PM, Saturday : 10:00 AM-10:00 PM, Sunday : 10:00 AM-10:00 PM",,,
"Culver's of Mesa, AZ - S Greenfield Rd",465,1841 S Greenfield Rd,,Mesa,AZ,85206,US,480-892-2430,33.381349,-111.738999,"Monday : 10:00 AM-10:00 PM, Thuesday : 10:00 AM-10:00 PM, Wednesday : 10:00 AM-10:00 PM, Thursday : 10:00 AM-10:00 PM, Friday : 10:00 AM-10:00 PM, Saturday : 10:00 AM-10:00 PM, Sunday : 10:00 AM-10:00 PM",,,
"Culver's of Surprise, AZ - W Bell Rd",396,16145 W Bell Rd,,Surprise,AZ,85374,US,623-218-6575,33.638488,-112.406799,"Monday : 10:00 AM-10:00 PM, Thuesday : 10:00 AM-10:00 PM, Wednesday : 10:00 AM-10:00 PM, Thursday : 10:00 AM-10:00 PM, Friday : 10:00 AM-10:00 PM, Saturday : 10:00 AM-10:00 PM, Sunday : 10:00 AM-10:00 PM",,,
"Culver's of Buckeye, AZ - N Verrado Way",570,1540 N Verrado Way,,Buckeye,AZ,85396,US,623-322-8444,33.46476,-112.50476,"Monday : 10:00 AM-11:00 PM, Thuesday : 10:00 AM-11:00 PM, Wednesday : 10:00 AM-11:00 PM, Thursday : 10:00 AM-11:00 PM, Friday : 10:00 AM-11:00 PM, Saturday : 10:00 AM-11:00 PM, Sunday : 10:00 AM-11:00 PM",,,
"Culver's of Maricopa, AZ - N John Wayne Pkwy",611,20430 N John Wayne Pkwy,,Maricopa,AZ,85139,US,520-858-0444,33.065012,-112.048101,"Monday : 10:00 AM-11:00 PM, Thuesday : 10:00 AM-11:00 PM, Wednesday : 10:00 AM-11:00 PM, Thursday : 10:00 AM-11:00 PM, Friday : 10:00 AM-12:00 AM, Saturday : 10:00 AM-12:00 AM, Sunday : 10:00 AM-11:00 PM",,,
"Culver's of Mesa, AZ - S Crismon Rd",600,1263 S Crismon Rd,,Mesa,AZ,85209,US,602-596-9894,33.391222,-111.614997,"Monday : 10:00 AM-10:30 PM, Thuesday : 10:00 AM-10:30 PM, Wednesday : 10:00 AM-10:30 PM, Thursday : 10:00 AM-10:30 PM, Friday : 10:00 AM-10:30 PM, Saturday : 10:00 AM-10:30 PM, Sunday : 10:00 AM-10:30 PM",,,
"Culver's of Casa Grande, AZ - E Florence Blvd",428,2453 E Florence Blvd,,Casa Grande,AZ,85194,US,520-426-4225,32.879117,-111.681524,"Monday : 10:00 AM-10:00 PM, Thuesday : 10:00 AM-10:00 PM, Wednesday : 10:00 AM-10:00 PM, Thursday : 10:00 AM-10:00 PM, Friday : 10:00 AM-11:00 PM, Saturday : 10:00 AM-11:00 PM, Sunday : 10:00 AM-10:00 PM",,,
"Culver's of Payson, AZ - E Hwy 260",587,805 E Hwy 260,,Payson,AZ,85541,US,928-363-4433,34.241441,-111.310695,"Monday : 10:00 AM-10:00 PM, Thuesday : 10:00 AM-10:00 PM, Wednesday : 10:00 AM-10:00 PM, Thursday : 10:00 AM-10:00 PM, Friday : 10:00 AM-10:00 PM, Saturday : 10:00 AM-10:00 PM, Sunday : 10:00 AM-10:00 PM",,,
"Culver's of Prescott Valley, AZ - N Stoneridge Dr",497,2544 N Stoneridge Dr,,Prescott Valley,AZ,86314,US,928-277-0322,34.57987,-112.361075,"Monday : 10:00 AM-10:00 PM, Thuesday : 10:00 AM-10:00 PM, Wednesday : 10:00 AM-10:00 PM, Thursday : 10:00 AM-10:00 PM, Friday : 10:00 AM-10:00 PM, Saturday : 10:00 AM-10:00 PM, Sunday : 10:00 AM-10:00 PM",,,
"Culver's of Tucson, AZ - N Thornydale Rd",437,6905 N Thornydale Rd,,Tucson,AZ,85741,US,520-797-9277,32.332184,-111.046757,"Monday : 10:00 AM-10:00 PM, Thuesday : 10:00 AM-10:00 PM, Wednesday : 10:00 AM-10:00 PM, Thursday : 10:00 AM-10:00 PM, Friday : 10:00 AM-10:00 PM, Saturday : 10:00 AM-10:00 PM, Sunday : 10:00 AM-10:00 PM",,,
"Culver's of Tucson, AZ - N 1st Ave",481,4810 N 1st Ave,,Tucson,AZ,85718,US,520-398-6338,32.294421,-110.960523,"Monday : 10:00 AM-10:00 PM, Thuesday : 10:00 AM-10:00 PM, Wednesday : 10:00 AM-10:00 PM, Thursday : 10:00 AM-10:00 PM, Friday : 10:00 AM-11:00 PM, Saturday : 10:00 AM-11:00 PM, Sunday : 10:00 AM-10:00 PM",,,
"Culver's of Tucson, AZ - S Kino Pkwy",521,3070 S Campbell Ave,,Tucson,AZ,85713,US,520-882-4422,32.18601,-110.943953,"Monday : 10:30 AM-10:00 PM, Thuesday : 10:30 AM-10:00 PM, Wednesday : 10:30 AM-10:00 PM, Thursday : 10:30 AM-10:00 PM, Friday : 10:30 AM-10:00 PM, Saturday : 10:30 AM-10:00 PM, Sunday : 10:30 AM-10:00 PM",,,
"Culver's of Tucson, AZ - S Broadway Pl",436,40 S Broadway Pl,,Tucson,AZ,85710,US,520-777-3213,32.220533,-110.831969,"Monday : 10:00 AM-10:00 PM, Thuesday : 10:00 AM-10:00 PM, Wednesday : 10:00 AM-10:00 PM, Thursday : 10:00 AM-10:00 PM, Friday : 10:00 AM-11:00 PM, Saturday : 10:00 AM-11:00 PM, Sunday : 10:00 AM-10:00 PM",,,
"Culver's of Sierra Vista, AZ - S Hwy 92",541,632 S Hwy 92,,Sierra Vista,AZ,85635,US,520-459-6000,31.549323,-110.258051,"Monday : 10:30 AM-10:00 PM, Thuesday : 10:30 AM-10:00 PM, Wednesday : 10:30 AM-10:00 PM, Thursday : 10:30 AM-10:00 PM, Friday : 10:30 AM-10:00 PM, Saturday : 10:30 AM-10:00 PM, Sunday : 10:30 AM-10:00 PM",,,
"Culver's of Berwyn, IL - W Roosevelt Rd",435,6943 W Roosevelt Rd,,Berwyn,IL,60402,US,708-788-8000,41.864864,-87.798368,"Monday : 10:00 AM-10:00 PM, Thuesday : 10:00 AM-10:00 PM, Wednesday : 10:00 AM-10:00 PM, Thursday : 10:00 AM-10:00 PM, Friday : 10:00 AM-10:00 PM, Saturday : 10:00 AM-10:00 PM, Sunday : 10:00 AM-10:00 PM",,,
"Culver's of Evergreen Park, IL - S Kedzie Ave",482,9515 S Kedzie Ave,,Evergreen Park,IL,60805,US,708-423-0000,41.719877,-87.701399,"Monday : 10:00 AM-10:00 PM, Thuesday : 10:00 AM-10:00 PM, Wednesday : 10:00 AM-10:00 PM, Thursday : 10:00 AM-10:00 PM, Friday : 10:00 AM-10:00 PM, Saturday : 10:00 AM-10:00 PM, Sunday : 10:00 AM-10:00 PM",,,
"Culver's of Lyons, IL - Ogden Ave",398,8211 Ogden Ave,,Lyons,IL,60534,US,708-442-0932,41.815891,-87.82643,"Monday : 10:00 AM-10:30 PM, Thuesday : 10:00 AM-10:30 PM, Wednesday : 10:00 AM-10:30 PM, Thursday : 10:00 AM-10:30 PM, Friday : 10:00 AM-11:00 PM, Saturday : 10:00 AM-11:00 PM, Sunday : 10:00 AM-10:30 PM",,,
"Culver's of Oak Lawn, IL - S Cicero Ave",584,10745 S Cicero Ave,,Oak Lawn,IL,60453,US,708-581-5696,41.696712,-87.739377,"Monday : 10:00 AM-10:00 PM, Thuesday : 10:00 AM-10:00 PM, Wednesday : 10:00 AM-10:00 PM, Thursday : 10:00 AM-10:00 PM, Friday : 10:00 AM-10:00 PM, Saturday : 10:00 AM-10:00 PM, Sunday : 10:00 AM-10:00 PM",,,
"Culver's of Bridgeview, IL - S Harlem Ave",252,9229 S Harlem Ave,,Bridgeview,IL,60455,US,708-598-1400,41.724081,-87.798144,"Monday : 10:00 AM-10:00 PM, Thuesday : 10:00 AM-10:00 PM, Wednesday : 10:00 AM-10:00 PM, Thursday : 10:00 AM-10:00 PM, Friday : 10:00 AM-10:00 PM, Saturday : 10:00 AM-10:00 PM, Sunday : 10:00 AM-10:00 PM",,,
"Culver's of Franklin Park, IL - Rose St",307,2751 Rose St,,Franklin Park,IL,60131,US,847-455-5135,41.928695,-87.864426,"Monday : 10:00 AM-10:00 PM, Thuesday : 10:00 AM-10:00 PM, Wednesday : 10:00 AM-10:00 PM, Thursday : 10:00 AM-10:00 PM, Friday : 10:00 AM-10:00 PM, Saturday : 10:00 AM-10:00 PM, Sunday : 10:00 AM-10:00 PM",,,
"Culver's of Crestwood, IL - Cicero Ave",509,13300 Cicero Ave,,Crestwood,IL,60445,US,708-385-8588,41.650311,-87.738835,"Monday : 9:30 AM-11:00 PM, Thuesday : 9:30 AM-11:00 PM, Wednesday : 9:30 AM-11:00 PM, Thursday : 9:30 AM-11:00 PM, Friday : 9:30 AM-11:00 PM, Saturday : 9:30 AM-11:00 PM, Sunday : 9:30 AM-11:00 PM",,,
"Culver's of Skokie, IL - N Skokie Blvd",610,9455 N Skokie Blvd,,Skokie,IL,60077,US,847-983-8860,42.052906,-87.743742,"Monday : 10:00 AM-10:30 PM, Thuesday : 10:00 AM-10:30 PM, Wednesday : 10:00 AM-10:30 PM, Thursday : 10:00 AM-10:30 PM, Friday : 10:00 AM-11:00 PM, Saturday : 10:00 AM-11:00 PM, Sunday : 10:00 AM-10:30 PM",,,
"Culver's of Morton Grove, IL - W Dempster St",444,7310 W Dempster St,,Morton Grove,IL,60053,US,847-983-4341,42.041091,-87.809604,"Monday : 10:30 AM-10:00 PM, Thuesday : 10:30 AM-10:00 PM, Wednesday : 10:30 AM-10:00 PM, Thursday : 10:30 AM-11:00 PM, Friday : 10:30 AM-11:00 PM, Saturday : 10:30 AM-11:00 PM, Sunday : 10:30 AM-10:00 PM",,,
"Culver's of Rosemont, IL - Mannheim Rd",419,7050 Mannheim Rd,,Rosemont,IL,60018,US,847-635-2005,42.007903,-87.885728,"Monday : 10:00 AM-11:00 PM, Thuesday : 10:00 AM-11:00 PM, Wednesday : 10:00 AM-11:00 PM, Thursday : 10:00 AM-11:00 PM, Friday : 10:00 AM-11:00 PM, Saturday : 10:00 AM-11:00 PM, Sunday : 10:00 AM-11:00 PM",,,
"Culver's of Darien, IL - Plainfield Rd",069,541 Plainfield Rd,,Darien,IL,60561,US,630-734-0400,41.754422,-87.959606,"Monday : 10:30 AM-10:00 PM, Thuesday : 10:30 AM-10:00 PM, Wednesday : 10:30 AM-10:00 PM, Thursday : 10:30 AM-10:00 PM, Friday : 10:30 AM-11:00 PM, Saturday : 10:30 AM-11:00 PM, Sunday : 10:30 AM-10:00 PM",,,
"Culver's of Lansing, IL - Torrence Ave",245,17010 Torrence Ave,,Lansing,IL,60438,US,708-895-5555,41.586168,-87.559971,"Monday : 10:00 AM-11:00 PM, Thuesday : 10:00 AM-11:00 PM, Wednesday : 10:00 AM-11:00 PM, Thursday : 10:00 AM-11:00 PM, Friday : 10:00 AM-11:00 PM, Saturday : 10:00 AM-11:00 PM, Sunday : 10:00 AM-11:00 PM",,,
"Culver's of Lombard, IL - S Main St",287,1155 S Main St,,Lombard,IL,60148,US,630-889-1140,41.861306,-88.016945,"Monday : 10:00 AM-10:00 PM, Thuesday : 10:00 AM-10:00 PM, Wednesday : 10:00 AM-10:00 PM, Thursday : 10:00 AM-10:00 PM, Friday : 10:00 AM-10:00 PM, Saturday : 10:00 AM-10:00 PM, Sunday : 10:00 AM-10:00 PM",,,
"Culver's of Orland Park, IL - 159th St",418,9130 159th St,,Orland Park,IL,60462,US,708-590-6334,41.601881,-87.842,"Monday : 10:00 AM-10:00 PM, Thuesday : 10:00 AM-11:00 PM, Wednesday : 10:00 AM-11:00 PM, Thursday : 10:00 AM-11:00 PM, Friday : 10:00 AM-11:00 PM, Saturday : 10:00 AM-11:00 PM, Sunday : 10:00 AM-10:00 PM",,,
"Culver's of Homewood, IL - W 183rd St",364,850 W 183rd St,,Homewood,IL,60430,US,708-922-2222,41.558008,-87.638175,"Monday : 10:00 AM-10:00 PM, Thuesday : 10:00 AM-11:00 PM, Wednesday : 10:00 AM-11:00 PM, Thursday : 10:00 AM-11:00 PM, Friday : 10:00 AM-11:00 PM, Saturday : 10:00 AM-11:00 PM, Sunday : 10:00 AM-10:00 PM",,,
"Culver's of Addison, IL - W Lake St",255,1347 W Lake St,,Addison,IL,60101,US,630-628-6020,41.944428,-88.021511,"Monday : 10:30 AM-10:00 PM, Thuesday : 10:30 AM-10:00 PM, Wednesday : 10:30 AM-10:00 PM, Thursday : 10:30 AM-10:00 PM, Friday : 10:30 AM-11:00 PM, Saturday : 10:30 AM-11:00 PM, Sunday : 10:30 AM-10:00 PM",,,
"Culver's of Mt. Prospect, IL - Dempster St",264,1501 Dempster St,,Mt. Prospect,IL,60056,US,847-981-1681,42.036489,-87.958656,"Monday : 10:30 AM-10:00 PM, Thuesday : 10:30 AM-10:00 PM, Wednesday : 10:30 AM-10:00 PM, Thursday : 10:30 AM-10:00 PM, Friday : 10:30 AM-10:00 PM, Saturday : 10:30 AM-10:00 PM, Sunday : 10:30 AM-10:00 PM",,,
"Culver's of Downers Grove, IL - Ogden Ave",304,2500 Ogden Ave,,Downers Grove,IL,60515,US,630-434-9401,41.805603,-88.046392,"Monday : 10:00 AM-10:30 PM, Thuesday : 10:00 AM-10:30 PM, Wednesday : 10:00 AM-10:30 PM, Thursday : 10:00 AM-10:30 PM, Friday : 10:00 AM-11:00 PM, Saturday : 10:00 AM-11:00 PM, Sunday : 10:00 AM-10:30 PM",,,
"Culver's of Tinley Park, IL - Sayre Ave",146,18248 Sayre Ave,,Tinley Park,IL,60477,US,708-444-0004,41.559168,-87.788781,"Monday : 10:00 AM-10:00 PM, Thuesday : 10:00 AM-11:00 PM, Wednesday : 10:00 AM-11:00 PM, Thursday : 10:00 AM-11:00 PM, Friday : 10:00 AM-11:00 PM, Saturday : 10:00 AM-11:00 PM, Sunday : 10:00 AM-10:00 PM",,,
"Culver's of Arlington Heights, IL - Northwest Hwy",453,2060 Northwest Hwy,,Arlington Heights,IL,60004,US,847-590-8802,42.072854,-87.956829,"Monday : 10:30 AM-10:00 PM, Thuesday : 10:30 AM-10:00 PM, Wednesday : 10:30 AM-10:00 PM, Thursday : 10:30 AM-10:00 PM, Friday : 10:30 AM-10:30 PM, Saturday : 10:30 AM-10:30 PM, Sunday : 10:30 AM-10:00 PM",,,
"Culver's of Highland, IN - Ridge Rd",480,3950 Ridge Rd,,Highland,IN,46322,US,219-934-7900,41.551299,-87.43304,"Monday : 10:00 AM-10:00 PM, Thuesday : 10:00 AM-10:00 PM, Wednesday : 10:00 AM-10:00 PM, Thursday : 10:00 AM-10:00 PM, Friday : 10:00 AM-10:00 PM, Saturday : 10:00 AM-10:00 PM, Sunday : 10:00 AM-10:00 PM",,,
"Culver's of Carol Stream, IL - Schmale Rd",211,290 Schmale Rd,,Carol Stream,IL,60188,US,630-933-9747,41.896311,-88.102919,"Monday : 10:00 AM-10:00 PM, Thuesday : 10:00 AM-10:00 PM, Wednesday : 10:00 AM-10:00 PM, Thursday : 10:00 AM-10:00 PM, Friday : 10:00 AM-10:00 PM, Saturday : 10:00 AM-10:00 PM, Sunday : 10:00 AM-10:00 PM",,,
"Culver's of Matteson, IL - Cicero Ave",348,20716 Cicero Ave,,Matteson,IL,60443,US,708-748-7048,41.512383,-87.733194,"Monday : 10:00 AM-10:00 PM, Thuesday : 10:00 AM-11:00 PM, Wednesday : 10:00 AM-11:00 PM, Thursday : 10:00 AM-11:00 PM, Friday : 10:00 AM-11:00 PM, Saturday : 10:00 AM-11:00 PM, Sunday : 10:00 AM-10:00 PM",,,
"Culver's of Bolingbrook, IL - N Bolingbrook Dr",203,250 N Bolingbrook Dr,,Bolingbrook,IL,60440,US,630-783-1585,41.703011,-88.067836,"Monday : 10:30 AM-10:00 PM, Thuesday : 10:30 AM-10:00 PM, Wednesday : 10:30 AM-10:00 PM, Thursday : 10:30 AM-10:00 PM, Friday : 10:30 AM-10:00 PM, Saturday : 10:30 AM-10:00 PM, Sunday : 10:30 AM-10:00 PM",,,
"Culver's of Schaumburg, IL - E Algonquin Rd",372,1410 E Algonquin Rd,,Schaumburg,IL,60173,US,847-925-8000,42.068585,-88.042797,"Monday : 10:00 AM-11:00 PM, Thuesday : 10:00 AM-11:00 PM, Wednesday : 10:00 AM-11:00 PM, Thursday : 10:00 AM-11:00 PM, Friday : 10:00 AM-12:00 AM, Saturday : 10:00 AM-12:00 AM, Sunday : 10:00 AM-10:30 PM",,,
"Culver's of Frankfort, IL - S La Grange Rd",276,20592 S La Grange Rd,,Frankfort,IL,60423,US,815-469-9986,41.517172,-87.85055,"Monday : 10:00 AM-10:00 PM, Thuesday : 10:00 AM-10:00 PM, Wednesday : 10:00 AM-10:00 PM, Thursday : 10:00 AM-10:00 PM, Friday : 10:00 AM-10:00 PM, Saturday : 10:00 AM-10:00 PM, Sunday : 10:00 AM-10:00 PM",,,
"Culver's of Lockport, IL - S Farrell Rd",512,15940 S Farrell Rd,,Lockport,IL,60441,US,815-838-6848,41.596774,-88.026767,"Monday : 10:30 AM-10:00 PM, Thuesday : 10:30 AM-10:00 PM, Wednesday : 10:30 AM-10:00 PM, Thursday : 10:30 AM-10:00 PM, Friday : 10:30 AM-10:00 PM, Saturday : 10:30 AM-10:00 PM, Sunday : 10:30 AM-10:00 PM",,,
"Culver's of Schererville, IN - W Lincoln Hwy",293,980 W Lincoln Hwy,,Schererville,IN,46375,US,219-322-2266,41.491247,-87.47505,"Monday : 10:00 AM-10:00 PM, Thuesday : 10:00 AM-10:00 PM, Wednesday : 10:00 AM-10:00 PM, Thursday : 10:00 AM-10:00 PM, Friday : 10:00 AM-10:30 PM, Saturday : 10:00 AM-10:30 PM, Sunday : 10:00 AM-10:00 PM",,,
"Culver's of Schaumburg, IL - Wise Rd",065,1800 Wise Rd,,Schaumburg,IL,60193,US,847-891-5660,42.004053,-88.124365,"Monday : 10:00 AM-10:00 PM, Thuesday : 10:00 AM-10:00 PM, Wednesday : 10:00 AM-10:00 PM, Thursday : 10:00 AM-10:00 PM, Friday : 10:00 AM-10:00 PM, Saturday : 10:00 AM-10:00 PM, Sunday : 10:00 AM-10:00 PM",,,
"Culver's of Crete, IL - Volbrecht Rd",442,23180 Volbrecht Rd,,Crete,IL,60417,US,708-898-1684,41.468718,-87.575894,"Monday : 10:00 AM-10:00 PM, Thuesday : 10:00 AM-10:00 PM, Wednesday : 10:00 AM-10:00 PM, Thursday : 10:00 AM-10:00 PM, Friday : 10:00 AM-10:00 PM, Saturday : 10:00 AM-10:00 PM, Sunday : 10:00 AM-10:00 PM",,,
"Culver's of Buffalo Grove, IL - McHenry Rd",158,450 McHenry Rd,,Buffalo Grove,IL,60089,US,847-229-1123,42.161205,-87.962191,"Monday : 10:00 AM-11:00 PM, Thuesday : 10:00 AM-11:00 PM, Wednesday : 10:00 AM-11:00 PM, Thursday : 10:00 AM-11:00 PM, Friday : 10:00 AM-11:00 PM, Saturday : 10:00 AM-11:00 PM, Sunday : 10:00 AM-11:00 PM",,,
"Culver's of Palatine, IL - N Rand Rd",186,1765 N Rand Rd,,Palatine,IL,60074,US,847-705-6666,42.142714,-88.024519,"Monday : 10:00 AM-10:00 PM, Thuesday : 10:00 AM-10:00 AM, Wednesday : 10:00 AM-10:00 PM, Thursday : 10:00 AM-10:00 PM, Friday : 10:00 AM-11:00 PM, Saturday : 10:00 AM-11:00 PM, Sunday : 10:00 AM-9:45 PM",,,
"Culver's of New Lenox, IL - E Lincoln Hwy",430,421 E Lincoln Hwy,,New Lenox,IL,60451,US,815-463-9470,41.512745,-87.955875,"Monday : 10:00 AM-10:00 PM, Thuesday : 10:00 AM-10:00 PM, Wednesday : 10:00 AM-10:00 PM, Thursday : 10:00 AM-10:00 PM, Friday : 10:00 AM-10:00 PM, Saturday : 10:00 AM-10:00 PM, Sunday : 10:00 AM-10:00 PM",,,
"Culver's of Romeoville, IL - N Weber Rd",246,485 N Weber Rd,,Romeoville,IL,60446,US,815-372-2777,41.642492,-88.122672,"Monday : 10:00 AM-10:00 PM, Thuesday : 10:00 AM-10:00 PM, Wednesday : 10:00 AM-10:00 PM, Thursday : 10:00 AM-10:00 PM, Friday : 10:00 AM-10:00 PM, Saturday : 10:00 AM-10:00 PM, Sunday : 10:00 AM-10:00 PM",,,
"Culver's of Aurora, IL - State Rd 59",055,509 State Rd 59,,Aurora,IL,60504,US,630-978-8709,41.748347,-88.206678,"Monday : 10:00 AM-10:00 PM, Thuesday : 10:00 AM-10:00 PM, Wednesday : 10:00 AM-10:00 PM, Thursday : 10:00 AM-10:00 PM, Friday : 10:00 AM-10:00 PM, Saturday : 10:00 AM-10:00 PM, Sunday : 10:00 AM-10:00 PM",,,
"Culver's of Monee, IL - W Monee Manhattan Rd",487,5871 W Monee Manhattan Rd,,Monee,IL,60449,US,708-746-5168,41.42666,-87.753686,"Monday : 10:00 AM-10:00 PM, Thuesday : 10:00 AM-10:00 PM, Wednesday : 10:00 AM-10:00 PM, Thursday : 10:00 AM-10:00 PM, Friday : 10:00 AM-10:00 PM, Saturday : 10:00 AM-10:00 PM, Sunday : 10:00 AM-10:00 PM",,,
"Culver's of Merrillville, IN - E 79th Ave",196,1579 E 79th Ave,,Merrillville,IN,46410,US,219-736-2000,41.473453,-87.317558,"Monday : 10:00 AM-10:00 PM, Thuesday : 10:00 AM-10:00 PM, Wednesday : 10:00 AM-10:00 PM, Thursday : 10:00 AM-10:00 PM, Friday : 10:00 AM-10:00 PM, Saturday : 10:00 AM-10:00 PM, Sunday : 10:00 AM-10:00 PM",,,
"Culver's of St. Charles, IL - E Main St",451,4068 E Main St,,St. Charles,IL,60174,US,630-444-1700,41.92204,-88.255401,"Monday : 10:00 AM-10:00 PM, Thuesday : 10:00 AM-10:00 PM, Wednesday : 10:00 AM-10:00 PM, Thursday : 10:00 AM-10:00 PM, Friday : 10:00 AM-10:00 PM, Saturday : 10:00 AM-10:00 PM, Sunday : 10:00 AM-10:00 PM",,,
"Culver's of Hoffman Estates, IL - Hoffman Blvd",595,4635 Hoffman Blvd,,Hoffman Estates,IL,60192,US,847-551-5272,42.069087,-88.193356,"Monday : 10:00 AM-10:00 PM, Thuesday : 10:00 AM-10:00 PM, Wednesday : 10:00 AM-10:00 PM, Thursday : 10:00 AM-10:00 PM, Friday : 10:00 AM-11:00 PM, Saturday : 10:00 AM-11:00 PM, Sunday : 10:00 AM-10:00 PM",,,
"Culver's of Portage, IN - US Hwy 6",254,6139 US Hwy 6,,Portage,IN,46368,US,219-764-4483,41.549928,-87.177447,"Monday : 10:30 AM-10:00 PM, Thuesday : 10:30 AM-10:00 PM, Wednesday : 10:30 AM-10:00 PM, Thursday : 10:30 AM-10:00 PM, Friday : 10:30 AM-11:00 PM, Saturday : 10:30 AM-11:00 PM, Sunday : 10:30 AM-10:00 PM",,,
"Culver's of Plainfield, IL - IL Rte 59",269,13449 IL Rte 59,,Plainfield,IL,60585,US,815-439-4442,41.637675,-88.202262,"Monday : 10:00 AM-10:00 PM, Thuesday : 10:00 AM-10:00 PM, Wednesday : 10:00 AM-10:00 PM, Thursday : 10:00 AM-10:00 PM, Friday : 10:00 AM-10:00 PM, Saturday : 10:00 AM-10:00 PM, Sunday : 10:00 AM-10:00 PM",,,
"Culver's of Gainesville, FL - SW 30th Pl",597,4036 SW 30th Pl,,Gainesville,FL,32608,US,352-727-4440,29.625735,-82.384362,"Monday : 10:00 AM-11:00 PM, Thuesday : 10:00 AM-11:00 PM, Wednesday : 10:00 AM-11:00 PM, Thursday : 10:00 AM-11:00 PM, Friday : 10:00 AM-12:00 AM, Saturday : 10:00 AM-12:00 AM, Sunday : 10:00 AM-11:00 PM",,,
"Culver's of Port Orange, FL - Dunlawton Ave",546,1744 Dunlawton Ave,,Port Orange,FL,32127,US,386-341-1315,29.111182,-81.024883,"Monday : 10:30 AM-10:00 PM, Thuesday : 10:30 AM-10:00 PM, Wednesday : 10:30 AM-10:00 PM, Thursday : 10:30 AM-10:00 PM, Friday : 10:30 AM-10:00 PM, Saturday : 10:30 AM-10:00 PM, Sunday : 10:30 AM-10:00 PM",,,
"Culver's of Casselberry, FL - US Hwy 17-92 - Coming Soon!",P,3920 US Hwy 17-92,,Casselberry,FL,32707,US,,28.675528,-81.337454,"Monday : 10:30 AM-10:00 PM, Thuesday : 10:30 AM-10:00 PM, Wednesday : 10:30 AM-10:00 PM, Thursday : 10:30 AM-10:00 PM, Friday : 10:30 AM-10:00 PM, Saturday : 10:30 AM-10:00 PM, Sunday : 10:30 AM-10:00 PM",,,
"Culver's of Winter Garden, FL - W Colonial Dr",594,13649 W Colonial Dr,,Winter Garden,FL,34787,US,407-395-2225,28.551467,-81.585504,"Monday : 10:00 AM-10:00 PM, Thuesday : 10:00 AM-10:00 PM, Wednesday : 10:00 AM-10:00 PM, Thursday : 10:00 AM-10:00 PM, Friday : 10:00 AM-10:00 PM, Saturday : 10:00 AM-10:00 PM, Sunday : 10:00 AM-10:00 PM",,,
"Culver's of Mundelein, IL - Oak Creek Plz",376,220 Oak Creek Plz,,Mundelein,IL,60060,US,847-566-6900,42.240183,-87.987736,"Monday : 10:00 AM-11:00 PM, Thuesday : 10:00 AM-11:00 PM, Wednesday : 10:00 AM-11:00 PM, Thursday : 10:00 AM-11:00 PM, Friday : 10:00 AM-11:00 PM, Saturday : 10:00 AM-11:00 PM, Sunday : 10:00 AM-11:00 PM",,,
"Culver's of Libertyville, IL - E Park Ave",234,803 E Park Ave,,Libertyville,IL,60048,US,847-816-9580,42.281437,-87.939525,"Monday : 10:00 AM-11:00 PM, Thuesday : 10:00 AM-11:00 PM, Wednesday : 10:00 AM-11:00 PM, Thursday : 10:00 AM-11:00 PM, Friday : 10:00 AM-11:00 PM, Saturday : 10:00 AM-11:00 PM, Sunday : 10:00 AM-11:00 PM",,,
"Culver's of Crown Point, IN - E Summit St",499,1800 E Summit St,,Crown Point,IN,46307,US,219-663-2212,41.427972,-87.337314,"Monday : 10:00 AM-10:00 PM, Thuesday : 10:00 AM-10:00 PM, Wednesday : 10:00 AM-10:00 PM, Thursday : 10:00 AM-10:00 PM, Friday : 10:00 AM-10:00 PM, Saturday : 10:00 AM-10:00 PM, Sunday : 10:00 AM-10:00 PM",,,
"Culver's of Joliet, IL - S Larkin Ave",617,219 S Larkin Ave,,Joliet,IL,60436,US,815-630-3979,41.51782,-88.125009,"Monday : 10:00 AM-10:00 PM, Thuesday : 10:00 AM-10:00 PM, Wednesday : 10:00 AM-10:00 PM, Thursday : 10:00 AM-10:00 PM, Friday : 10:00 AM-10:00 PM, Saturday : 10:00 AM-10:00 PM, Sunday : 10:00 AM-10:00 PM",,,
"Culver's of Lake Zurich, IL - N Rand Rd",221,645 N Rand Rd,,Lake Zurich,IL,60047,US,847-540-6700,42.207255,-88.112422,"Monday : 10:00 AM-10:00 PM, Thuesday : 10:00 AM-10:00 PM, Wednesday : 10:00 AM-10:00 PM, Thursday : 10:00 AM-10:00 PM, Friday : 10:00 AM-11:00 PM, Saturday : 10:00 AM-11:00 PM, Sunday : 10:00 AM-10:00 PM",,,
"Culver's of Clermont, FL - Johns Lake Rd",542,1431 Johns Lake Rd,,Clermont,FL,34711,US,352-394-1181,28.526767,-81.731123,"Monday : 10:30 AM-10:00 PM, Thuesday : 10:30 AM-10:00 PM, Wednesday : 10:30 AM-10:00 PM, Thursday : 10:30 AM-10:00 PM, Friday : 10:30 AM-10:00 PM, Saturday : 10:30 AM-10:00 PM, Sunday : 10:30 AM-10:00 PM",,,
"Culver's of Kissimmee, FL - W Irlo Bronson Memorial Hwy",603,9070 W Irlo Bronson Memorial Hwy,,Kissimmee,FL,34747,US,407-239-1203,28.34641,-81.65097,"Monday : 10:00 AM-11:00 PM, Thuesday : 10:00 AM-11:00 PM, Wednesday : 10:00 AM-11:00 PM, Thursday : 10:00 AM-11:00 PM, Friday : 10:00 AM-11:00 PM, Saturday : 10:00 AM-11:00 PM, Sunday : 10:00 AM-11:00 PM",,,
"Culver's of Kissimmee, FL - N Orange Blossom Trl",606,3148 N Orange Blossom Trl,,Kissimmee,FL,34744,US,407-201-3583,28.3414,-81.40419,"Monday : 10:00 AM-11:00 PM, Thuesday : 10:00 AM-11:00 PM, Wednesday : 10:00 AM-11:00 PM, Thursday : 10:00 AM-11:00 PM, Friday : 10:00 AM-11:00 PM, Saturday : 10:00 AM-11:00 PM, Sunday : 10:00 AM-11:00 PM",,,
"Culver's of Wesley Chapel, FL - Sun Vista Dr",564,2303 Sun Vista Dr,,Lutz,FL,33559,US,813-949-1414,28.191131,-82.394843,"Monday : 10:00 AM-10:30 PM, Thuesday : 10:00 AM-10:30 PM, Wednesday : 10:00 AM-10:30 PM, Thursday : 10:00 AM-10:30 PM, Friday : 10:00 AM-10:30 PM, Saturday : 10:00 AM-10:30 PM, Sunday : 10:00 AM-10:30 PM",,,
"Culver's of Port Richey, FL - US Hwy 19",551,8425 US Hwy 19,,Port Richey,FL,34668,US,727-846-6000,28.280158,-82.71838,"Monday : 10:30 AM-10:00 PM, Thuesday : 10:30 AM-10:00 PM, Wednesday : 10:30 AM-10:00 PM, Thursday : 10:30 AM-10:00 PM, Friday : 10:30 AM-10:00 PM, Saturday : 10:30 AM-10:00 PM, Sunday : 10:30 AM-10:00 PM",,,
"Culver's of North Aurora, IL - S Lincolnway St",087,411 S Lincolnway St,,North Aurora,IL,60542,US,630-844-2280,41.790383,-88.321467,"Monday : 10:00 AM-10:00 PM, Thuesday : 10:00 AM-10:00 PM, Wednesday : 10:00 AM-10:00 PM, Thursday : 10:00 AM-10:00 PM, Friday : 10:00 AM-10:00 PM, Saturday : 10:00 AM-10:00 PM, Sunday : 10:00 AM-10:00 PM",,,
"Culver's of Joliet, IL - IL Rte 59",271,1500 IL Rte 59,,Joliet,IL,60431,US,815-254-0020,41.548786,-88.198953,"Monday : 10:00 AM-10:00 PM, Thuesday : 10:00 AM-10:00 PM, Wednesday : 10:00 AM-10:00 PM, Thursday : 10:00 AM-10:00 PM, Friday : 10:00 AM-10:00 PM, Saturday : 10:00 AM-10:00 PM, Sunday : 10:00 AM-10:00 PM",,,
"Culver's of Oswego, IL - US Hwy 34",102,2781 US Hwy 34,,Oswego,IL,60543,US,630-551-4960,41.700864,-88.315136,"Monday : 10:00 AM-10:00 PM, Thuesday : 10:00 AM-10:00 PM, Wednesday : 10:00 AM-10:00 PM, Thursday : 10:00 AM-10:00 PM, Friday : 10:00 AM-10:30 PM, Saturday : 10:00 AM-10:30 PM, Sunday : 10:00 AM-10:00 PM",,,
"Culver's of Chesterton, IN - Matson St",525,3000 Matson St,,Chesterton,IN,46304,US,219-250-2373,41.57695,-87.044833,"Monday : 10:00 AM-10:00 PM, Thuesday : 10:00 AM-10:00 PM, Wednesday : 10:00 AM-10:00 PM, Thursday : 10:00 AM-10:00 PM, Friday : 10:00 AM-10:00 PM, Saturday : 10:00 AM-10:00 PM, Sunday : 10:00 AM-10:00 PM",,,
"Culver's of South Elgin, IL - Randall Rd",223,280 Randall Rd,,South Elgin,IL,60177,US,847-697-8980,41.989228,-88.342828,"Monday : 10:30 AM-10:00 PM, Thuesday : 10:30 AM-10:00 PM, Wednesday : 10:30 AM-10:00 PM, Thursday : 10:30 AM-10:00 PM, Friday : 10:30 AM-10:00 PM, Saturday : 10:30 AM-10:00 PM, Sunday : 10:30 AM-10:00 PM",,,
"Culver's of Gurnee, IL - Nations Dr",175,1505 Nations Dr,,Gurnee,IL,60031,US,847-662-9666,42.381097,-87.940936,"Monday : 10:30 AM-10:00 PM, Thuesday : 10:30 AM-10:00 PM, Wednesday : 10:30 AM-10:00 PM, Thursday : 10:30 AM-10:00 PM, Friday : 10:30 AM-10:00 PM, Saturday : 10:30 AM-10:00 PM, Sunday : 10:30 AM-10:00 PM",,,
"Culver's of Trinity, FL - Hwy 54",618,12538 Hwy 54,,Trinity,FL,34655,US,727-372-0321,28.190758,-82.607817,"Monday : 10:30 AM-10:00 PM, Thuesday : 10:30 AM-10:00 PM, Wednesday : 10:30 AM-10:00 PM, Thursday : 10:30 AM-10:00 PM, Friday : 10:30 AM-10:00 PM, Saturday : 10:30 AM-10:00 PM, Sunday : 10:30 AM-10:00 PM",,,
"Culver's of Tampa, FL - N Nebraska Ave",529,15003 N Nebraska Ave,,Tampa,FL,33613,US,813-977-7333,28.088568,-82.450915,"Monday : 10:30 AM-10:00 PM, Thuesday : 10:30 AM-10:00 PM, Wednesday : 10:30 AM-10:00 PM, Thursday : 10:30 AM-10:00 PM, Friday : 10:30 AM-10:00 PM, Saturday : 10:30 AM-10:00 PM, Sunday : 10:30 AM-10:00 PM",,,
"Culver's of Carpentersville, IL - Miller Rd",216,8000 Miller Rd,,Carpentersville,IL,60110,US,847-649-3225,42.121899,-88.337058,"Monday : 10:30 AM-10:00 PM, Thuesday : 10:30 AM-10:00 PM, Wednesday : 10:30 AM-10:00 PM, Thursday : 10:30 AM-10:00 PM, Friday : 10:30 AM-10:00 PM, Saturday : 10:30 AM-10:00 PM, Sunday : 10:30 AM-10:00 PM",,,
"Culver's of Island Lake, IL - E State Rd",070,203 E State Rd,,Island Lake,IL,60042,US,847-526-8530,42.271453,-88.196383,"Monday : 10:00 AM-10:00 PM, Thuesday : 10:00 AM-10:00 PM, Wednesday : 10:00 AM-10:00 PM, Thursday : 10:00 AM-10:00 PM, Friday : 10:00 AM-10:00 PM, Saturday : 10:00 AM-10:00 PM, Sunday : 10:00 AM-10:00 PM",,,
"Culver's of Grayslake, IL - N IL Rte 83",133,1239 N IL Rte 83,,Grayslake,IL,60030,US,847-548-1025,42.366031,-88.041789,"Monday : 10:00 AM-11:00 PM, Thuesday : 10:00 AM-11:00 PM, Wednesday : 10:00 AM-11:00 PM, Thursday : 10:00 AM-11:00 PM, Friday : 10:00 AM-11:00 PM, Saturday : 10:00 AM-11:00 PM, Sunday : 10:00 AM-11:00 PM",,,
"Culver's of Michigan City, IN - Frontage Rd N",251,3967 Frontage Rd N,,Michigan City,IN,46360,US,219-872-5065,41.664903,-86.893319,"Monday : 9:00 AM-11:00 PM, Thuesday : 9:00 AM-11:00 PM, Wednesday : 9:00 AM-11:00 PM, Thursday : 9:00 AM-11:00 PM, Friday : 9:00 AM-11:00 PM, Saturday : 9:00 AM-11:00 PM, Sunday : 9:00 AM-11:00 PM",,,
"Culver's of Valparaiso, IN - Laporte Ave",154,2101 Laporte Ave,,Valparaiso,IN,46383,US,219-531-9600,41.467575,-87.035553,"Monday : 10:30 AM-10:00 PM, Thuesday : 10:30 AM-10:00 PM, Wednesday : 10:30 AM-10:00 PM, Thursday : 10:30 AM-10:00 PM, Friday : 10:30 AM-10:00 PM, Saturday : 10:30 AM-10:00 PM, Sunday : 10:30 AM-10:00 PM",,,
"Culver's of Zion, IL - Sheridan Rd",275,3335 Sheridan Rd,,Zion,IL,60099,US,847-872-9401,42.433758,-87.825106,"Monday : 10:00 AM-10:00 PM, Thuesday : 10:00 AM-10:00 PM, Wednesday : 10:00 AM-10:00 PM, Thursday : 10:00 AM-10:00 PM, Friday : 10:00 AM-10:00 PM, Saturday : 10:00 AM-10:00 PM, Sunday : 10:00 AM-10:00 PM",,,
"Culver's of Tampa, FL - W Hillsborough Ave",537,8106 W Hillsborough Ave,,Tampa,FL,33615,US,813-898-8970,27.99623,-82.572285,"Monday : 10:30 AM-10:00 PM, Thuesday : 10:30 AM-10:00 PM, Wednesday : 10:30 AM-10:00 PM, Thursday : 10:30 AM-10:00 PM, Friday : 10:30 AM-10:00 PM, Saturday : 10:30 AM-10:00 PM, Sunday : 10:30 AM-10:00 PM",,,
"Culver's of Brandon, FL - S Falkenburg Rd - Coming Soon!",P,2470 S Falkenburg Rd,,Tampa,FL,33619,US,,27.92402,-82.33812,"Monday : 10:30 AM-10:00 PM, Thuesday : 10:30 AM-10:00 PM, Wednesday : 10:30 AM-10:00 PM, Thursday : 10:30 AM-10:00 PM, Friday : 10:30 AM-10:00 PM, Saturday : 10:30 AM-10:00 PM, Sunday : 10:30 AM-10:00 PM",,,
"Culver's of Clearwater, FL - Gulf to Bay Blvd",568,2008 Gulf to Bay Blvd,,Clearwater,FL,33765,US,727-286-6482,27.961,-82.7542,"Monday : 10:30 AM-10:00 PM, Thuesday : 10:30 AM-10:00 PM, Wednesday : 10:30 AM-10:00 PM, Thursday : 10:30 AM-10:00 PM, Friday : 10:30 AM-10:00 PM, Saturday : 10:30 AM-10:00 PM, Sunday : 10:30 AM-10:00 PM",,,
"Culver's of Largo, FL - E Bay Dr",514,3500 E Bay Dr,,Largo,FL,33771,US,727-223-9915,27.916802,-82.750529,"Monday : 10:00 AM-10:00 PM, Thuesday : 10:00 AM-10:00 PM, Wednesday : 10:00 AM-10:00 PM, Thursday : 10:00 AM-10:00 PM, Friday : 10:00 AM-10:00 PM, Saturday : 10:00 AM-10:00 PM, Sunday : 10:00 AM-10:00 PM",,,
"Culver's of St. Petersburg, FL - 4th St N - Coming Soon!",P,9046 4th St N,,St. Petersburg,FL,33702,US,,27.8547689795918,-82.63886,"Monday : 10:30 AM-10:00 PM, Thuesday : 10:30 AM-10:00 PM, Wednesday : 10:30 AM-10:00 PM, Thursday : 10:30 AM-10:00 PM, Friday : 10:30 AM-10:00 PM, Saturday : 10:30 AM-10:00 PM, Sunday : 10:30 AM-10:00 PM",,,
"Culver's of Crystal Lake, IL - Pingree Rd",199,501 Pingree Rd,,Crystal Lake,IL,60014,US,815-356-9090,42.227474,-88.297043,"Monday : 10:00 AM-10:00 PM, Thuesday : 10:00 AM-10:00 PM, Wednesday : 10:00 AM-10:00 PM, Thursday : 10:00 AM-10:00 PM, Friday : 10:00 AM-11:00 PM, Saturday : 10:00 AM-11:00 PM, Sunday : 10:00 AM-10:00 PM",,,
"Culver's of Yorkville, IL - Marketview Dr",327,1745 Marketview Dr,,Yorkville,IL,60560,US,630-882-6179,41.663275,-88.441489,"Monday : 10:30 AM-10:00 PM, Thuesday : 10:30 AM-10:00 PM, Wednesday : 10:30 AM-10:00 PM, Thursday : 10:30 AM-10:00 PM, Friday : 10:30 AM-10:00 PM, Saturday : 10:30 AM-10:00 PM, Sunday : 10:30 AM-10:00 PM",,,
"Culver's of Minooka, IL - Ridge Rd",353,2063 Ridge Rd,,Minooka,IL,60447,US,815-467-2815,41.421717,-88.270764,"Monday : 10:30 AM-10:00 PM, Thuesday : 10:30 AM-10:00 PM, Wednesday : 10:30 AM-10:00 PM, Thursday : 10:30 AM-10:00 PM, Friday : 10:30 AM-10:00 PM, Saturday : 10:30 AM-10:00 PM, Sunday : 10:30 AM-10:00 PM",,,
"Culver's of Huntley, IL - S IL Rte 47",110,12950 S IL Rte 47,,Huntley,IL,60142,US,847-659-9673,42.144491,-88.432133,"Monday : 10:00 AM-10:00 PM, Thuesday : 10:00 AM-10:00 PM, Wednesday : 10:00 AM-10:00 PM, Thursday : 10:00 AM-10:00 PM, Friday : 10:00 AM-10:00 PM, Saturday : 10:00 AM-10:00 PM, Sunday : 10:00 AM-10:00 PM",,,
"Culver's of McHenry, IL - Adams Dr",117,1101 Adams Dr,,McHenry,IL,60051,US,815-759-8910,42.343031,-88.2497,"Monday : 10:00 AM-10:00 PM, Thuesday : 10:00 AM-10:00 PM, Wednesday : 10:00 AM-10:00 PM, Thursday : 10:00 AM-10:00 PM, Friday : 10:00 AM-10:00 PM, Saturday : 10:00 AM-10:00 PM, Sunday : 10:00 AM-10:00 PM",,,
"Culver's of Antioch, IL - E IL Rte 173",305,451 E IL Rte 173,,Antioch,IL,60002,US,847-395-4949,42.466825,-88.065719,"Monday : 10:30 AM-10:00 PM, Thuesday : 10:30 AM-10:00 PM, Wednesday : 10:30 AM-10:00 PM, Thursday : 10:30 AM-10:00 PM, Friday : 10:30 AM-10:00 PM, Saturday : 10:30 AM-10:00 PM, Sunday : 10:30 AM-10:00 PM",,,
"Culver's of Pinellas Park, FL - Park Blvd N - Coming Soon!",P,4702 Park Blvd N,,Pinellas Park,FL,33781,US,,27.838826,-82.698317,"Monday : 10:30 AM-10:00 PM, Thuesday : 10:30 AM-10:00 PM, Wednesday : 10:30 AM-10:00 PM, Thursday : 10:30 AM-10:00 PM, Friday : 10:30 AM-10:00 PM, Saturday : 10:30 AM-10:00 PM, Sunday : 10:30 AM-10:00 PM",,,
"Culver's of Seminole, FL - Park Blvd",562,10425 Park Blvd,,Seminole,FL,33772,US,727-397-7700,27.83986,-82.78382,"Monday : 10:30 AM-10:00 PM, Thuesday : 10:30 AM-10:00 PM, Wednesday : 10:30 AM-10:00 PM, Thursday : 10:30 AM-10:00 PM, Friday : 10:30 AM-11:00 PM, Saturday : 10:30 AM-11:00 PM, Sunday : 10:30 AM-10:00 PM",,,
"Culver's of Bradenton, FL - FL-64 E",607,4714 FL-64 E,,Bradenton,FL,34208,US,941-708-0633,27.497913,-82.504214,"Monday : 10:00 AM-11:00 PM, Thuesday : 10:00 AM-11:00 PM, Wednesday : 10:00 AM-11:00 PM, Thursday : 10:00 AM-11:00 PM, Friday : 10:00 AM-11:00 PM, Saturday : 10:00 AM-11:00 PM, Sunday : 10:00 AM-11:00 PM",,,
"Culver's of Bradenton, FL - Ranch Lake Blvd",544,5750 Ranch Lake Blvd,,Bradenton,FL,34202,US,941-756-4000,27.43945,-82.457652,"Monday : 10:30 AM-10:00 PM, Thuesday : 10:30 AM-10:00 PM, Wednesday : 10:30 AM-10:00 PM, Thursday : 10:30 AM-10:00 PM, Friday : 10:30 AM-11:00 PM, Saturday : 10:30 AM-11:00 PM, Sunday : 10:30 AM-10:00 PM",,,
"Culver's of Bradenton, FL - Cortez Rd W",547,3515 Cortez Rd W,,Bradenton,FL,34210,US,941-216-3796,27.462073,-82.597431,"Monday : 10:00 AM-12:00 AM, Thuesday : 10:00 AM-12:00 AM, Wednesday : 10:00 AM-12:00 AM, Thursday : 10:00 AM-12:00 AM, Friday : 10:00 AM-12:00 AM, Saturday : 10:00 AM-12:00 AM, Sunday : 10:00 AM-12:00 AM",,,
"Culver's of Bourbonnais, IL - Convent St",392,983 Convent St,,Bourbonnais,IL,60914,US,815-614-3638,41.169704,-87.875776,"Monday : 10:00 AM-10:00 PM, Thuesday : 10:00 AM-10:00 PM, Wednesday : 10:00 AM-10:00 PM, Thursday : 10:00 AM-10:00 PM, Friday : 10:00 AM-10:00 PM, Saturday : 10:00 AM-10:00 PM, Sunday : 10:00 AM-10:00 PM",,,
"Culver's of Pleasant Prairie, WI - Corporate Dr",134,10484 Corporate Dr,,Pleasant Prairie,WI,53158,US,262-857-2663,42.523181,-87.945919,"Monday : 10:00 AM-10:00 PM, Thuesday : 10:00 AM-10:00 PM, Wednesday : 10:00 AM-10:00 PM, Thursday : 10:00 AM-10:00 PM, Friday : 10:00 AM-10:00 PM, Saturday : 10:00 AM-10:00 PM, Sunday : 10:00 AM-10:00 PM",,,
"Culver's of Kenosha, WI - Sheridan Rd",459,8124 Sheridan Rd,,Kenosha,WI,53143,US,262-484-4046,42.556358,-87.825738,"Monday : 10:00 AM-12:00 AM, Thuesday : 10:00 AM-12:00 AM, Wednesday : 10:00 AM-12:00 AM, Thursday : 10:00 AM-12:00 AM, Friday : 10:00 AM-12:00 AM, Saturday : 10:00 AM-12:00 AM, Sunday : 10:00 AM-12:00 AM",,,
"Culver's of Woodstock, IL - W Lake Shore Dr",180,1620 W Lake Shore Dr,,Woodstock,IL,60098,US,815-337-5730,42.290731,-88.416256,"Monday : 10:00 AM-10:00 PM, Thuesday : 10:00 AM-10:00 PM, Wednesday : 10:00 AM-10:00 PM, Thursday : 10:00 AM-10:00 PM, Friday : 10:00 AM-11:00 PM, Saturday : 10:00 AM-11:00 PM, Sunday : 10:00 AM-10:00 PM",,,
"Culver's of La Porte, IN - Pine Lake Ave",586,233 Pine Lake Ave,,La Porte,IN,46350,US,219-369-6450,41.617989,-86.734105,"Monday : 10:00 AM-10:00 PM, Thuesday : 10:00 AM-10:00 PM, Wednesday : 10:00 AM-10:00 PM, Thursday : 10:00 AM-10:00 PM, Friday : 10:00 AM-10:00 PM, Saturday : 10:00 AM-10:00 PM, Sunday : 10:00 AM-10:00 PM",,,
"Culver's of Morris, IL - N Division St",177,1919 N Division St,,Morris,IL,60450,US,815-941-1919,41.382269,-88.421382,"Monday : 10:00 AM-10:00 PM, Thuesday : 10:00 AM-10:00 PM, Wednesday : 10:00 AM-10:00 PM, Thursday : 10:00 AM-10:00 PM, Friday : 10:00 AM-10:00 PM, Saturday : 10:00 AM-10:00 PM, Sunday : 10:00 AM-10:00 PM",,,
"Culver's of Sarasota, FL - University Pkwy",511,2605 University Pkwy,,Sarasota,FL,34243,US,941-893-5805,27.389612,-82.518038,"Monday : 10:00 AM-10:00 PM, Thuesday : 10:00 AM-10:00 PM, Wednesday : 10:00 AM-10:00 PM, Thursday : 10:00 AM-10:00 PM, Friday : 10:00 AM-11:00 PM, Saturday : 10:00 AM-11:00 PM, Sunday : 10:00 AM-10:00 PM",,,
"Culver's of Sarasota, FL - Cattlemen Rd",574,90 Cattlemen Rd,,Sarasota,FL,34232,US,941-342-8999,27.33616,-82.45013,"Monday : 10:00 AM-10:00 PM, Thuesday : 10:00 AM-10:00 PM, Wednesday : 10:00 AM-10:00 PM, Thursday : 10:00 AM-10:00 PM, Friday : 10:00 AM-10:30 PM, Saturday : 10:00 AM-10:30 PM, Sunday : 10:00 AM-10:00 PM",,,
"Culver's of Sarasota, FL - S Tamiami Trl",528,7250 S Tamiami Trl,,Sarasota,FL,34231,US,941-960-2141,27.249572,-82.514028,"Monday : 10:00 AM-10:00 PM, Thuesday : 10:00 AM-10:00 PM, Wednesday : 10:00 AM-10:00 PM, Thursday : 10:00 AM-10:00 PM, Friday : 10:00 AM-10:00 PM, Saturday : 10:00 AM-10:00 PM, Sunday : 10:00 AM-10:00 PM",,,
"Culver's of Grovetown, GA - Gateway Blvd",598,4020 Gateway Blvd,,Grovetown,GA,30813,US,762-994-0024,33.479592,-82.196556,"Monday : 10:30 AM-10:00 PM, Thuesday : 10:30 AM-10:00 PM, Wednesday : 10:30 AM-10:00 PM, Thursday : 10:30 AM-10:00 PM, Friday : 10:30 AM-10:00 PM, Saturday : 10:30 AM-10:00 PM, Sunday : 10:30 AM-10:00 PM",,,
"Culver's of Port St. Lucie, FL - SW Tradition Pkwy - Coming Soon!",P,10770 SW Tradition Pkwy,,Port St. Lucie,FL,34987,US,,27.26402,-80.434417,"Monday : 10:30 AM-10:00 PM, Thuesday : 10:30 AM-10:00 PM, Wednesday : 10:30 AM-10:00 PM, Thursday : 10:30 AM-10:00 PM, Friday : 10:30 AM-10:00 PM, Saturday : 10:30 AM-10:00 PM, Sunday : 10:30 AM-10:00 PM",,,
"Culver's of Venice, FL - Times Cir",619,19355 Times Cir,,Venice,FL,34292,US,941-451-8576,27.10506,-82.38371,"Monday : 10:00 AM-10:00 PM, Thuesday : 10:00 AM-10:00 PM, Wednesday : 10:00 AM-10:00 PM, Thursday : 10:00 AM-10:00 PM, Friday : 10:00 AM-11:00 PM, Saturday : 10:00 AM-11:00 PM, Sunday : 10:00 AM-10:00 PM",,,
"Culver's of Kenosha, WI - Green Bay Rd",068,5220 Green Bay Rd,,Kenosha,WI,53144,US,262-652-2002,42.588369,-87.882956,"Monday : 10:00 AM-12:00 AM, Thuesday : 10:00 AM-12:00 AM, Wednesday : 10:00 AM-12:00 AM, Thursday : 10:00 AM-12:00 AM, Friday : 10:00 AM-12:00 AM, Saturday : 10:00 AM-12:00 AM, Sunday : 10:00 AM-12:00 AM",,,
"Culver's of Sycamore, IL - DeKalb Ave",107,1200 DeKalb Ave,,Sycamore,IL,60178,US,815-899-0200,41.981464,-88.704317,"Monday : 10:00 AM-10:00 PM, Thuesday : 10:00 AM-10:00 PM, Wednesday : 10:00 AM-10:00 PM, Thursday : 10:00 AM-10:00 PM, Friday : 10:00 AM-10:00 PM, Saturday : 10:00 AM-10:00 PM, Sunday : 10:00 AM-10:00 PM",,,
"Culver's of DeKalb, IL - W Lincoln Hwy",519,1262 W Lincoln Hwy,,DeKalb,IL,60115,US,779-777-7997,41.930453,-88.777471,"Monday : 10:00 AM-12:00 AM, Thuesday : 10:00 AM-12:00 AM, Wednesday : 10:00 AM-12:00 AM, Thursday : 10:00 AM-12:00 AM, Friday : 10:00 AM-12:00 AM, Saturday : 10:00 AM-12:00 AM, Sunday : 10:00 AM-12:00 AM",,,
"Culver's of Stevensville, MI - Red Arrow Hwy",236,4537 Red Arrow Hwy,,Stevensville,MI,49127,US,269-408-1780,42.035739,-86.513381,"Monday : 10:30 AM-10:00 PM, Thuesday : 10:30 AM-10:00 PM, Wednesday : 10:30 AM-10:00 PM, Thursday : 10:30 AM-10:00 PM, Friday : 10:30 AM-10:00 PM, Saturday : 10:30 AM-10:00 PM, Sunday : 10:30 AM-10:00 PM",,,
"Culver's of Racine, WI - 21st St",106,5801 21st St,,Racine,WI,53406,US,262-633-4170,42.704758,-87.849917,"Monday : 10:00 AM-10:00 PM, Thuesday : 10:00 AM-10:00 PM, Wednesday : 10:00 AM-10:00 PM, Thursday : 10:00 AM-10:00 PM, Friday : 10:00 AM-10:00 PM, Saturday : 10:00 AM-10:00 PM, Sunday : 10:00 AM-10:00 PM",,,
"Culver's of Racine, WI - S Sylvania Ave",056,722 S Sylvania Ave,,Sturtevant,WI,53177,US,262-884-1112,42.725858,-87.957058,"Monday : 10:00 AM-10:00 PM, Thuesday : 10:00 AM-10:00 PM, Wednesday : 10:00 AM-10:00 PM, Thursday : 10:00 AM-10:00 PM, Friday : 10:00 AM-10:00 PM, Saturday : 10:00 AM-10:00 PM, Sunday : 10:00 AM-10:00 PM",,,
"Culver's of Port Charlotte, FL - Kings Hwy",492,385 Kings Hwy,,Port Charlotte,FL,33983,US,941-627-2600,27.02291,-82.047072,"Monday : 10:30 AM-10:00 PM, Thuesday : 10:30 AM-10:00 PM, Wednesday : 10:30 AM-10:00 PM, Thursday : 10:30 AM-10:00 PM, Friday : 10:30 AM-10:00 PM, Saturday : 10:30 AM-10:00 PM, Sunday : 10:30 AM-10:00 PM",,,
"Culver's of North Port, FL - Tuscola Blvd",596,5648 Tuscola Blvd,,North Port,FL,34287,US,941-876-3681,27.04063,-82.22639,"Monday : 10:30 AM-10:00 PM, Thuesday : 10:30 AM-10:00 PM, Wednesday : 10:30 AM-10:00 PM, Thursday : 10:30 AM-10:00 PM, Friday : 10:30 AM-10:00 PM, Saturday : 10:30 AM-10:00 PM, Sunday : 10:30 AM-10:00 PM",,,
"Culver's of Port Charlotte, FL - El Jobean Rd",561,1140 El Jobean Rd,,Port Charlotte,FL,33948,US,941-766-9006,27.011,-82.15095,"Monday : 10:30 AM-10:00 PM, Thuesday : 10:30 AM-10:00 PM, Wednesday : 10:30 AM-10:00 PM, Thursday : 10:30 AM-10:00 PM, Friday : 10:30 AM-10:00 PM, Saturday : 10:30 AM-10:00 PM, Sunday : 10:30 AM-10:00 PM",,,
"Culver's of Stuart, FL - S Kanner Hwy - Coming Soon!",P,2501 S Kanner Hwy,,Stuart,FL,34994,US,,27.174488,-80.252329,"Monday : 10:00 AM-11:00 PM, Thuesday : 10:00 AM-11:00 PM, Wednesday : 10:00 AM-11:00 PM, Thursday : 10:00 AM-11:00 PM, Friday : 10:00 AM-11:00 PM, Saturday : 10:00 AM-11:00 PM, Sunday : 10:00 AM-11:00 PM",,,
"Culver's of Panama City Beach, FL - Panama City Beach Pkwy",571,11501 Panama City Beach Pkwy,,Panama City Beach,FL,32407,US,850-249-0709,30.19682,-85.81484,"Monday : 10:00 AM-10:00 PM, Thuesday : 10:00 AM-10:00 PM, Wednesday : 10:00 AM-10:00 PM, Thursday : 10:00 AM-10:00 PM, Friday : 10:00 AM-10:00 PM, Saturday : 10:00 AM-10:00 PM, Sunday : 10:00 AM-10:00 PM",,,
"Culver's of Lake Geneva, WI - N Wells St",023,151 N Wells St,,Lake Geneva,WI,53147,US,262-248-6730,42.590339,-88.428767,"Monday : 10:00 AM-10:00 PM, Thuesday : 10:00 AM-10:00 PM, Wednesday : 10:00 AM-10:00 PM, Thursday : 10:00 AM-10:00 PM, Friday : 10:00 AM-10:30 PM, Saturday : 10:00 AM-10:00 PM, Sunday : 10:00 AM-10:00 PM",,,
"Culver's of Burlington, WI - Milwaukee Ave",066,1073 Milwaukee Ave,,Burlington,WI,53105,US,262-763-5020,42.692172,-88.266356,"Monday : 10:30 AM-10:00 PM, Thuesday : 10:30 AM-10:00 PM, Wednesday : 10:30 AM-10:00 PM, Thursday : 10:30 AM-10:00 PM, Friday : 10:30 AM-10:00 PM, Saturday : 10:30 AM-10:00 PM, Sunday : 10:30 AM-10:00 PM",,,
"Culver's of Belvidere, IL - Big Thunder Blvd",083,1635 Big Thunder Blvd,,Belvidere,IL,61008,US,815-547-0181,42.272408,-88.858028,"Monday : 10:00 AM-10:00 PM, Thuesday : 10:00 AM-10:00 PM, Wednesday : 10:00 AM-10:00 PM, Thursday : 10:00 AM-10:00 PM, Friday : 10:00 AM-10:00 PM, Saturday : 10:00 AM-10:00 PM, Sunday : 10:00 AM-10:00 PM",,,
"Culver's of Ottawa, IL - Fairfield Ln",421,3001 Fairfield Ln,,Ottawa,IL,61350,US,815-431-2283,41.373577,-88.835263,"Monday : 10:00 AM-11:00 PM, Thuesday : 10:00 AM-11:00 PM, Wednesday : 10:00 AM-11:00 PM, Thursday : 10:00 AM-11:00 PM, Friday : 10:00 AM-11:00 PM, Saturday : 10:00 AM-11:00 PM, Sunday : 10:00 AM-11:00 PM",,,
"Culver's of Rochelle, IL - S Dement Rd",316,1060 S Dement Rd,,Rochelle,IL,61068,US,815-561-9720,41.931731,-89.034928,"Monday : 10:00 AM-10:00 PM, Thuesday : 10:00 AM-10:00 PM, Wednesday : 10:00 AM-10:00 PM, Thursday : 10:00 AM-10:00 PM, Friday : 10:00 AM-10:00 PM, Saturday : 10:00 AM-10:00 PM, Sunday : 10:00 AM-10:00 PM",,,
"Culver's of Franklin, WI - W Oakwood Park Ct",139,4220 W Oakwood Park Ct,,Franklin,WI,53132,US,414-423-1021,42.872019,-87.970136,"Monday : 10:30 AM-10:00 PM, Thuesday : 10:30 AM-10:00 PM, Wednesday : 10:30 AM-10:00 PM, Thursday : 10:30 AM-10:00 PM, Friday : 10:30 AM-10:00 PM, Saturday : 10:30 AM-10:00 PM, Sunday : 10:30 AM-10:00 PM",,,
"Culver's of Delavan, WI - E Geneva St",302,1931 E Geneva St,,Delavan,WI,53115,US,262-740-0289,42.628492,-88.610061,"Monday : 10:00 AM-10:00 PM, Thuesday : 10:00 AM-10:00 PM, Wednesday : 10:00 AM-10:00 PM, Thursday : 10:00 AM-10:00 PM, Friday : 10:00 AM-10:00 PM, Saturday : 10:00 AM-10:00 PM, Sunday : 10:00 AM-10:00 PM",,,
"Culver's of South Bend, IN - S Michigan St",386,4402 S Michigan St,,South Bend,IN,46614,US,574-299-9141,41.629788,-86.250624,"Monday : 10:00 AM-11:00 PM, Thuesday : 10:00 AM-11:00 PM, Wednesday : 10:00 AM-11:00 PM, Thursday : 10:00 AM-11:00 PM, Friday : 10:00 AM-11:00 PM, Saturday : 10:00 AM-11:00 PM, Sunday : 10:00 AM-11:00 PM",,,
"Culver's of Oak Creek, WI - S Howell Ave",040,7841 S Howell Ave,,Oak Creek,WI,53154,US,414-571-5000,42.901636,-87.912619,"Monday : 10:00 AM-10:00 PM, Thuesday : 10:00 AM-10:00 PM, Wednesday : 10:00 AM-10:00 PM, Thursday : 10:00 AM-10:00 PM, Friday : 10:00 AM-11:00 PM, Saturday : 10:00 AM-11:00 PM, Sunday : 10:00 AM-10:00 PM",,,
"Culver's of Elkhorn, WI - N Wisconsin St",063,1000 N Wisconsin St,,Elkhorn,WI,53121,US,262-723-3870,42.693208,-88.542394,"Monday : 10:00 AM-10:00 PM, Thuesday : 10:00 AM-10:00 PM, Wednesday : 10:00 AM-10:00 PM, Thursday : 10:00 AM-10:00 PM, Friday : 10:00 AM-10:00 PM, Saturday : 10:00 AM-10:00 PM, Sunday : 10:00 AM-10:00 PM",,,
"Culver's of Rockford, IL - Wansford Way",092,5610 Wansford Way,,Rockford,IL,61109,US,815-398-9938,42.237878,-89.00738,"Monday : 10:00 AM-10:00 PM, Thuesday : 10:00 AM-10:00 PM, Wednesday : 10:00 AM-10:00 PM, Thursday : 10:00 AM-10:00 PM, Friday : 10:00 AM-10:00 PM, Saturday : 10:00 AM-10:00 PM, Sunday : 10:00 AM-10:00 PM",,,
"Culver's of Rockford, IL - N Phelps Ave",198,236 N Phelps Ave,,Rockford,IL,61108,US,815-397-8035,42.2674,-89.005492,"Monday : 10:00 AM-10:00 PM, Thuesday : 10:00 AM-10:00 PM, Wednesday : 10:00 AM-10:00 PM, Thursday : 10:00 AM-10:00 PM, Friday : 10:00 AM-10:00 PM, Saturday : 10:00 AM-10:00 PM, Sunday : 10:00 AM-10:00 PM",,,
"Culver's of Rockford, IL - E Riverside Blvd",049,6727 E Riverside Blvd,,Rockford,IL,61114,US,815-654-1277,42.318118,-88.985152,"Monday : 10:00 AM-10:00 PM, Thuesday : 10:00 AM-10:00 PM, Wednesday : 10:00 AM-10:00 PM, Thursday : 10:00 AM-10:00 PM, Friday : 10:00 AM-10:00 PM, Saturday : 10:00 AM-10:00 PM, Sunday : 10:00 AM-10:00 PM",,,
"Culver's of Mishawaka, IN - N Main St",297,5520 N Main St,,Mishawaka,IN,46545,US,574-271-7161,41.710873,-86.179061,"Monday : 10:00 AM-11:00 PM, Thuesday : 10:00 AM-11:00 PM, Wednesday : 10:00 AM-11:00 PM, Thursday : 10:00 AM-11:00 PM, Friday : 10:00 AM-11:00 PM, Saturday : 10:00 AM-11:00 PM, Sunday : 10:00 AM-11:00 PM",,,
"Culver's of Muskego, WI - Racine Ave",036,W187S7959 Racine Ave,,Muskego,WI,53150,US,262-679-9959,42.900058,-88.148689,"Monday : 10:00 AM-10:00 PM, Thuesday : 10:00 AM-10:00 PM, Wednesday : 10:00 AM-10:00 PM, Thursday : 10:00 AM-10:00 PM, Friday : 10:00 AM-10:00 PM, Saturday : 10:00 AM-10:00 PM, Sunday : 10:00 AM-10:00 PM",,,
"Culver's of Hales Corners, WI - S 108th St",058,6101 S 108th St,,Hales Corners,WI,53130,US,414-427-3553,42.934197,-88.049467,"Monday : 10:00 AM-10:00 PM, Thuesday : 10:00 AM-10:00 PM, Wednesday : 10:00 AM-10:00 PM, Thursday : 10:00 AM-10:00 PM, Friday : 10:00 AM-10:00 PM, Saturday : 10:00 AM-10:00 PM, Sunday : 10:00 AM-10:00 PM",,,
"Culver's of Milwaukee, WI - W Layton Ave",099,575 W Layton Ave,,Milwaukee,WI,53207,US,414-489-7777,42.958583,-87.918936,"Monday : 10:00 AM-10:00 PM, Thuesday : 10:00 AM-10:00 PM, Wednesday : 10:00 AM-10:00 PM, Thursday : 10:00 AM-10:00 PM, Friday : 10:00 AM-10:00 PM, Saturday : 10:00 AM-10:00 PM, Sunday : 10:00 AM-10:00 PM",,,
"Culver's of Greenfield, WI - W Layton Ave",279,6031 W Layton Ave,,Greenfield,WI,53220,US,414-509-5262,42.958938,-87.989562,"Monday : 10:00 AM-10:00 PM, Thuesday : 10:00 AM-10:00 PM, Wednesday : 10:00 AM-10:00 PM, Thursday : 10:00 AM-10:00 PM, Friday : 10:00 AM-11:00 PM, Saturday : 10:00 AM-11:00 PM, Sunday : 10:00 AM-10:00 PM",,,
"Culver's of Mukwonago, WI - N Rochester St",053,1090 N Rochester St,,Mukwonago,WI,53149,US,262-363-4949,42.878631,-88.33945,"Monday : 10:30 AM-10:00 PM, Thuesday : 10:30 AM-10:00 PM, Wednesday : 10:30 AM-10:00 PM, Thursday : 10:30 AM-10:00 PM, Friday : 10:30 AM-10:00 PM, Saturday : 10:30 AM-10:00 PM, Sunday : 10:30 AM-10:00 PM",,,
"Culver's of Roscoe, IL - N 2nd St",037,9779 N 2nd St,,Roscoe,IL,61073,US,815-877-7880,42.401953,-89.010333,"Monday : 10:00 AM-10:00 PM, Thuesday : 10:00 AM-10:00 PM, Wednesday : 10:00 AM-10:00 PM, Thursday : 10:00 AM-10:00 PM, Friday : 10:00 AM-10:00 PM, Saturday : 10:00 AM-10:00 PM, Sunday : 10:00 AM-10:00 PM",,,
"Culver's of Rockford, IL - Benington Rd",125,1224 Benington Rd,,Rockford,IL,61103,US,815-633-6550,42.317814,-89.078911,"Monday : 10:00 AM-10:00 PM, Thuesday : 10:00 AM-10:00 PM, Wednesday : 10:00 AM-10:00 PM, Thursday : 10:00 AM-10:00 PM, Friday : 10:00 AM-10:00 PM, Saturday : 10:00 AM-10:00 PM, Sunday : 10:00 AM-10:00 PM",,,
"Culver's of New Berlin, WI - W National Ave",032,14855 W National Ave,,New Berlin,WI,53151,US,262-860-0111,42.982511,-88.098717,"Monday : 10:00 AM-10:00 PM, Thuesday : 10:00 AM-10:00 PM, Wednesday : 10:00 AM-10:00 PM, Thursday : 10:00 AM-10:00 PM, Friday : 10:00 AM-11:00 PM, Saturday : 10:00 AM-11:00 PM, Sunday : 10:00 AM-10:00 PM",,,
"Culver's of West Milwaukee, WI - Miller Pkwy",244,1641 Miller Pkwy,,West Milwaukee,WI,53214,US,414-645-1011,43.013086,-87.9682,"Monday : 10:00 AM-11:00 PM, Thuesday : 10:00 AM-11:00 PM, Wednesday : 10:00 AM-11:00 PM, Thursday : 10:00 AM-11:00 PM, Friday : 10:00 AM-11:00 PM, Saturday : 10:00 AM-11:00 PM, Sunday : 10:00 AM-11:00 PM",,,
"Culver's of West Allis, WI - S 108th St",299,1672 S 108th St,,West Allis,WI,53214,US,414-453-9750,43.011836,-88.045769,"Monday : 10:00 AM-10:00 PM, Thuesday : 10:00 AM-10:00 PM, Wednesday : 10:00 AM-10:00 PM, Thursday : 10:00 AM-10:00 PM, Friday : 10:00 AM-11:00 PM, Saturday : 10:00 AM-11:00 PM, Sunday : 10:00 AM-10:00 PM",,,
"Culver's of Beloit, WI - Cranston Rd",060,2676 Cranston Rd,,Beloit,WI,53511,US,608-365-4400,42.524894,-88.987997,"Monday : 10:00 AM-10:00 PM, Thuesday : 10:00 AM-10:00 PM, Wednesday : 10:00 AM-10:00 PM, Thursday : 10:00 AM-10:00 PM, Friday : 10:00 AM-10:00 PM, Saturday : 10:00 AM-10:00 PM, Sunday : 10:00 AM-10:00 PM",,,
"Culver's of Peru, IL - Midtown Rd",155,1600 Midtown Rd,,Peru,IL,61354,US,815-220-1980,41.347219,-89.124219,"Monday : 10:00 AM-11:00 PM, Thuesday : 10:00 AM-11:00 PM, Wednesday : 10:00 AM-11:00 PM, Thursday : 10:00 AM-11:00 PM, Friday : 10:00 AM-11:00 PM, Saturday : 10:00 AM-11:00 PM, Sunday : 10:00 AM-11:00 PM",,,
"Culver's of Waukesha, WI - W Sunset Dr",045,840 W Sunset Dr,,Waukesha,WI,53189,US,262-524-1030,42.988608,-88.246844,"Monday : 10:00 AM-10:00 PM, Thuesday : 10:00 AM-10:00 PM, Wednesday : 10:00 AM-10:00 PM, Thursday : 10:00 AM-10:00 PM, Friday : 10:00 AM-10:00 PM, Saturday : 10:00 AM-10:00 PM, Sunday : 10:00 AM-10:00 PM",,,
"Culver's of Elm Grove, WI - W Bluemound Rd",464,15280 W Bluemound Rd,,Elm Grove,WI,53122,US,262-784-4470,43.036535,-88.103721,"Monday : 10:00 AM-10:00 PM, Thuesday : 10:00 AM-10:00 PM, Wednesday : 10:00 AM-10:00 PM, Thursday : 10:00 AM-10:00 PM, Friday : 10:00 AM-11:00 PM, Saturday : 10:00 AM-11:00 PM, Sunday : 10:00 AM-10:00 PM",,,
"Culver's of Waukesha, WI - E Main St",073,1650 E Main St,,Waukesha,WI,53186,US,262-542-5700,43.022751,-88.201701,"Monday : 10:00 AM-10:00 PM, Thuesday : 10:00 AM-10:00 PM, Wednesday : 10:00 AM-10:00 PM, Thursday : 10:00 AM-10:00 PM, Friday : 10:00 AM-10:00 PM, Saturday : 10:00 AM-10:00 PM, Sunday : 10:00 AM-10:00 PM",,,
"Culver's of Elkhart, IN - Emerson Dr",256,2726 Emerson Dr,,Elkhart,IN,46514,US,574-266-8610,41.723042,-85.980713,"Monday : 10:30 AM-10:00 PM, Thuesday : 10:30 AM-10:00 PM, Wednesday : 10:30 AM-10:00 PM, Thursday : 10:30 AM-10:00 PM, Friday : 10:30 AM-10:00 PM, Saturday : 10:30 AM-10:00 PM, Sunday : 10:30 AM-10:00 PM",,,
"Culver's of Shorewood, WI - E Capitol Dr",179,1325 E Capitol Dr,,Shorewood,WI,53211,US,414-962-4444,43.088606,-87.893931,"Monday : 10:00 AM-10:00 PM, Thuesday : 10:00 AM-10:00 PM, Wednesday : 10:00 AM-10:00 PM, Thursday : 10:00 AM-10:00 PM, Friday : 10:00 AM-10:00 PM, Saturday : 10:00 AM-10:00 PM, Sunday : 10:00 AM-10:00 PM",,,
"Culver's of Winnebago, IL - Cannell Puri Dr",075,807 Cannell Puri Dr,,Winnebago,IL,61088,US,815-335-2801,42.279003,-89.242369,"Monday : 10:00 AM-10:00 PM, Thuesday : 10:00 AM-10:00 PM, Wednesday : 10:00 AM-10:00 PM, Thursday : 10:00 AM-10:00 PM, Friday : 10:00 AM-10:00 PM, Saturday : 10:00 AM-10:00 PM, Sunday : 10:00 AM-10:00 PM",,,
"Culver's of Milwaukee, WI - W Fond du Lac Ave",235,5501 W Fond du Lac Ave,,Milwaukee,WI,53216,US,414-442-9710,43.094344,-87.982619,"Monday : 10:00 AM-11:00 PM, Thuesday : 10:00 AM-11:00 PM, Wednesday : 10:00 AM-11:00 PM, Thursday : 10:00 AM-11:00 PM, Friday : 10:00 AM-11:00 PM, Saturday : 10:00 AM-11:00 PM, Sunday : 10:00 AM-11:00 PM",,,
"Culver's of Waukesha, WI - N Grandview Blvd",004,2600 N Grandview Blvd,,Waukesha,WI,53188,US,262-521-9339,43.039831,-88.256425,"Monday : 10:30 AM-10:00 PM, Thuesday : 10:30 AM-10:00 PM, Wednesday : 10:30 AM-10:00 PM, Thursday : 10:30 AM-10:00 PM, Friday : 10:30 AM-10:00 PM, Saturday : 10:30 AM-10:00 PM, Sunday : 10:30 AM-10:00 PM",,,
"Culver's of Brookfield, WI - N 124th St",218,3705 N 124th St,,Brookfield,WI,53005,US,262-781-6610,43.085407,-88.067028,"Monday : 10:00 AM-10:00 PM, Thuesday : 10:00 AM-10:00 PM, Wednesday : 10:00 AM-10:00 PM, Thursday : 10:00 AM-10:00 PM, Friday : 10:00 AM-11:00 PM, Saturday : 10:00 AM-11:00 PM, Sunday : 10:00 AM-10:00 PM",,,
"Culver's of Janesville, WI - Midland Rd",555,645 Midland Rd,,Janesville,WI,53546,US,608-554-3712,42.672423,-88.977852,"Monday : 10:00 AM-10:00 PM, Thuesday : 10:00 AM-10:00 PM, Wednesday : 10:00 AM-10:00 PM, Thursday : 10:00 AM-10:00 PM, Friday : 10:00 AM-10:00 PM, Saturday : 10:00 AM-10:00 PM, Sunday : 10:00 AM-10:00 PM",,,
"Culver's of Wales, WI - E Summit Ave",456,400 E Summit Ave,,Wales,WI,53183,US,262-968-1830,43.01516,-88.373882,"Monday : 10:00 AM-10:00 PM, Thuesday : 10:00 AM-10:00 PM, Wednesday : 10:00 AM-10:00 PM, Thursday : 10:00 AM-10:00 PM, Friday : 10:00 AM-10:00 PM, Saturday : 10:00 AM-10:00 PM, Sunday : 10:00 AM-10:00 PM",,,
"Culver's of Whitewater, WI - W Main St",148,1414 W Main St,,Whitewater,WI,53190,US,262-472-9999,42.835281,-88.760519,"Monday : 10:00 AM-10:00 PM, Thuesday : 10:00 AM-10:00 PM, Wednesday : 10:00 AM-10:00 PM, Thursday : 10:00 AM-10:00 PM, Friday : 10:00 AM-10:00 PM, Saturday : 10:00 AM-10:00 PM, Sunday : 10:00 AM-10:00 PM",,,
"Culver's of Brookfield, WI - W Capitol Dr",059,21300 W Capitol Dr,,Pewaukee,WI,53072,US,262-790-0981,43.084161,-88.177492,"Monday : 10:00 AM-10:00 PM, Thuesday : 10:00 AM-10:00 PM, Wednesday : 10:00 AM-10:00 PM, Thursday : 10:00 AM-10:00 PM, Friday : 10:00 AM-11:00 PM, Saturday : 10:00 AM-11:00 PM, Sunday : 10:00 AM-10:00 PM",,,
"Culver's of Janesville, WI - Milton Ave",024,2633 Milton Ave,,Janesville,WI,53545,US,608-758-8916,42.714922,-89.000997,"Monday : 10:30 AM-10:00 PM, Thuesday : 10:30 AM-10:00 PM, Wednesday : 10:30 AM-10:00 PM, Thursday : 10:30 AM-10:00 PM, Friday : 10:30 AM-10:00 PM, Saturday : 10:30 AM-10:00 PM, Sunday : 10:30 AM-10:00 PM",,,
"Culver's of Milwaukee, WI - W Good Hope Rd",383,7515 W Good Hope Rd,,Milwaukee,WI,53223,US,414-760-0500,43.148287,-88.004266,"Monday : 10:00 AM-10:00 PM, Thuesday : 10:00 AM-10:00 PM, Wednesday : 10:00 AM-10:00 PM, Thursday : 10:00 AM-10:00 PM, Friday : 10:00 AM-10:00 PM, Saturday : 10:00 AM-10:00 PM, Sunday : 10:00 AM-10:00 PM",,,
"Culver's of Janesville, WI - W Court St",113,2421 W Court St,,Janesville,WI,53548,US,608-756-2611,42.6789,-89.0502,"Monday : 10:30 AM-10:00 PM, Thuesday : 10:30 AM-10:00 PM, Wednesday : 10:30 AM-10:00 PM, Thursday : 10:30 AM-10:00 PM, Friday : 10:30 AM-10:00 PM, Saturday : 10:30 AM-10:00 PM, Sunday : 10:30 AM-10:00 PM",,,
"Culver's of Hartland, WI - Industrial Ct",427,701 Industrial Ct,,Hartland,WI,53029,US,262-367-5800,43.092851,-88.360578,"Monday : 10:00 AM-10:00 PM, Thuesday : 10:00 AM-10:00 PM, Wednesday : 10:00 AM-10:00 PM, Thursday : 10:00 AM-10:00 PM, Friday : 10:00 AM-10:00 PM, Saturday : 10:00 AM-10:00 PM, Sunday : 10:00 AM-10:00 PM",,,
"Culver's of Brown Deer, WI - W Schroeder Dr",115,4327 W Schroeder Dr,,Brown Deer,WI,53223,US,414-371-0500,43.186111,-87.965136,"Monday : 10:00 AM-10:00 PM, Thuesday : 10:00 AM-10:00 PM, Wednesday : 10:00 AM-10:00 PM, Thursday : 10:00 AM-10:00 PM, Friday : 10:00 AM-10:00 PM, Saturday : 10:00 AM-10:00 PM, Sunday : 10:00 AM-10:00 PM",,,
"Culver's of Sussex, WI - Hwy 164",123,W249N6620 Hwy 164,,Sussex,WI,53089,US,262-820-9592,43.137952,-88.243324,"Monday : 10:00 AM-10:00 PM, Thuesday : 10:00 AM-10:00 PM, Wednesday : 10:00 AM-10:00 PM, Thursday : 10:00 AM-10:00 PM, Friday : 10:00 AM-11:00 PM, Saturday : 10:00 AM-11:00 PM, Sunday : 10:00 AM-10:00 PM",,,
"Culver's of Dixon, IL - N Galena Ave",151,1317 N Galena Ave,,Dixon,IL,61021,US,815-288-9403,41.861117,-89.498728,"Monday : 10:00 AM-10:00 PM, Thuesday : 10:00 AM-10:00 PM, Wednesday : 10:00 AM-10:00 PM, Thursday : 10:00 AM-10:00 PM, Friday : 10:00 AM-10:00 PM, Saturday : 10:00 AM-10:00 PM, Sunday : 10:00 AM-10:00 PM",,,
"Culver's of Oconomowoc, WI - Summit Ave",016,1177 Summit Ave,,Oconomowoc,WI,53066,US,262-567-8860,43.092892,-88.478964,"Monday : 10:00 AM-10:00 PM, Thuesday : 10:00 AM-10:00 PM, Wednesday : 10:00 AM-10:00 PM, Thursday : 10:00 AM-10:00 PM, Friday : 10:00 AM-10:00 PM, Saturday : 10:00 AM-10:00 PM, Sunday : 10:00 AM-10:00 PM",,,
"Culver's of Mequon, WI - N Port Washington Rd",204,11150 N Port Washington Rd,,Mequon,WI,53092,US,262-834-0500,43.220753,-87.923442,"Monday : 10:00 AM-10:00 PM, Thuesday : 10:00 AM-10:00 PM, Wednesday : 10:00 AM-10:00 PM, Thursday : 10:00 AM-10:00 PM, Friday : 10:00 AM-10:00 PM, Saturday : 10:00 AM-10:00 PM, Sunday : 10:00 AM-10:00 PM",,,
"Culver's of Menomonee Falls, WI - Bancroft Dr",013,W186N9581 Bancroft Dr,,Menomonee Falls,WI,53051,US,262-255-7718,43.191656,-88.140764,"Monday : 10:00 AM-10:00 PM, Thuesday : 10:00 AM-10:00 PM, Wednesday : 10:00 AM-10:00 PM, Thursday : 10:00 AM-10:00 PM, Friday : 10:00 AM-11:00 PM, Saturday : 10:00 AM-11:00 PM, Sunday : 10:00 AM-10:00 PM",,,
"Culver's of Fort Atkinson, WI - Madison Ave",051,1551 Madison Ave,,Fort Atkinson,WI,53538,US,920-563-9000,42.940697,-88.861069,"Monday : 10:00 AM-10:00 PM, Thuesday : 10:00 AM-10:00 PM, Wednesday : 10:00 AM-10:00 PM, Thursday : 10:00 AM-10:00 PM, Friday : 10:00 AM-10:00 PM, Saturday : 10:00 AM-10:00 PM, Sunday : 10:00 AM-10:00 PM",,,
"Culver's of Edgerton, WI - Newville",281,571 E Richardson Springs Rd,,Edgerton,WI,53534,US,608-884-1800,42.832594,-89.025514,"Monday : 10:30 AM-10:00 PM, Thuesday : 10:30 AM-10:00 PM, Wednesday : 10:30 AM-10:00 PM, Thursday : 10:30 AM-10:00 PM, Friday : 10:30 AM-10:00 PM, Saturday : 10:30 AM-10:00 PM, Sunday : 10:30 AM-10:00 PM",,,
"Culver's of Goshen, IN - Lincoln Way E",498,2019 Lincoln Way E,,Goshen,IN,46526,US,574-534-4455,41.559998,-85.79567,"Monday : 10:00 AM-11:00 PM, Thuesday : 10:00 AM-11:00 PM, Wednesday : 10:00 AM-11:00 PM, Thursday : 10:00 AM-11:00 PM, Friday : 10:00 AM-11:00 PM, Saturday : 10:00 AM-11:00 PM, Sunday : 10:00 AM-11:00 PM",,,
"Culver's of Princeton, IL - Ace Rd",241,224 Ace Rd,,Princeton,IL,61356,US,815-875-3131,41.394889,-89.464269,"Monday : 10:00 AM-10:00 PM, Thuesday : 10:00 AM-10:00 PM, Wednesday : 10:00 AM-10:00 PM, Thursday : 10:00 AM-10:00 PM, Friday : 10:00 AM-10:00 PM, Saturday : 10:00 AM-10:00 PM, Sunday : 10:00 AM-10:00 PM",,,
"Culver's of Grafton, WI - Wisconsin Ave",025,2001 Wisconsin Ave,,Grafton,WI,53024,US,262-377-0500,43.304972,-87.961006,"Monday : 10:30 AM-10:00 PM, Thuesday : 10:30 AM-10:00 PM, Wednesday : 10:30 AM-10:00 PM, Thursday : 10:30 AM-10:00 PM, Friday : 10:30 AM-10:00 PM, Saturday : 10:30 AM-10:00 PM, Sunday : 10:30 AM-10:00 PM",,,
"Culver's of Johnson Creek, WI - Village Walk Ln",090,525 Village Walk Ln,,Johnson Creek,WI,53038,US,920-699-8420,43.083262,-88.76392,"Monday : 10:00 AM-10:00 PM, Thuesday : 10:00 AM-10:00 PM, Wednesday : 10:00 AM-10:00 PM, Thursday : 10:00 AM-10:00 PM, Friday : 10:00 AM-10:00 PM, Saturday : 10:00 AM-10:00 PM, Sunday : 10:00 AM-10:00 PM",,,
"Culver's of Warsaw, IN - N Parker St",423,852 N Parker St,,Warsaw,IN,46582,US,574-306-2581,41.246876,-85.822147,"Monday : 10:00 AM-10:00 PM, Thuesday : 10:00 AM-10:00 PM, Wednesday : 10:00 AM-10:00 PM, Thursday : 10:00 AM-10:00 PM, Friday : 10:00 AM-10:00 PM, Saturday : 10:00 AM-10:00 PM, Sunday : 10:00 AM-10:00 PM",,,
"Culver's of Holland, MI - W Shore Dr",213,3035 W Shore Dr,,Holland,MI,49424,US,616-399-8475,42.82365,-86.092133,"Monday : 10:00 AM-11:00 PM, Thuesday : 10:00 AM-11:00 PM, Wednesday : 10:00 AM-11:00 PM, Thursday : 10:00 AM-11:00 PM, Friday : 10:00 AM-11:00 PM, Saturday : 10:00 AM-11:00 PM, Sunday : 10:00 AM-11:00 PM",,,
"Culver's of Kalamazoo, MI - S 9th St",114,5143 S 9th St,,Kalamazoo,MI,49009,US,269-544-2370,42.2433,-85.676931,"Monday : 10:00 AM-10:00 PM, Thuesday : 10:00 AM-10:00 PM, Wednesday : 10:00 AM-10:00 PM, Thursday : 10:00 AM-10:00 PM, Friday : 10:00 AM-10:00 PM, Saturday : 10:00 AM-10:00 PM, Sunday : 10:00 AM-10:00 PM",,,
"Culver's of Rock Falls, IL - Harley Davidson Dr",118,1901 Harley Davidson Dr,,Rock Falls,IL,61071,US,815-535-9401,41.762975,-89.688983,"Monday : 10:00 AM-10:00 PM, Thuesday : 10:00 AM-10:00 PM, Wednesday : 10:00 AM-10:00 PM, Thursday : 10:00 AM-10:00 PM, Friday : 10:00 AM-10:00 PM, Saturday : 10:00 AM-10:00 PM, Sunday : 10:00 AM-10:00 PM",,,
"Culver's of Jackson, WI - Tillie Lake Ct",095,W227N16880 Tillie Lake Ct,,Jackson,WI,53037,US,262-677-8313,43.325519,-88.188831,"Monday : 10:00 AM-10:00 PM, Thuesday : 10:00 AM-10:00 PM, Wednesday : 10:00 AM-10:00 PM, Thursday : 10:00 AM-10:00 PM, Friday : 10:00 AM-10:00 PM, Saturday : 10:00 AM-10:00 PM, Sunday : 10:00 AM-10:00 PM",,,
"Culver's of Freeport, IL - Dirck Dr",086,1690 Dirck Dr,,Freeport,IL,61032,US,815-297-1440,42.280667,-89.634414,"Monday : 10:00 AM-10:00 PM, Thuesday : 10:00 AM-10:00 PM, Wednesday : 10:00 AM-10:00 PM, Thursday : 10:00 AM-10:00 PM, Friday : 10:00 AM-10:00 PM, Saturday : 10:00 AM-10:00 PM, Sunday : 10:00 AM-10:00 PM",,,
"Culver's of Watertown, WI - S Church St",021,1722 S Church St,,Watertown,WI,53094,US,920-261-3388,43.171936,-88.732936,"Monday : 10:00 AM-10:00 PM, Thuesday : 10:00 AM-10:00 PM, Wednesday : 10:00 AM-10:00 PM, Thursday : 10:00 AM-10:00 PM, Friday : 10:00 AM-10:00 PM, Saturday : 10:00 AM-10:00 PM, Sunday : 10:00 AM-10:00 PM",,,
"Culver's of Port Washington, WI - W Grand Ave",081,1407 W Grand Ave,,Port Washington,WI,53074,US,262-268-6888,43.386144,-87.897203,"Monday : 10:00 AM-10:00 PM, Thuesday : 10:00 AM-10:00 PM, Wednesday : 10:00 AM-10:00 PM, Thursday : 10:00 AM-10:00 PM, Friday : 10:00 AM-10:00 PM, Saturday : 10:00 AM-10:00 PM, Sunday : 10:00 AM-10:00 PM",,,
"Culver's of Lake Mills, WI - Tyranena Park Rd",579,190 Tyranena Park Rd,,Lake Mills,WI,53551,US,920-945-0022,43.089873,-88.910869,"Monday : 10:00 AM-10:00 PM, Thuesday : 10:00 AM-10:00 PM, Wednesday : 10:00 AM-10:00 PM, Thursday : 10:00 AM-10:00 PM, Friday : 10:00 AM-10:00 PM, Saturday : 10:00 AM-10:00 PM, Sunday : 10:00 AM-10:00 PM",,,
"Culver's of Lafayette, IN - N Creasy Ln",188,340 N Creasy Ln,,Lafayette,IN,47905,US,765-449-1169,40.420997,-86.840144,"Monday : 10:30 AM-10:00 PM, Thuesday : 10:30 AM-10:00 PM, Wednesday : 10:30 AM-10:00 PM, Thursday : 10:30 AM-10:00 PM, Friday : 10:30 AM-10:00 PM, Saturday : 10:30 AM-10:00 PM, Sunday : 10:30 AM-10:00 PM",,,
"Culver's of Hartford, WI - E Sumner St",212,1570 E Sumner St,,Hartford,WI,53027,US,262-670-6093,43.318122,-88.350464,"Monday : 10:00 AM-10:00 PM, Thuesday : 10:00 AM-10:00 PM, Wednesday : 10:00 AM-10:00 PM, Thursday : 10:00 AM-10:00 PM, Friday : 10:00 AM-11:00 PM, Saturday : 10:00 AM-11:00 PM, Sunday : 10:00 AM-10:00 PM",,,
"Culver's of Portage, MI - S Westnedge Ave",318,7262 S Westnedge Ave,,Portage,MI,49002,US,269-321-1800,42.211642,-85.590141,"Monday : 10:00 AM-10:00 PM, Thuesday : 10:00 AM-10:00 PM, Wednesday : 10:00 AM-10:00 PM, Thursday : 10:00 AM-10:00 PM, Friday : 10:00 AM-10:00 PM, Saturday : 10:00 AM-10:00 PM, Sunday : 10:00 AM-10:00 PM",,,
"Culver's of Otsego, MI - Allegan St",552,1369 Allegan St,,Otsego,MI,49078,US,269-692-3800,42.450472,-85.678041,"Monday : 10:00 AM-10:00 PM, Thuesday : 10:00 AM-10:00 PM, Wednesday : 10:00 AM-10:00 PM, Thursday : 10:00 AM-10:00 PM, Friday : 10:00 AM-10:00 PM, Saturday : 10:00 AM-10:00 PM, Sunday : 10:00 AM-10:00 PM",,,
"Culver's of Stoughton, WI - Nygaard St",129,916 Nygaard St,,Stoughton,WI,53589,US,608-873-6635,42.926508,-89.249806,"Monday : 10:30 AM-10:00 PM, Thuesday : 10:30 AM-10:00 PM, Wednesday : 10:30 AM-10:00 PM, Thursday : 10:30 AM-10:00 PM, Friday : 10:30 AM-10:00 PM, Saturday : 10:30 AM-10:00 PM, Sunday : 10:30 AM-10:00 PM",,,
"Culver's of Grand Haven, MI - A Way",357,520 A Way,,Grand Haven,MI,49417,US,616-842-0070,43.066945,-86.221289,"Monday : 10:00 AM-10:00 PM, Thuesday : 10:00 AM-10:00 PM, Wednesday : 10:00 AM-10:00 PM, Thursday : 10:00 AM-10:00 PM, Friday : 10:00 AM-10:00 PM, Saturday : 10:00 AM-10:00 PM, Sunday : 10:00 AM-10:00 PM",,,
"Culver's of West Bend, WI - W Washington St",035,2350 W Washington St,,West Bend,WI,53090,US,262-335-9820,43.428075,-88.212247,"Monday : 10:00 AM-10:00 PM, Thuesday : 10:00 AM-10:00 PM, Wednesday : 10:00 AM-10:00 PM, Thursday : 10:00 AM-10:00 PM, Friday : 10:00 AM-11:00 PM, Saturday : 10:00 AM-11:00 PM, Sunday : 10:00 AM-10:00 PM",,,
"Culver's of Sturgis, MI - S Centerville Rd",530,830 S Centerville Rd,,Sturgis,MI,49091,US,269-503-8550,41.789867,-85.427906,"Monday : 10:00 AM-10:00 PM, Thuesday : 10:00 AM-10:00 PM, Wednesday : 10:00 AM-10:00 PM, Thursday : 10:00 AM-10:00 PM, Friday : 10:00 AM-10:00 PM, Saturday : 10:00 AM-10:00 PM, Sunday : 10:00 AM-10:00 PM",,,
"Culver's of Kalamazoo, MI - Gull Rd",424,6097 Gull Rd,,Kalamazoo,MI,49048,US,269-383-1800,42.329281,-85.510582,"Monday : 10:00 AM-10:00 PM, Thuesday : 10:00 AM-10:00 PM, Wednesday : 10:00 AM-10:00 PM, Thursday : 10:00 AM-10:00 PM, Friday : 10:00 AM-10:00 PM, Saturday : 10:00 AM-10:00 PM, Sunday : 10:00 AM-10:00 PM",,,
"Culver's of Monroe, WI - 8th St",242,252 8th St,,Monroe,WI,53566,US,608-325-3700,42.603086,-89.655983,"Monday : 10:00 AM-10:00 PM, Thuesday : 10:00 AM-10:00 PM, Wednesday : 10:00 AM-10:00 PM, Thursday : 10:00 AM-10:00 PM, Friday : 10:00 AM-10:00 PM, Saturday : 10:00 AM-10:00 PM, Sunday : 10:00 AM-10:00 PM",,,
"Culver's of Danville, IL - N Vermilion St",489,3210 N Vermilion St,,Danville,IL,61832,US,217-213-6022,40.175762,-87.630558,"Monday : 10:00 AM-10:00 PM, Thuesday : 10:00 AM-10:00 PM, Wednesday : 10:00 AM-10:00 PM, Thursday : 10:00 AM-10:00 PM, Friday : 10:00 AM-10:00 PM, Saturday : 10:00 AM-10:00 PM, Sunday : 10:00 AM-10:00 PM",,,
"Culver's of Bloomington, IL - Hershey Rd",138,901 Hershey Rd,,Bloomington,IL,61704,US,309-662-7070,40.486431,-88.942847,"Monday : 10:30 AM-10:00 PM, Thuesday : 10:30 AM-10:00 PM, Wednesday : 10:30 AM-10:00 PM, Thursday : 10:30 AM-10:00 PM, Friday : 10:30 AM-10:00 PM, Saturday : 10:30 AM-10:00 PM, Sunday : 10:30 AM-10:00 PM",,,
"Culver's of McFarland, WI - Farwell St",014,4700 Farwell St,,McFarland,WI,53558,US,608-838-6667,43.013753,-89.3024,"Monday : 10:00 AM-10:30 PM, Thuesday : 10:00 AM-10:30 PM, Wednesday : 10:00 AM-10:30 PM, Thursday : 10:00 AM-10:30 PM, Friday : 10:00 AM-10:30 PM, Saturday : 10:00 AM-10:30 PM, Sunday : 10:00 AM-10:30 PM",,,
"Culver's of Cottage Grove, WI - Landmark Dr",585,1599 Landmark Dr,,Cottage Grove,WI,53527,US,608-839-0147,43.10448,-89.198484,"Monday : 10:00 AM-10:00 PM, Thuesday : 10:00 AM-10:00 PM, Wednesday : 10:00 AM-10:00 PM, Thursday : 10:00 AM-10:00 PM, Friday : 10:00 AM-10:00 PM, Saturday : 10:00 AM-10:00 PM, Sunday : 10:00 AM-10:00 PM",,,
"Culver's of Wabash, IN - N Cass St",393,1321 N Cass St,,Wabash,IN,46992,US,260-225-0446,40.815498,-85.835852,"Monday : 10:30 AM-10:00 PM, Thuesday : 10:30 AM-10:00 PM, Wednesday : 10:30 AM-10:00 PM, Thursday : 10:30 AM-10:00 PM, Friday : 10:30 AM-10:00 PM, Saturday : 10:30 AM-10:00 PM, Sunday : 10:30 AM-10:00 PM",,,
"Culver's of Bloomington, IL - W Market St",191,1807 W Market St,,Bloomington,IL,61701,US,309-827-3527,40.484389,-89.021341,"Monday : 10:30 AM-10:00 PM, Thuesday : 10:30 AM-10:00 PM, Wednesday : 10:30 AM-10:00 PM, Thursday : 10:30 AM-10:00 PM, Friday : 10:30 AM-10:00 PM, Saturday : 10:30 AM-10:00 PM, Sunday : 10:30 AM-10:00 PM",,,
"Culver's of Jenison, MI - Cottonwood Dr",263,7393 Cottonwood Dr,,Jenison,MI,49428,US,616-457-3209,42.903281,-85.793378,"Monday : 10:00 AM-11:00 PM, Thuesday : 10:00 AM-11:00 PM, Wednesday : 10:00 AM-11:00 PM, Thursday : 10:00 AM-11:00 PM, Friday : 10:00 AM-11:00 PM, Saturday : 10:00 AM-11:00 PM, Sunday : 10:00 AM-11:00 PM",,,
"Culver's of Madison, WI - Cottage Grove Rd",147,4401 Cottage Grove Rd,,Madison,WI,53716,US,608-268-0211,43.083744,-89.307992,"Monday : 10:00 AM-10:30 PM, Thuesday : 10:00 AM-10:30 PM, Wednesday : 10:00 AM-10:30 PM, Thursday : 10:00 AM-10:30 PM, Friday : 10:00 AM-10:30 PM, Saturday : 10:00 AM-10:30 PM, Sunday : 10:00 AM-10:30 PM",,,
"Culver's of New Glarus, WI - State Rd 69",042,1405 State Rd 69,,New Glarus,WI,53574,US,608-527-5690,42.805817,-89.632286,"Monday : 10:00 AM-10:00 PM, Thuesday : 10:00 AM-10:00 PM, Wednesday : 10:00 AM-10:00 PM, Thursday : 10:00 AM-10:00 PM, Friday : 10:00 AM-10:00 PM, Saturday : 10:00 AM-10:00 PM, Sunday : 10:00 AM-10:00 PM",,,
"Culver's of Madison, WI - Todd Dr",041,2102 W Beltline Hwy,,Madison,WI,53713,US,608-274-1221,43.036018,-89.415283,"Monday : 10:00 AM-12:00 AM, Thuesday : 10:00 AM-12:00 AM, Wednesday : 10:00 AM-12:00 AM, Thursday : 10:00 AM-12:00 AM, Friday : 10:00 AM-12:00 AM, Saturday : 10:00 AM-12:00 AM, Sunday : 10:00 AM-12:00 AM",,,
"Culver's of Madison, WI - East Towne Blvd",078,4301 East Towne Blvd,,Madison,WI,53704,US,608-244-0808,43.12536,-89.30866,"Monday : 10:00 AM-10:00 PM, Thuesday : 10:00 AM-10:00 PM, Wednesday : 10:00 AM-10:00 PM, Thursday : 10:00 AM-10:00 PM, Friday : 10:00 AM-11:00 PM, Saturday : 10:00 AM-11:00 PM, Sunday : 10:00 AM-10:00 PM",,,
"Culver's of Sun Prairie, WI - W Main St",007,1501 W Main St,,Sun Prairie,WI,53590,US,608-825-2122,43.178178,-89.238947,"Monday : 10:00 AM-11:00 PM, Thuesday : 10:00 AM-11:00 PM, Wednesday : 10:00 AM-11:00 PM, Thursday : 10:00 AM-11:00 PM, Friday : 10:00 AM-11:00 PM, Saturday : 10:00 AM-11:00 PM, Sunday : 10:00 AM-11:00 PM",,,
"Culver's of Champaign, IL - W Marketview Dr",173,903 W Marketview Dr,,Champaign,IL,61822,US,217-356-8132,40.137803,-88.259675,"Monday : 10:00 AM-10:00 PM, Thuesday : 10:00 AM-10:00 PM, Wednesday : 10:00 AM-10:00 PM, Thursday : 10:00 AM-10:00 PM, Friday : 10:00 AM-10:00 PM, Saturday : 10:00 AM-10:00 PM, Sunday : 10:00 AM-10:00 PM",,,
"Culver's of Wyoming, MI - 54th St",208,245 54th St,,Wyoming,MI,49548,US,616-530-8680,42.866747,-85.669764,"Monday : 10:00 AM-10:00 PM, Thuesday : 10:00 AM-10:00 PM, Wednesday : 10:00 AM-10:00 PM, Thursday : 10:00 AM-10:00 PM, Friday : 10:00 AM-10:00 PM, Saturday : 10:00 AM-10:00 PM, Sunday : 10:00 AM-10:00 PM",,,
"Culver's of Verona, WI - E Verona Ave",044,430 E Verona Ave,,Verona,WI,53593,US,608-845-2010,42.992836,-89.527908,"Monday : 10:00 AM-11:00 PM, Thuesday : 10:00 AM-11:00 PM, Wednesday : 10:00 AM-11:00 PM, Thursday : 10:00 AM-11:00 PM, Friday : 10:00 AM-11:00 PM, Saturday : 10:00 AM-11:00 PM, Sunday : 10:00 AM-11:00 PM",,,
"Culver's of Columbus, WI - Dix St",184,201 Dix St,,Columbus,WI,53925,US,920-623-5342,43.343464,-89.028542,"Monday : 10:00 AM-11:00 PM, Thuesday : 10:00 AM-11:00 PM, Wednesday : 10:00 AM-11:00 PM, Thursday : 10:00 AM-11:00 PM, Friday : 10:00 AM-11:00 PM, Saturday : 10:00 AM-11:00 PM, Sunday : 10:00 AM-11:00 PM",,,
"Culver's of Madison, WI - Northport Dr",033,1325 Northport Dr,,Madison,WI,53704,US,608-242-7731,43.134176,-89.373112,"Monday : 10:00 AM-10:00 PM, Thuesday : 10:00 AM-10:00 PM, Wednesday : 10:00 AM-10:00 PM, Thursday : 10:00 AM-10:00 PM, Friday : 10:00 AM-10:00 PM, Saturday : 10:00 AM-10:00 PM, Sunday : 10:00 AM-10:00 PM",,,
"Culver's of Kokomo, IN - Pipeline Way",343,101 Pipeline Way,,Kokomo,IN,46902,US,765-455-1099,40.43555,-86.127811,"Monday : 10:00 AM-11:00 PM, Thuesday : 10:00 AM-11:00 PM, Wednesday : 10:00 AM-11:00 PM, Thursday : 10:00 AM-11:00 PM, Friday : 10:00 AM-11:00 PM, Saturday : 10:00 AM-11:00 PM, Sunday : 10:00 AM-11:00 PM",,,
"Culver's of Champaign, IL - S Neil St",215,2302 S Neil St,,Champaign,IL,61820,US,217-352-1699,40.085453,-88.246139,"Monday : 10:00 AM-10:00 PM, Thuesday : 10:00 AM-10:00 PM, Wednesday : 10:00 AM-10:00 PM, Thursday : 10:00 AM-10:00 PM, Friday : 10:00 AM-10:00 PM, Saturday : 10:00 AM-10:00 PM, Sunday : 10:00 AM-10:00 PM",,,
"Culver's of Madison, WI - Mineral Point Rd",565,7206 Mineral Point Rd,,Madison,WI,53717,US,608-203-8024,43.06105,-89.50676,"Monday : 10:00 AM-10:00 PM, Thuesday : 10:00 AM-10:00 PM, Wednesday : 10:00 AM-10:00 PM, Thursday : 10:00 AM-10:00 PM, Friday : 10:00 AM-10:00 PM, Saturday : 10:00 AM-10:00 PM, Sunday : 10:00 AM-10:00 PM",,,
"Culver's of Morton, IL - E Courtland St",284,121 E Courtland St,,Morton,IL,61550,US,309-263-5210,40.62905,-89.463769,"Monday : 10:30 AM-10:00 PM, Thuesday : 10:30 AM-10:00 PM, Wednesday : 10:30 AM-10:00 PM, Thursday : 10:30 AM-10:00 PM, Friday : 10:30 AM-10:00 PM, Saturday : 10:30 AM-10:00 PM, Sunday : 10:30 AM-10:00 PM",,,
"Culver's of Beaver Dam, WI - N Spring St",020,1601 N Spring St,,Beaver Dam,WI,53916,US,920-887-3007,43.472758,-88.825481,"Monday : 10:00 AM-11:00 PM, Thuesday : 10:00 AM-11:00 PM, Wednesday : 10:00 AM-11:00 PM, Thursday : 10:00 AM-11:00 PM, Friday : 10:00 AM-11:00 PM, Saturday : 10:00 AM-11:00 PM, Sunday : 10:00 AM-11:00 PM",,,
"Culver's of Peoria, IL - N University St",209,4612 N University St,,Peoria,IL,61614,US,309-693-3579,40.743986,-89.611911,"Monday : 10:00 AM-10:00 PM, Thuesday : 10:00 AM-10:00 PM, Wednesday : 10:00 AM-10:00 PM, Thursday : 10:00 AM-10:00 PM, Friday : 10:00 AM-10:30 PM, Saturday : 10:00 AM-10:30 PM, Sunday : 10:00 AM-10:00 PM",,,
"Culver's of Middleton, WI - Parmenter St",005,2906 Parmenter St,,Middleton,WI,53562,US,608-836-5577,43.106136,-89.511408,"Monday : 10:00 AM-10:00 PM, Thuesday : 10:00 AM-10:00 PM, Wednesday : 10:00 AM-10:00 PM, Thursday : 10:00 AM-10:00 PM, Friday : 10:00 AM-10:00 PM, Saturday : 10:00 AM-10:00 PM, Sunday : 10:00 AM-10:00 PM",,,
"Culver's of Peoria, IL - W Holiday Dr",309,5019 W Holiday Dr,,Peoria,IL,61615,US,309-693-2366,40.77519,-89.672364,"Monday : 10:00 AM-10:00 PM, Thuesday : 10:00 AM-10:00 PM, Wednesday : 10:00 AM-10:00 PM, Thursday : 10:00 AM-10:00 PM, Friday : 10:00 AM-10:30 PM, Saturday : 10:00 AM-10:30 PM, Sunday : 10:00 AM-10:00 PM",,,
"Culver's of Grand Rapids, MI - E Beltline SE",402,2510 E Beltline SE,,Grand Rapids,MI,49546,US,616-940-1600,42.9183,-85.583295,"Monday : 10:00 AM-10:00 PM, Thuesday : 10:00 AM-10:00 PM, Wednesday : 10:00 AM-10:00 PM, Thursday : 10:00 AM-10:00 PM, Friday : 10:00 AM-10:00 PM, Saturday : 10:00 AM-10:00 PM, Sunday : 10:00 AM-10:00 PM",,,
"Culver's of Battle Creek, MI - Beckley Rd",413,5074 Beckley Rd,,Battle Creek,MI,49015,US,269-288-2728,42.260581,-85.197076,"Monday : 10:00 AM-10:00 PM, Thuesday : 10:00 AM-10:00 PM, Wednesday : 10:00 AM-10:00 PM, Thursday : 10:00 AM-10:00 PM, Friday : 10:00 AM-10:00 PM, Saturday : 10:00 AM-10:00 PM, Sunday : 10:00 AM-10:00 PM",,,
"Culver's of East Peoria, IL - Camp St",278,901 Camp St,,East Peoria,IL,61611,US,309-698-9240,40.680544,-89.588175,"Monday : 10:00 AM-10:00 PM, Thuesday : 10:00 AM-10:00 PM, Wednesday : 10:00 AM-10:00 PM, Thursday : 10:00 AM-10:00 PM, Friday : 10:00 AM-10:30 PM, Saturday : 10:00 AM-10:30 PM, Sunday : 10:00 AM-10:00 PM",,,
"Culver's of Sheboygan, WI - Washington Ave",513,2510 Washington Ave,,Sheboygan,WI,53081,US,920-395-2527,43.719864,-87.73949,"Monday : 10:00 AM-10:00 PM, Thuesday : 10:00 AM-10:00 PM, Wednesday : 10:00 AM-10:00 PM, Thursday : 10:00 AM-10:00 PM, Friday : 10:00 AM-10:00 PM, Saturday : 10:00 AM-10:00 PM, Sunday : 10:00 AM-10:00 PM",,,
"Culver's of Comstock Park, MI - Alpine Ave",360,4280 Alpine Ave,,Comstock Park,MI,49321,US,616-784-3400,43.041447,-85.689144,"Monday : 10:30 AM-10:00 PM, Thuesday : 10:30 AM-10:00 PM, Wednesday : 10:30 AM-10:00 PM, Thursday : 10:30 AM-10:00 PM, Friday : 10:30 AM-10:00 PM, Saturday : 10:30 AM-10:00 PM, Sunday : 10:30 AM-10:00 PM",,,
"Culver's of Waunakee, WI - E Main St",011,900 E Main St,,Waunakee,WI,53597,US,608-849-6599,43.191299,-89.436558,"Monday : 10:00 AM-10:00 PM, Thuesday : 10:00 AM-10:00 PM, Wednesday : 10:00 AM-10:00 PM, Thursday : 10:00 AM-10:00 PM, Friday : 10:00 AM-10:00 PM, Saturday : 10:00 AM-10:00 PM, Sunday : 10:00 AM-10:00 PM",,,
"Culver's of DeForest, WI - Cnty Rd V",030,4910 Cnty Rd V,,DeForest,WI,53532,US,608-846-7575,43.250875,-89.374525,"Monday : 10:00 AM-10:00 PM, Thuesday : 10:00 AM-10:00 PM, Wednesday : 10:00 AM-10:00 PM, Thursday : 10:00 AM-10:00 PM, Friday : 10:00 AM-10:00 PM, Saturday : 10:00 AM-10:00 PM, Sunday : 10:00 AM-10:00 PM",,,
"Culver's of Sheboygan, WI - S Taylor Dr",039,641 S Taylor Dr,,Sheboygan,WI,53081,US,920-451-7150,43.749364,-87.745586,"Monday : 10:00 AM-10:00 PM, Thuesday : 10:00 AM-10:00 PM, Wednesday : 10:00 AM-10:00 PM, Thursday : 10:00 AM-10:00 PM, Friday : 10:00 AM-10:00 PM, Saturday : 10:00 AM-10:00 PM, Sunday : 10:00 AM-10:00 PM",,,
"Culver's of Columbus, OH - Rentra Dr",257,1444 Rentra Dr,,Columbus,OH,43228,US,614-870-8022,39.981425,-83.146325,"Monday : 10:00 AM-10:00 PM, Thuesday : 10:00 AM-10:00 PM, Wednesday : 10:00 AM-10:00 PM, Thursday : 10:00 AM-10:00 PM, Friday : 10:00 AM-10:00 PM, Saturday : 10:00 AM-10:00 PM, Sunday : 10:30 AM-10:00 PM",,,
"Culver's of Grand Rapids, MI - Cascade",303,6300 28th St SE,,Grand Rapids,MI,49546,US,616-464-1190,42.912594,-85.511863,"Monday : 10:30 AM-10:00 PM, Thuesday : 10:30 AM-10:00 PM, Wednesday : 10:30 AM-10:00 PM, Thursday : 10:30 AM-10:00 PM, Friday : 10:30 AM-10:00 PM, Saturday : 10:30 AM-10:00 PM, Sunday : 10:30 AM-10:00 PM",,,
"Culver's of Plymouth, WI - Eastern Ave",116,2318 Eastern Ave,,Plymouth,WI,53073,US,920-893-2663,43.747731,-87.953172,"Monday : 10:00 AM-10:00 PM, Thuesday : 10:00 AM-10:00 PM, Wednesday : 10:00 AM-10:00 PM, Thursday : 10:00 AM-10:00 PM, Friday : 10:00 AM-10:00 PM, Saturday : 10:00 AM-10:00 PM, Sunday : 10:00 AM-10:00 PM",,,
"Culver's of Mt. Horeb, WI - Springdale St",243,1700 Springdale St,,Mt. Horeb,WI,53572,US,608-437-2858,43.010622,-89.717806,"Monday : 10:00 AM-10:00 PM, Thuesday : 10:00 AM-10:00 PM, Wednesday : 10:00 AM-10:00 PM, Thursday : 10:00 AM-10:00 PM, Friday : 10:00 AM-10:00 PM, Saturday : 10:00 AM-10:00 PM, Sunday : 10:00 AM-10:00 PM",,,
"Culver's of Geneseo, IL - S Oakwood Ave",334,1275 S Oakwood Ave,,Geneseo,IL,61254,US,309-944-5300,41.434925,-90.158569,"Monday : 10:00 AM-10:00 PM, Thuesday : 10:00 AM-10:00 PM, Wednesday : 10:00 AM-10:00 PM, Thursday : 10:00 AM-10:00 PM, Friday : 10:00 AM-10:00 PM, Saturday : 10:00 AM-10:00 PM, Sunday : 10:00 AM-10:00 PM",,,
"Culver's of Crawfordsville, IN - S US Hwy 231",356,1855 S US Hwy 231,,Crawfordsville,IN,47933,US,765-359-1960,40.0117,-86.904186,"Monday : 10:00 AM-10:00 PM, Thuesday : 10:00 AM-10:00 PM, Wednesday : 10:00 AM-10:00 PM, Thursday : 10:00 AM-10:00 PM, Friday : 10:00 AM-10:00 PM, Saturday : 10:00 AM-10:00 PM, Sunday : 10:00 AM-10:00 PM",,,
"Culver's of Reynoldsburg, OH - OH Rte 256",368,1912 OH Rte 256,,Reynoldsburg,OH,43068,US,614-863-2333,39.944657,-82.794906,"Monday : 10:30 AM-10:00 PM, Thuesday : 10:30 AM-10:00 PM, Wednesday : 10:30 AM-10:00 PM, Thursday : 10:30 AM-10:00 PM, Friday : 10:30 AM-10:00 PM, Saturday : 10:30 AM-10:00 PM, Sunday : 10:30 AM-10:00 PM",,,
"Culver's of Powell, OH - W Powell Rd",267,4137 W Powell Rd,,Powell,OH,43065,US,614-734-9729,40.158069,-83.096658,"Monday : 10:00 AM-10:00 PM, Thuesday : 10:00 AM-10:00 PM, Wednesday : 10:00 AM-10:00 PM, Thursday : 10:00 AM-10:00 PM, Friday : 10:00 AM-10:00 PM, Saturday : 10:00 AM-10:00 PM, Sunday : 10:00 AM-10:00 PM",,,
"Culver's of Marysville, OH - Square Dr",490,16421 Square Dr,,Marysville,OH,43040,US,937-738-7952,40.240029,-83.343287,"Monday : 10:00 AM-10:00 PM, Thuesday : 10:00 AM-10:00 PM, Wednesday : 10:00 AM-10:00 PM, Thursday : 10:00 AM-10:00 PM, Friday : 10:00 AM-10:00 PM, Saturday : 10:00 AM-10:00 PM, Sunday : 10:00 AM-10:00 PM",,,
"Culver's of Troy, OH - W Main St",250,2100 W Main St,,Troy,OH,45373,US,937-332-7402,40.057577,-84.245666,"Monday : 10:30 AM-10:00 PM, Thuesday : 10:30 AM-10:00 PM, Wednesday : 10:30 AM-10:00 PM, Thursday : 10:30 AM-10:00 PM, Friday : 10:30 AM-10:00 PM, Saturday : 10:30 AM-10:00 PM, Sunday : 10:30 AM-10:00 PM",,,
"Culver's of Sidney, OH - Michigan St",366,2575 Michigan St,,Sidney,OH,45365,US,937-493-0015,40.287219,-84.194769,"Monday : 10:00 AM-10:00 PM, Thuesday : 10:00 AM-10:00 PM, Wednesday : 10:00 AM-10:00 PM, Thursday : 10:00 AM-10:00 PM, Friday : 10:00 AM-10:00 PM, Saturday : 10:00 AM-10:00 PM, Sunday : 10:00 AM-10:00 PM",,,
"Culver's of Monroe, OH - State Hwy 63",557,1301 State Hwy 63,,Monroe,OH,45050,US,513-402-7308,39.439121,-84.329819,"Monday : 10:00 AM-10:30 PM, Thuesday : 10:00 AM-10:30 PM, Wednesday : 10:00 AM-10:30 PM, Thursday : 10:00 AM-10:30 PM, Friday : 10:00 AM-10:30 PM, Saturday : 10:00 AM-10:30 PM, Sunday : 10:00 AM-10:30 PM",,,
"Culver's of Clinton, IA - Lincoln Way",145,2625 Lincoln Way,,Clinton,IA,52732,US,563-242-2205,41.814775,-90.248958,"Monday : 10:30 AM-10:00 PM, Thuesday : 10:30 AM-10:00 PM, Wednesday : 10:30 AM-10:00 PM, Thursday : 10:30 AM-10:00 PM, Friday : 10:30 AM-10:00 PM, Saturday : 10:30 AM-10:00 PM, Sunday : 10:30 AM-10:00 PM",,,
"Culver's of Cross Plains, WI - Main St",006,2523 Main St,,Cross Plains,WI,53528,US,608-798-1600,43.111253,-89.644303,"Monday : 10:00 AM-10:00 PM, Thuesday : 10:00 AM-10:00 PM, Wednesday : 10:00 AM-10:00 PM, Thursday : 10:00 AM-10:00 PM, Friday : 10:00 AM-10:00 PM, Saturday : 10:00 AM-10:00 PM, Sunday : 10:00 AM-10:00 PM",,,
"Culver's of Sheboygan, WI - State Hwy 42",385,4225 State Hwy 42,,Sheboygan,WI,53083,US,920-459-4821,43.790791,-87.75958,"Monday : 10:00 AM-10:00 PM, Thuesday : 10:00 AM-10:00 PM, Wednesday : 10:00 AM-10:00 PM, Thursday : 10:00 AM-10:00 PM, Friday : 10:00 AM-10:00 PM, Saturday : 10:00 AM-10:00 PM, Sunday : 10:00 AM-10:00 PM",,,
"Culver's of Waupun, WI - Kelly Ave",079,900 Kelly Ave,,Waupun,WI,53963,US,920-324-5224,43.635189,-88.717719,"Monday : 10:00 AM-11:00 PM, Thuesday : 10:00 AM-11:00 PM, Wednesday : 10:00 AM-11:00 PM, Thursday : 10:00 AM-11:00 PM, Friday : 10:00 AM-11:00 PM, Saturday : 10:00 AM-11:00 PM, Sunday : 10:00 AM-11:00 PM",,,
"Culver's of Pekin, IL - Court St",253,3500 Court St,,Pekin,IL,61554,US,309-346-2199,40.542744,-89.598517,"Monday : 10:00 AM-10:00 PM, Thuesday : 10:00 AM-10:00 PM, Wednesday : 10:00 AM-10:00 PM, Thursday : 10:00 AM-10:00 PM, Friday : 10:00 AM-10:00 PM, Saturday : 10:00 AM-10:00 PM, Sunday : 10:00 AM-10:00 PM",,,
"Culver's of Marion, IN - S Western Ave",404,2307 S Western Ave,,Marion,IN,46953,US,765-573-4955,40.539844,-85.673225,"Monday : 10:00 AM-10:00 PM, Thuesday : 10:00 AM-10:00 PM, Wednesday : 10:00 AM-10:00 PM, Thursday : 10:00 AM-10:00 PM, Friday : 10:00 AM-11:00 PM, Saturday : 10:00 AM-11:00 PM, Sunday : 10:00 AM-10:00 PM",,,
"Culver's of Mason, OH - Tylersville Rd",273,5742 Tylersville Rd,,Mason,OH,45040,US,513-770-4000,39.352355,-84.323452,"Monday : 10:00 AM-10:00 PM, Thuesday : 10:00 AM-10:00 PM, Wednesday : 10:00 AM-10:00 PM, Thursday : 10:00 AM-10:00 PM, Friday : 10:00 AM-10:00 PM, Saturday : 10:00 AM-10:00 PM, Sunday : 10:00 AM-10:00 PM",,,
"Culver's of Findlay, OH - Trenton Ave",439,806 Trenton Ave,,Findlay,OH,45840,US,567-525-5770,41.059132,-83.665872,"Monday : 10:30 AM-10:00 PM, Thuesday : 10:30 AM-10:00 PM, Wednesday : 10:30 AM-10:00 PM, Thursday : 10:30 AM-10:00 PM, Friday : 10:30 AM-10:00 PM, Saturday : 10:30 AM-10:00 PM, Sunday : 10:30 AM-10:00 PM",,,
"Culver's of Hamilton, OH - Princeton Rd",288,3111 Princeton Rd,,Hamilton,OH,45011,US,513-785-7600,39.390539,-84.511472,"Monday : 10:00 AM-10:00 PM, Thuesday : 10:00 AM-10:00 PM, Wednesday : 10:00 AM-10:00 PM, Thursday : 10:00 AM-10:00 PM, Friday : 10:00 AM-10:00 PM, Saturday : 10:00 AM-10:00 PM, Sunday : 10:00 AM-10:00 PM",,,
"Culver's of Florence, KY - Hwy 42",407,8554 Hwy 42,,Florence,KY,41042,US,859-534-0625,38.973397,-84.662777,"Monday : 10:30 AM-10:00 PM, Thuesday : 10:30 AM-10:00 PM, Wednesday : 10:30 AM-10:00 PM, Thursday : 10:30 AM-10:00 PM, Friday : 10:30 AM-10:00 PM, Saturday : 10:30 AM-10:00 PM, Sunday : 10:30 AM-10:00 PM",,,
"Culver's of Muncie, IN - W McGalliard Rd",506,1312 W McGalliard Rd,,Muncie,IN,47303,US,765-212-2811,40.21928,-85.401267,"Monday : 10:30 AM-10:30 PM, Thuesday : 10:30 AM-10:30 PM, Wednesday : 10:30 AM-10:30 PM, Thursday : 10:30 AM-10:30 PM, Friday : 10:30 AM-10:30 PM, Saturday : 10:30 AM-10:30 PM, Sunday : 10:30 AM-10:30 PM",,,
"Culver's of Fort Wayne, IN - W Jefferson Blvd",399,6527 W Jefferson Blvd,,Fort Wayne,IN,46804,US,260-432-4111,41.054197,-85.22648,"Monday : 10:30 AM-10:00 PM, Thuesday : 10:30 AM-10:00 PM, Wednesday : 10:30 AM-10:00 PM, Thursday : 10:30 AM-10:00 PM, Friday : 10:30 AM-10:30 PM, Saturday : 10:30 AM-10:30 PM, Sunday : 10:30 AM-10:00 PM",,,
"Culver's of Coldwater, MI - E Chicago St",466,436 E Chicago St,,Coldwater,MI,49036,US,517-227-5051,41.937163,-84.982131,"Monday : 10:00 AM-10:00 PM, Thuesday : 10:00 AM-10:00 PM, Wednesday : 10:00 AM-10:00 PM, Thursday : 10:00 AM-10:00 PM, Friday : 10:00 AM-10:00 PM, Saturday : 10:00 AM-10:00 PM, Sunday : 10:00 AM-10:00 PM",,,
"Culver's of Fond du Lac, WI - W Pioneer Rd",028,81 W Pioneer Rd,,Fond du Lac,WI,54935,US,920-922-2826,43.754164,-88.452147,"Monday : 10:30 AM-10:00 PM, Thuesday : 10:30 AM-10:00 PM, Wednesday : 10:30 AM-10:00 PM, Thursday : 10:30 AM-10:00 PM, Friday : 10:30 AM-10:00 PM, Saturday : 10:30 AM-10:00 PM, Sunday : 10:30 AM-10:00 PM",,,
"Culver's of Fort Wayne, IN - W Washington Center Rd",476,1425 W Washington Center Rd,,Fort Wayne,IN,46825,US,260-451-2002,41.131891,-85.158264,"Monday : 10:00 AM-10:00 PM, Thuesday : 10:00 AM-10:00 PM, Wednesday : 10:00 AM-10:00 PM, Thursday : 10:00 AM-10:00 PM, Friday : 10:00 AM-10:00 PM, Saturday : 10:00 AM-10:00 PM, Sunday : 10:00 AM-10:00 PM",,,
"Culver's of Fond du Lac, WI - E Johnson St",300,969 E Johnson St,,Fond du Lac,WI,54935,US,920-922-5559,43.784033,-88.409203,"Monday : 10:00 AM-10:00 PM, Thuesday : 10:00 AM-10:00 PM, Wednesday : 10:00 AM-10:00 PM, Thursday : 10:00 AM-10:00 PM, Friday : 10:00 AM-10:00 PM, Saturday : 10:00 AM-10:00 PM, Sunday : 10:00 AM-10:00 PM",,,
"Culver's of Fort Wayne, IN - E Dupont Rd",296,3510 E Dupont Rd,,Fort Wayne,IN,46825,US,260-482-4466,41.178375,-85.100356,"Monday : 10:00 AM-10:00 PM, Thuesday : 10:00 AM-10:00 PM, Wednesday : 10:00 AM-10:00 PM, Thursday : 10:00 AM-10:00 PM, Friday : 10:00 AM-10:30 PM, Saturday : 10:00 AM-10:30 PM, Sunday : 10:00 AM-10:00 PM",,,
"Culver's of Fort Wayne, IN - Stellhorn Rd",494,6026 Stellhorn Rd,,Fort Wayne,IN,46815,US,260-755-5256,41.119927,-85.064304,"Monday : 10:00 AM-10:00 PM, Thuesday : 10:00 AM-10:00 PM, Wednesday : 10:00 AM-10:00 PM, Thursday : 10:00 AM-10:00 PM, Friday : 10:00 AM-10:00 PM, Saturday : 10:00 AM-10:00 PM, Sunday : 10:00 AM-10:00 PM",,,
"Culver's of Fort Wayne, IN - E Dupont Rd",296,3510 E Dupont Rd,,Fort Wayne,IN,46825,US,260-482-4466,41.178375,-85.100356,"Monday : 10:00 AM-10:00 PM, Thuesday : 10:00 AM-10:00 PM, Wednesday : 10:00 AM-10:00 PM, Thursday : 10:00 AM-10:00 PM, Friday : 10:00 AM-10:30 PM, Saturday : 10:00 AM-10:30 PM, Sunday : 10:00 AM-10:00 PM",,,
"Culver's of Anderson, IN - S Scatterfield Rd",289,6386 S Scatterfield Rd,,Anderson,IN,46013,US,765-640-5158,40.050864,-85.652306,"Monday : 10:00 AM-10:00 PM, Thuesday : 10:00 AM-10:00 PM, Wednesday : 10:00 AM-10:00 PM, Thursday : 10:00 AM-10:00 PM, Friday : 10:00 AM-11:00 PM, Saturday : 10:00 AM-11:00 PM, Sunday : 10:00 AM-10:00 PM",,,
"Culver's of Adrian, MI - S Main St",321,1360 S Main St,,Adrian,MI,49221,US,517-264-5090,41.879011,-84.04375,"Monday : 10:00 AM-10:00 PM, Thuesday : 10:00 AM-10:00 PM, Wednesday : 10:00 AM-10:00 PM, Thursday : 10:00 AM-10:00 PM, Friday : 10:00 AM-10:00 PM, Saturday : 10:00 AM-10:00 PM, Sunday : 10:00 AM-10:00 PM",,,
"Culver's of Georgetown, KY - Cherry Blossom Way",550,1450 Cherry Blossom Way,,Georgetown,KY,40324,US,502-863-2600,38.221423,-84.539933,"Monday : 10:00 AM-10:00 PM, Thuesday : 10:00 AM-10:00 PM, Wednesday : 10:00 AM-10:00 PM, Thursday : 10:00 AM-10:00 PM, Friday : 10:00 AM-10:00 PM, Saturday : 10:00 AM-10:00 PM, Sunday : 10:00 AM-10:00 PM",,,
"Culver's of Fond du Lac, WI - State Rd 23",093,W6606 State Rd 23,,Fond du Lac,WI,54937,US,920-922-2272,43.7838,-88.487286,"Monday : 10:00 AM-10:00 PM, Thuesday : 10:00 AM-10:00 PM, Wednesday : 10:00 AM-10:00 PM, Thursday : 10:00 AM-10:00 PM, Friday : 10:00 AM-10:00 PM, Saturday : 10:00 AM-10:00 PM, Sunday : 10:00 AM-10:00 PM",,,
"Culver's of Sauk City, WI - Phillips Blvd",001,716 Phillips Blvd,,Sauk City,WI,53583,US,608-643-6620,43.270689,-89.729864,"Monday : 10:00 AM-10:00 PM, Thuesday : 10:00 AM-10:00 PM, Wednesday : 10:00 AM-10:00 PM, Thursday : 10:00 AM-10:00 PM, Friday : 10:00 AM-10:00 PM, Saturday : 10:00 AM-10:00 PM, Sunday : 10:00 AM-10:00 PM",,,
"Culver's of Silvis, IL - 22nd Ave",578,608 22nd Ave,,Silvis,IL,61282,US,309-281-1410,41.487941,-90.420368,"Monday : 10:00 AM-10:00 PM, Thuesday : 10:00 AM-10:00 PM, Wednesday : 10:00 AM-10:00 PM, Thursday : 10:00 AM-10:00 PM, Friday : 10:00 AM-10:00 PM, Saturday : 10:00 AM-10:00 PM, Sunday : 10:00 AM-10:00 PM",,,
"Culver's of Westfield, IN - Sun Park Dr",608,17651 Sun Park Dr,,Westfield,IN,46074,US,317-763-1777,40.043128,-86.139764,"Monday : 10:30 AM-10:30 PM, Thuesday : 10:30 AM-10:30 PM, Wednesday : 10:30 AM-10:30 PM, Thursday : 10:30 AM-10:30 PM, Friday : 10:30 AM-10:30 PM, Saturday : 10:30 AM-10:30 PM, Sunday : 10:30 AM-10:30 PM",,,
"Culver's of Dodgeville, WI - N Johns St",027,1122 N Johns St,,Dodgeville,WI,53533,US,608-935-9094,42.971986,-90.126892,"Monday : 10:00 AM-10:00 PM, Thuesday : 10:00 AM-10:00 PM, Wednesday : 10:00 AM-10:00 PM, Thursday : 10:00 AM-10:00 PM, Friday : 10:00 AM-10:00 PM, Saturday : 10:00 AM-10:00 PM, Sunday : 10:00 AM-10:00 PM",,,
"Culver's of Greenfield, IN - N State St",350,1846 N State St,,Greenfield,IN,46140,US,317-468-1902,39.811656,-85.770289,"Monday : 10:00 AM-10:00 PM, Thuesday : 10:00 AM-10:00 PM, Wednesday : 10:00 AM-10:00 PM, Thursday : 10:00 AM-10:00 PM, Friday : 10:00 AM-11:00 PM, Saturday : 10:00 AM-11:00 PM, Sunday : 10:00 AM-10:00 PM",,,
"Culver's of Lexington, KY - Hamburg Place",332,2161 Paul Jones Way,,Lexington,KY,40509,US,859-263-7777,38.020722,-84.421536,"Monday : 10:30 AM-10:00 PM, Thuesday : 10:30 AM-10:00 PM, Wednesday : 10:30 AM-10:00 PM, Thursday : 10:30 AM-10:00 PM, Friday : 10:30 AM-10:00 PM, Saturday : 10:30 AM-10:00 PM, Sunday : 10:30 AM-10:00 PM",,,
"Culver's of Moline, IL - 38th Ave",163,4011 38th Ave,,Moline,IL,61265,US,309-797-0226,41.472553,-90.477408,"Monday : 10:00 AM-10:00 PM, Thuesday : 10:00 AM-10:00 PM, Wednesday : 10:00 AM-10:00 PM, Thursday : 10:00 AM-10:00 PM, Friday : 10:00 AM-10:00 PM, Saturday : 10:00 AM-10:00 PM, Sunday : 10:00 AM-10:00 PM",,,
"Culver's of Lincoln, IL - Woodlawn Rd",355,2530 Woodlawn Rd,,Lincoln,IL,62656,US,217-732-7300,40.15852,-89.402563,"Monday : 10:30 AM-10:00 PM, Thuesday : 10:30 AM-10:00 PM, Wednesday : 10:30 AM-10:00 PM, Thursday : 10:30 AM-10:00 PM, Friday : 10:30 AM-10:00 PM, Saturday : 10:30 AM-10:00 PM, Sunday : 10:30 AM-10:00 PM",,,
"Culver's of Bettendorf, IA - Spruce Hills Dr",472,2312 Spruce Hills Dr,,Bettendorf,IA,52722,US,563-424-1212,41.549721,-90.501603,"Monday : 10:00 AM-10:00 PM, Thuesday : 10:00 AM-10:00 PM, Wednesday : 10:00 AM-10:00 PM, Thursday : 10:00 AM-10:00 PM, Friday : 10:00 AM-10:00 PM, Saturday : 10:00 AM-10:00 PM, Sunday : 10:00 AM-10:00 PM",,,
"Culver's of Galena, IL - Oldenburg Ln",085,11371 Oldenburg Ln,,Galena,IL,61036,US,815-777-9401,42.436222,-90.450325,"Monday : 10:00 AM-10:00 PM, Thuesday : 10:00 AM-10:00 PM, Wednesday : 10:00 AM-10:00 PM, Thursday : 10:00 AM-10:00 PM, Friday : 10:00 AM-10:00 PM, Saturday : 10:00 AM-10:00 PM, Sunday : 10:00 AM-10:00 PM",,,
"Culver's of Portage, WI - New Pinery Rd",015,2733 New Pinery Rd,,Portage,WI,53901,US,608-742-7982,43.563586,-89.468814,"Monday : 10:00 AM-11:00 PM, Thuesday : 10:00 AM-11:00 PM, Wednesday : 10:00 AM-11:00 PM, Thursday : 10:00 AM-11:00 PM, Friday : 10:00 AM-11:00 PM, Saturday : 10:00 AM-11:00 PM, Sunday : 10:00 AM-11:00 PM",,,
"Culver's of Davenport, IA - Jersey Ridge Rd",084,5320 Jersey Ridge Rd,,Davenport,IA,52807,US,563-355-4474,41.5756,-90.542439,"Monday : 10:30 AM-10:00 PM, Thuesday : 10:30 AM-10:00 PM, Wednesday : 10:30 AM-10:00 PM, Thursday : 10:30 AM-10:00 PM, Friday : 10:30 AM-10:00 PM, Saturday : 10:30 AM-10:00 PM, Sunday : 10:30 AM-10:00 PM",,,
"Culver's of Fishers, IN - Olio Rd",515,13691 Olio Rd,,Fishers,IN,46037,US,317-774-0400,39.987494,-85.918416,"Monday : 10:00 AM-10:00 PM, Thuesday : 10:00 AM-10:00 PM, Wednesday : 10:00 AM-10:00 PM, Thursday : 10:00 AM-10:00 PM, Friday : 10:00 AM-11:00 PM, Saturday : 10:00 AM-11:00 PM, Sunday : 10:00 AM-10:00 PM",,,
